# LAS format log file from PETREL
# Project units are specified as depth units
#==================================================================
~Version information
VERS.   2.0:
WRAP.   YES:
#==================================================================
~Well
STRT .m      800.09997440 :
STOP .m      2449.8299216 :
STEP .m     0.15240000 :
NULL .        -999.250000 :
COMP.           : COMPANY
WELL.  34/10-15   : WELL
FLD.            : FIELD
LOC.            : LOCATION
SRVC.           : SERVICE COMPANY
DATE.  Wednesday, March 31 2010 12:33:14   : DATE
PROV.           : PROVINCE
UWI.      : UNIQUE WELL ID
API.            : API NUMBER
#==================================================================
~Curve
DEPT .m                   : DEPTH
NETS .                    : NETS
COAL .                    : COAL
CARB .                    : CARB
VSH .                     : VSH
SW .                      : SW
ILD .ohm.m                : ILD
MSFL .ohm.m               : MSFL
LLS .ohm.m                : LLS
LLD .ohm.m                : LLD
ILM .ohm.m                : ILM
DT .us/ft                 : DT
KLOG .mD                  : KLOG
DRHO .g/cm3               : DRHO
RHOB .g/cm3               : RHOB
PHIF .m3/m3               : PHIF
NPHI .m3/m3               : NPHI
GR .gAPI                  : GR
DEPT .m                   : DEPT
TIME .ms                  : TIME
CALI .in                  : CALI
BS .in                    : BS
QTOT .rm3/d               : QTOT
QWAT .sm3/d               : QWAT
GeneralTime1 .ms          : General Time 1
~Parameter
#==================================================================
~Ascii
# ...
 2023.1099353
 0.0000000000  -999.250000 0.0000000000 0.4966999888 1.0000000000 0.9814000130
 1.6112999916  -999.250000  -999.250000  -999.250000 126.37100220 0.1554999948
  -999.250000 2.3008000851 0.1855999976 0.4248000085 68.435401917 2023.1099854
  -999.250000 11.203000069 8.5000000000  -999.250000  -999.250000  -999.250000
 2023.2623353
 0.0000000000  -999.250000 0.0000000000 0.5515999794 1.0000000000 0.9789999723
 1.5673999786  -999.250000  -999.250000  -999.250000 127.55999756 0.1264999956
  -999.250000 2.3066000938 0.1782000065 0.4526000023 65.500000000 2023.2624512
  -999.250000 11.203000069 8.5000000000  -999.250000  -999.250000  -999.250000
 2023.4147353
 0.0000000000  -999.250000 0.0000000000 0.5490000248 1.0000000000 0.9794999957
 1.4931999445  -999.250000  -999.250000  -999.250000 127.75000000 0.1353999972
  -999.250000 2.3046998978 0.1794999987 0.4492000043 65.313003540 2023.4147949
  -999.250000 11.038999557 8.5000000000  -999.250000  -999.250000  -999.250000
 2023.5671352
 0.0000000000  -999.250000 0.0000000000 0.5795000196 1.0000000000 0.9775000215
 1.4931999445  -999.250000  -999.250000  -999.250000 128.74969482 0.1101000011
  -999.250000 2.3104999065 0.1738999933 0.4603999853 69.500396729 2023.5672607
  -999.250000 11.133000374 8.5000000000  -999.250000  -999.250000  -999.250000
 2023.7195352
 0.0000000000  -999.250000 0.0000000000 0.5339000225 1.0000000000 0.9735999703
 1.4364999533  -999.250000  -999.250000  -999.250000 128.11920166 0.1264999956
  -999.250000 2.3066000938 0.1793999970 0.4399000108 70.374099731 2023.7196045
  -999.250000 11.163999557 8.5000000000  -999.250000  -999.250000  -999.250000
 2023.8719352
 0.0000000000  -999.250000 0.0000000000 0.5329999924 1.0000000000 0.9717000127
 1.4707000256  -999.250000  -999.250000  -999.250000 127.19039917 0.1454000026
  -999.250000 2.3027000427 0.1818999946 0.4419000149 69.250503540 2023.8719482
  -999.250000 11.187999725 8.5000000000  -999.250000  -999.250000  -999.250000
 2024.0243352
 0.0000000000  -999.250000 0.0000000000 0.5360000134 1.0000000000 0.9696999788
 1.4814000130  -999.250000  -999.250000  -999.250000 126.19000244 0.1454000026
  -999.250000 2.3027000427 0.1817000061 0.4433999956 70.188003540 2024.0244141
  -999.250000 11.312999725 8.5000000000  -999.250000  -999.250000  -999.250000
 2024.1767352
 0.0000000000  -999.250000 0.0000000000 0.5512999892 1.0000000000 0.9696999788
 1.5146000385  -999.250000  -999.250000  -999.250000 125.75000000 0.1101000011
  -999.250000 2.3104999065 0.1757999957 0.4463000000 71.250000000 2024.1767578
  -999.250000 11.078000069 8.5000000000  -999.250000  -999.250000  -999.250000
 2024.3291352
 0.0000000000  -999.250000 0.0000000000 0.5415999889 1.0000000000 0.9735999703
 1.6326999664  -999.250000  -999.250000  -999.250000 125.19069672 0.0954999998
  -999.250000 2.3145000935 0.1740999967 0.4390000105 69.560798645 2024.3292236
  -999.250000 10.906100273 8.5000000000  -999.250000  -999.250000  -999.250000
 2024.4815352
 0.0000000000  -999.250000 0.0000000000 0.5119000077 1.0000000000 0.9765999913
 1.5526000261  -999.250000  -999.250000  -999.250000 126.36940002 0.1024999991
  -999.250000 2.3125000000 0.1773999929 0.4253000021 66.189300537 2024.4815674
  -999.250000 11.077899933 8.5000000000  -999.250000  -999.250000  -999.250000
 2024.6339352
 0.0000000000  -999.250000 0.0000000000 0.4688000083 1.0000000000 0.9810000062
 1.4600000381  -999.250000  -999.250000  -999.250000 125.75000000 0.1264999956
  -999.250000 2.3066000938 0.1840000004 0.4072000086 67.500000000 2024.6340332
  -999.250000 10.984000206 8.5000000000  -999.250000  -999.250000  -999.250000
 2024.7863352
 0.0000000000  -999.250000 0.0000000000 0.4433999956 1.0000000000 0.9854000211
 1.6367000341  -999.250000  -999.250000  -999.250000 125.19000244 0.1101000011
  -999.250000 2.3104999065 0.1834000051 0.3921000063 74.688003540 2024.7863770
  -999.250000 11.156000137 8.5000000000  -999.250000  -999.250000  -999.250000
 2024.9387352
 0.0000000000  -999.250000 0.0000000000 0.5149999857 1.0000000000 0.9883000255
 1.5068000555  -999.250000  -999.250000  -999.250000 124.55970001 0.0546999983
  -999.250000 2.3301000595 0.1662999988 0.4160000086 74.876296997 2024.9388428
  -999.250000 11.038999557 8.5000000000  -999.250000  -999.250000  -999.250000
 2025.0911352
 0.0000000000  -999.250000 0.0000000000 0.5910000205 1.0000000000 0.9883000255
 1.5957000256  -999.250000  -999.250000  -999.250000 124.00109863 0.0179999992
  -999.250000 2.3612999916 0.1419000030 0.4350999892 77.436203003 2025.0911865
  -999.250000 11.008000374 8.5000000000  -999.250000  -999.250000  -999.250000
 2025.2435352
 0.0000000000  -999.250000 0.0000000000 0.6243000031 1.0000000000 0.9883000255
 1.6123000383  -999.250000  -999.250000  -999.250000 125.19000244 0.0110999998
  -999.250000 2.3750000000 0.1310999990 0.4433999956 75.375000000 2025.2436523
  -999.250000 11.022999763 8.5000000000  -999.250000  -999.250000  -999.250000
 2025.3959352
 0.0000000000  -999.250000 0.0000000000 0.6025000215 1.0000000000 0.9833999872
 1.6445000172  -999.250000  -999.250000  -999.250000 126.00000000 0.0136000002
  -999.250000 2.3691000938 0.1362999976 0.4359999895 73.813003540 2025.3959961
  -999.250000 10.977000237 8.5000000000  -999.250000  -999.250000  -999.250000
 2025.5483352
 0.0000000000  -999.250000 0.0000000000 0.5503000021 1.0000000000 0.9789999723
 1.6620999575  -999.250000  -999.250000  -999.250000 126.56030273 0.0207000002
  -999.250000 2.3573999405 0.1471000016 0.4169999957 70.186996460 2025.5483398
  -999.250000 11.022999763 8.5000000000  -999.250000  -999.250000  -999.250000
 2025.7007352
 0.0000000000  -999.250000 0.0000000000 0.5759000182 1.0000000000 0.9707000256
 1.6330000162  -999.250000  -999.250000  -999.250000 127.37010193 0.0361000001
  -999.250000 2.3417999744 0.1548999995 0.4395000041 67.627502441 2025.7008057
  -999.250000 10.983900070 8.5000000000  -999.250000  -999.250000  -999.250000
 2025.8531352
 0.0000000000  -999.250000 0.0000000000 0.5697000027 1.0000000000 0.9624000192
 1.8641999960  -999.250000  -999.250000  -999.250000 127.55989838 0.0445000008
  -999.250000 2.3359000683 0.1589999944 0.4399000108 70.873497009 2025.8531494
  -999.250000 10.897999763 8.5000000000  -999.250000  -999.250000  -999.250000
 2026.0055352
 0.0000000000  -999.250000 0.0000000000 0.5575000048 1.0000000000 0.9574999809
 1.6376999617  -999.250000  -999.250000  -999.250000 127.55999756 0.0776000023
  -999.250000 2.3203001022 0.1694000065 0.4433999956 73.063003540 2026.0056152
  -999.250000 10.812999725 8.5000000000  -999.250000  -999.250000  -999.250000
 2026.1579352
 0.0000000000  -999.250000 0.0000000000 0.5774000287 1.0000000000 0.9458000064
 1.5527000427  -999.250000  -999.250000  -999.250000 128.11999512 0.0723000020
  -999.250000 2.3222999573 0.1668000072 0.4521000087 71.188003540 2026.1579590
  -999.250000 10.859000206 8.5000000000  -999.250000  -999.250000  -999.250000
 2026.3103352
 0.0000000000  -999.250000 0.0000000000 0.5619999766 1.0000000000 0.9369999766
 1.5051000118  -999.250000  -999.250000  -999.250000 127.18969727 0.0830999985
  -999.250000 2.3183999062 0.1702000052 0.4467999935 69.623802185 2026.3104248
  -999.250000 10.852000237 8.5000000000  -999.250000  -999.250000  -999.250000
 2026.4627352
 0.0000000000  -999.250000 0.0000000000 0.5838999748 1.0000000000 0.9311000109
 1.8638999462  -999.250000  -999.250000  -999.250000 126.74980164 0.0675000027
  -999.250000 2.3241999149 0.1650999933 0.4609000087 67.815803528 2026.4627686
  -999.250000 10.812999725 8.5000000000  -999.250000  -999.250000  -999.250000
 2026.6151351
 0.0000000000  -999.250000 0.0000000000 0.5781999826 1.0000000000 0.9223999977
 1.4844000340  -999.250000  -999.250000  -999.250000 126.55999756 0.0546999983
  -999.250000 2.3301000595 0.1618999988 0.4476999938 70.625000000 2026.6152344
  -999.250000 10.772999763 8.5000000000  -999.250000  -999.250000  -999.250000
 2026.7675351
 0.0000000000  -999.250000 0.0000000000 0.5935000181 1.0000000000 0.9218999743
 1.7314000130  -999.250000  -999.250000  -999.250000 127.00000000 0.0476000011
  -999.250000 2.3340001106 0.1585000008 0.4603999853 68.500000000 2026.7675781
  -999.250000 10.883000374 8.5000000000  -999.250000  -999.250000  -999.250000
