# LAS format log file from PETREL
# Project units are specified as depth units
#==================================================================
~Version information
VERS.   2.0:
WRAP.   YES:
#==================================================================
~Well
STRT .m      800.09997440 :
STOP .m      2299.7159264 :
STEP .m     0.15240000 :
NULL .        -999.250000 :
COMP.           : COMPANY
WELL.  34/10-11   : WELL
FLD.            : FIELD
LOC.            : LOCATION
SRVC.           : SERVICE COMPANY
DATE.  Wednesday, March 31 2010 12:33:12   : DATE
PROV.           : PROVINCE
UWI.      : UNIQUE WELL ID
API.            : API NUMBER
#==================================================================
~Curve
DEPT .m                   : DEPTH
NETS .                    : NETS
COAL .                    : COAL
CARB .                    : CARB
VSH .                     : VSH
SW .                      : SW
ILD .ohm.m                : ILD
MSFL .ohm.m               : MSFL
LLS .ohm.m                : LLS
LLD .ohm.m                : LLD
ILM .ohm.m                : ILM
DT .us/ft                 : DT
KLOG .mD                  : KLOG
DRHO .g/cm3               : DRHO
RHOB .g/cm3               : RHOB
PHIF .m3/m3               : PHIF
NPHI .m3/m3               : NPHI
GR .gAPI                  : GR
DEPT .m                   : DEPT
TIME .ms                  : TIME
CALI .in                  : CALI
BS .in                    : BS
QTOT .rm3/d               : QTOT
QWAT .sm3/d               : QWAT
GeneralTime1 .ms          : General Time 1
~Parameter
#==================================================================
~Ascii
# ...
 1840.2299411
  -999.250000  -999.250000 0.0000000000 1.0000000000  -999.250000 1.3856999874
 0.9125999808 1.0649000406 1.0219000578  -999.250000 116.55999756  -999.250000
  -999.250000 2.4667999744 0.0000000000 0.3501000106 48.905998230 1840.2299805
  -999.250000 9.5937995911  -999.250000  -999.250000  -999.250000  -999.250000
 1840.3823411
  -999.250000  -999.250000 0.0000000000 1.0000000000  -999.250000 1.3554999828
 1.0548000336 1.0800000429 1.0667999983  -999.250000 122.75759888  -999.250000
  -999.250000 2.3046998978 0.0000000000 0.3970000148 49.093799591 1840.3824463
  -999.250000 10.375100136  -999.250000  -999.250000  -999.250000  -999.250000
 1840.5347411
  -999.250000  -999.250000 0.0000000000 1.0000000000  -999.250000 1.2655999660
 1.3476999998 1.1727000475 1.1878999472  -999.250000 138.13279724  -999.250000
  -999.250000 2.2051000595 0.0000000000 0.4302000105 48.781898499 1840.5347900
  -999.250000 10.672300339  -999.250000  -999.250000  -999.250000  -999.250000
 1840.6871411
  -999.250000  -999.250000 0.0000000000 1.0000000000  -999.250000 1.2304999828
 1.3280999660 1.1718000174 1.1984000206  -999.250000 153.00000000  -999.250000
  -999.250000 2.2051000595 0.0000000000 0.4472999871 49.812999725 1840.6872559
  -999.250000 11.055000305  -999.250000  -999.250000  -999.250000  -999.250000
 1840.8395411
  -999.250000  -999.250000 0.0000000000 1.0000000000  -999.250000 1.2266000509
 0.8184000254 1.1621999741 1.1711000204  -999.250000 158.11999512  -999.250000
  -999.250000 2.1816000938 0.0000000000 0.4375000000 48.594001770 1840.8395996
  -999.250000 11.819999695  -999.250000  -999.250000  -999.250000  -999.250000
 1840.9919411
  -999.250000  -999.250000 0.0000000000 1.0000000000  -999.250000 1.2030999660
 0.7914999723 1.1581000090 1.1456999779  -999.250000 161.11999512  -999.250000
  -999.250000 2.1602001190 0.0000000000 0.4302000105 46.062999725 1840.9919434
  -999.250000 11.694999695  -999.250000  -999.250000  -999.250000  -999.250000
 1841.1443411
  -999.250000  -999.250000 0.0000000000 1.0000000000  -999.250000 1.1582000256
 1.0225000381 1.2026000023 1.2059999704  -999.250000 161.74760437  -999.250000
  -999.250000 2.1582000256 0.0000000000 0.4345999956 46.718700409 1841.1444092
  -999.250000 12.374799728  -999.250000  -999.250000  -999.250000  -999.250000
 1841.2967411
  -999.250000  -999.250000 0.0000000000 1.0000000000  -999.250000 1.0928000212
 1.0429999828 1.3063000441 1.3142000437  -999.250000 158.50160217  -999.250000
  -999.250000 2.2207000256 0.0000000000 0.4507000148 46.344200134 1841.2967529
  -999.250000 12.102100372  -999.250000  -999.250000  -999.250000  -999.250000
 1841.4491411
  -999.250000  -999.250000 0.0000000000 1.0000000000  -999.250000 1.0576000214
 1.1777000427 1.3068000078 1.3115999699  -999.250000 160.50000000  -999.250000
  -999.250000 2.2969000340 0.0000000000 0.4481999874 46.625000000 1841.4492188
  -999.250000 11.522999763  -999.250000  -999.250000  -999.250000  -999.250000
 1841.6015411
  -999.250000  -999.250000 0.0000000000 1.0000000000  -999.250000 1.0410000086
 1.5917999744 1.2797000408 1.2675000429  -999.250000 154.75000000  -999.250000
  -999.250000 2.3301000595 0.0000000000 0.4408999979 46.780998230 1841.6015625
  -999.250000 11.194999695  -999.250000  -999.250000  -999.250000  -999.250000
 1841.7539411
  -999.250000  -999.250000 0.0000000000 1.0000000000  -999.250000 1.0518000126
 1.7264000177 1.2539999485 1.2814999819  -999.250000 141.35949707  -999.250000
  -999.250000 2.3359000683 0.0000000000 0.4302000105 47.221801758 1841.7540283
  -999.250000 11.555100441  -999.250000  -999.250000  -999.250000  -999.250000
 1841.9063411
  -999.250000  -999.250000 0.0000000000 1.0000000000  -999.250000 1.0762000084
 1.3319000006 1.1770999432 1.1340999603  -999.250000 124.37460327  -999.250000
  -999.250000 2.3262000084 0.0000000000 0.4203999937 51.752601624 1841.9063721
  -999.250000 11.694299698  -999.250000  -999.250000  -999.250000  -999.250000
 1842.0587411
  -999.250000  -999.250000 0.0000000000 1.0000000000  -999.250000 1.0518000126
 1.2030999660 1.1153000593 1.1217999458  -999.250000 129.11999512  -999.250000
  -999.250000 2.3222999573 0.0000000000 0.4149999917 54.405998230 1842.0588379
  -999.250000 10.953000069  -999.250000  -999.250000  -999.250000  -999.250000
 1842.2111410
  -999.250000  -999.250000 0.0000000000 1.0000000000  -999.250000 1.0341999531
 1.1591999531 1.0756000280 1.0707000494  -999.250000 131.11999512  -999.250000
  -999.250000 2.3262000084 0.0000000000 0.4111000001 57.030998230 1842.2111816
  -999.250000 10.930000305  -999.250000  -999.250000  -999.250000  -999.250000
 1842.3635410
  -999.250000  -999.250000 0.0000000000 1.0000000000  -999.250000 1.0303000212
 0.9779999852 1.0786000490 1.0894000530  -999.250000 142.00650024  -999.250000
  -999.250000 2.2734000683 0.0000000000 0.4174999893 54.873199463 1842.3636475
  -999.250000 11.929699898  -999.250000  -999.250000  -999.250000  -999.250000
 1842.5159410
  -999.250000  -999.250000 0.0000000000 1.0000000000  -999.250000 1.0370999575
 0.8895999789 1.1581000090 1.1793999672  -999.250000 155.36959839  -999.250000
  -999.250000 2.2441000938 0.0000000000 0.4429000020 51.123401642 1842.5159912
  -999.250000 11.392200470  -999.250000  -999.250000  -999.250000  -999.250000
 1842.6683410
  -999.250000  -999.250000 0.0000000000 1.0000000000  -999.250000 1.0487999916
 0.7813000083 1.2008999586 1.2151000500  -999.250000 155.00000000  -999.250000
  -999.250000 2.1933999062 0.0000000000 0.4419000149 49.280998230 1842.6684570
  -999.250000 12.796999931  -999.250000  -999.250000  -999.250000  -999.250000
 1842.8207410
  -999.250000  -999.250000 0.0000000000 1.0000000000  -999.250000 1.0664000511
 1.0000000000 1.2466000319 1.2305999994  -999.250000 143.50000000  -999.250000
  -999.250000 2.2147998810 0.0000000000 0.4325999916 49.719001770 1842.8208008
  -999.250000 12.336000443  -999.250000  -999.250000  -999.250000  -999.250000
 1842.9731410
  -999.250000  -999.250000 0.0000000000 1.0000000000  -999.250000 1.0751999617
 1.0858999491 1.1944999695 1.1964999437  -999.250000 135.36999512  -999.250000
  -999.250000 2.2284998894 0.0000000000 0.4126000106 52.469001770 1842.9731445
  -999.250000 11.241999626  -999.250000  -999.250000  -999.250000  -999.250000
 1843.1255410
  -999.250000  -999.250000 0.0000000000 1.0000000000  -999.250000 1.0644999743
 0.9168000221 1.0861999989 1.1079000235  -999.250000 133.50529480  -999.250000
  -999.250000 2.2479999065 0.0000000000 0.4043000042 51.969398499 1843.1256104
  -999.250000 11.414400101  -999.250000  -999.250000  -999.250000  -999.250000
 1843.2779410
  -999.250000  -999.250000 0.0000000000 1.0000000000  -999.250000 1.0225000381
 1.3055000305 0.9789000154 0.9657999873  -999.250000 140.74639893  -999.250000
  -999.250000 2.2616999149 0.0000000000 0.4341000021 52.530700684 1843.2779541
  -999.250000 11.929699898  -999.250000  -999.250000  -999.250000  -999.250000
 1843.4303410
  -999.250000  -999.250000 0.0000000000 1.0000000000  -999.250000 1.0137000084
 1.1347999573 1.0758999586 1.0163999796  -999.250000 151.00000000  -999.250000
  -999.250000 2.3046998978 0.0000000000 0.4390000105 52.500000000 1843.4304199
  -999.250000 12.008000374  -999.250000  -999.250000  -999.250000  -999.250000
 1843.5827410
  -999.250000  -999.250000 0.0000000000 1.0000000000  -999.250000 1.0214999914
 0.7329000235 1.7210999727 1.7144999504  -999.250000 161.36999512  -999.250000
  -999.250000 2.3085999489 0.0000000000 0.4507000148 53.594001770 1843.5827637
  -999.250000 11.680000305  -999.250000  -999.250000  -999.250000  -999.250000
 1843.7351410
  -999.250000  -999.250000 0.0000000000 1.0000000000  -999.250000 1.0448999405
 0.7725999951 2.2627000809 2.3245000839  -999.250000 162.11000061  -999.250000
  -999.250000 2.3203001022 0.0000000000 0.4736000001 50.716201782 1843.7352295
  -999.250000 11.639800072  -999.250000  -999.250000  -999.250000  -999.250000
 1843.8875410
  -999.250000  -999.250000 0.0000000000 1.0000000000  -999.250000 1.1191999912
 8.2746000290 2.4972999096 2.6033999920  -999.250000 145.72909546  -999.250000
  -999.250000 2.3889000416 0.0000000000 0.4842999876 46.185199738 1843.8875732
  -999.250000 9.6949996948  -999.250000  -999.250000  -999.250000  -999.250000
