# LAS format log file from PETREL
# Project units are specified as depth units
#==================================================================
~Version information
VERS.   2.0:
WRAP.   YES:
#==================================================================
~Well
STRT .m      800.09997440 :
STOP .m      2299.7159264 :
STEP .m     0.15240000 :
NULL .        -999.250000 :
COMP.           : COMPANY
WELL.  34/10-11   : WELL
FLD.            : FIELD
LOC.            : LOCATION
SRVC.           : SERVICE COMPANY
DATE.  Wednesday, March 31 2010 12:33:12   : DATE
PROV.           : PROVINCE
UWI.      : UNIQUE WELL ID
API.            : API NUMBER
#==================================================================
~Curve
DEPT .m                   : DEPTH
NETS .                    : NETS
COAL .                    : COAL
CARB .                    : CARB
VSH .                     : VSH
SW .                      : SW
ILD .ohm.m                : ILD
MSFL .ohm.m               : MSFL
LLS .ohm.m                : LLS
LLD .ohm.m                : LLD
ILM .ohm.m                : ILM
DT .us/ft                 : DT
KLOG .mD                  : KLOG
DRHO .g/cm3               : DRHO
RHOB .g/cm3               : RHOB
PHIF .m3/m3               : PHIF
NPHI .m3/m3               : NPHI
GR .gAPI                  : GR
DEPT .m                   : DEPT
TIME .ms                  : TIME
CALI .in                  : CALI
BS .in                    : BS
QTOT .rm3/d               : QTOT
QWAT .sm3/d               : QWAT
GeneralTime1 .ms          : General Time 1
~Parameter
#==================================================================
~Ascii
# ...
 1924.0499384
 0.0000000000 0.0000000000 0.0000000000 0.4812999964 0.5803999901 2.2637000084
 1.2089999914 1.5065000057 1.6598000526  -999.250000 125.75000000 0.9211999774
  -999.250000 2.2030999660 0.2476000041 0.4077000022 52.750000000 1924.0500488
  -999.250000 8.7421998978  -999.250000  -999.250000  -999.250000  -999.250000
 1924.2023384
 0.0000000000 0.0000000000 0.0000000000 0.5501999855 0.5555999875 1.9315999746
 0.8330000043 1.6755000353 1.8473999500  -999.250000 131.36999512 1.4354000092
  -999.250000 2.1522998810 0.2721999884 0.4672999978 45.280998230 1924.2023926
  -999.250000 9.1562995911  -999.250000  -999.250000  -999.250000  -999.250000
 1924.3547384
 0.0000000000 0.0000000000 0.0000000000 0.5052000284 0.5072000027 1.6980999708
 1.0714999437 1.9941999912 2.1821000576  -999.250000 136.50050354 1.2882000208
  -999.250000 2.1426000595 0.2921999991 0.4844000041 42.406101227 1924.3548584
  -999.250000 9.5157003403  -999.250000  -999.250000  -999.250000  -999.250000
 1924.5071384
 0.0000000000 0.0000000000 0.0000000000 0.5185999870 0.5414999723 1.5213999748
 1.4801000357 2.2753999233 2.4830000401  -999.250000 137.74710083 0.0055000000
  -999.250000 2.2325000763 0.2363999933 0.4945999980 42.723701477 1924.5072021
  -999.250000 9.6641998291  -999.250000  -999.250000  -999.250000  -999.250000
 1924.6595384
 0.0000000000 0.0000000000 0.0000000000 0.6557999849 0.5982999802 1.4297000170
 2.2223999500 2.3649001122 2.5850999355  -999.250000 134.12159729 0.0000000000
  -999.250000 2.3301000595 0.1662999988 0.4765999913 48.716300964 1924.6595459
  -999.250000 9.7967996597  -999.250000  -999.250000  -999.250000  -999.250000
 1924.8119384
 0.0000000000 0.0000000000 0.0000000000 0.7125999928 0.6995999813 1.4385000467
 2.3710999489 2.2955000401 2.5374000072  -999.250000 123.55999756 0.0000000000
  -999.250000 2.4022998810 0.1164999977 0.4814000130 53.655998230 1924.8120117
  -999.250000 8.8906002045  -999.250000  -999.250000  -999.250000  -999.250000
 1924.9643384
 0.0000000000 0.0000000000 0.0000000000 0.7447999716 0.6962000132 1.5176000595
 2.2832000256 2.2402000427 2.4642000198  -999.250000 115.55999756 0.0000000000
  -999.250000 2.4003999233 0.1142000034 0.4541000128 55.780998230 1924.9643555
  -999.250000 8.6953001022  -999.250000  -999.250000  -999.250000  -999.250000
 1925.1167384
 0.0000000000 0.0000000000 0.0000000000 0.7436000109 0.6568999887 1.6857000589
 2.2560999393 2.8055999279 3.1977000237  -999.250000 112.99970245 0.0000000000
  -999.250000 2.3691000938 0.1312000006 0.4341000021 55.874801636 1925.1168213
  -999.250000 8.6483001709  -999.250000  -999.250000  -999.250000  -999.250000
 1925.2691384
 0.0000000000 0.0000000000 0.0000000000 0.6276000142 0.5291000009 2.0004999638
 2.5411000252 4.0899000168 4.9844999313  -999.250000 112.56580353 0.0005000000
  -999.250000 2.3145000935 0.1677999943 0.3993999958 55.497898102 1925.2691650
  -999.250000 8.4842996597  -999.250000  -999.250000  -999.250000  -999.250000
 1925.4215384
 0.0000000000 0.0000000000 0.0000000000 0.5677000284 0.3914999962 2.4727001190
 10.194999695 6.9724001884 9.1201000214  -999.250000 118.19000244 0.0274000000
  -999.250000 2.2676000595 0.1937000006 0.3959999979 53.469001770 1925.4216309
  -999.250000 8.3671998978  -999.250000  -999.250000  -999.250000  -999.250000
 1925.5739384
 0.0000000000 0.0000000000 0.0000000000 0.4929000139 0.2242999971 3.1171998978
 17.125000000 18.825000763 25.819000244  -999.250000 125.00000000 3.6400001049
  -999.250000 2.1895000935 0.2229000032 0.3887000084 46.562999725 1925.5739746
  -999.250000 8.4687995911  -999.250000  -999.250000  -999.250000  -999.250000
 1925.7263384
 1.0000000000 0.0000000000 0.0000000000 0.3826999962 0.1534000039 4.0360999107
 21.745399475 38.325000763 48.362098694  -999.250000 131.12370300 77.876098633
  -999.250000 2.1328001022 0.2556999922 0.3677000105 40.653400421 1925.7264404
  -999.250000 8.5000000000  -999.250000  -999.250000  -999.250000  -999.250000
 1925.8787384
 1.0000000000 0.0000000000 0.0000000000 0.2340999991 0.1145000011 5.6279001236
 13.138899803 29.091400146 35.394699097  -999.250000 138.00070190 909.30187988
  -999.250000 2.1015999317 0.2804000080 0.3197999895 35.719501495 1925.8787842
  -999.250000 8.5156002045  -999.250000  -999.250000  -999.250000  -999.250000
 1926.0311384
 1.0000000000 0.0000000000 0.0000000000 0.1128999963 0.1292999983 8.8125000000
 10.788999557 28.489000320 35.034999847  -999.250000 138.75000000 4425.1601563
  -999.250000 2.0840001106 0.3010999858 0.2813000083 36.344001770 1926.0312500
  -999.250000 8.5000000000  -999.250000  -999.250000  -999.250000  -999.250000
 1926.1835384
 1.0000000000 0.0000000000 0.0000000000 0.0917999968 0.1304000020 14.352000237
 11.147999763 31.669000626 40.365001678  -999.250000 137.11999512 5024.8242188
  -999.250000 2.0917999744 0.3001999855 0.2700000107 36.094001770 1926.1835938
  -999.250000 8.5156002045  -999.250000  -999.250000  -999.250000  -999.250000
 1926.3359384
 1.0000000000 0.0000000000 0.0000000000 0.0910999998 0.1196999997 22.191499710
 28.328399658 41.564998627 54.991699219  -999.250000 137.49940491 5641.1132813
  -999.250000 2.0820000172 0.3048999906 0.2743999958 37.280498505 1926.3360596
  -999.250000 8.5312995911  -999.250000  -999.250000  -999.250000  -999.250000
 1926.4883384
 1.0000000000 0.0000000000 0.0000000000 0.1368999928 0.1037999988 30.707199097
 29.232500076 61.163700104 83.667098999  -999.250000 136.12069702 4052.9641113
  -999.250000 2.0780999660 0.2976999879 0.2896000147 36.029899597 1926.4884033
  -999.250000 8.6092996597  -999.250000  -999.250000  -999.250000  -999.250000
 1926.6407383
 1.0000000000 0.0000000000 0.0000000000 0.1278000027 0.0834000036 36.091499329
 27.281900406 63.396999359 87.662200928  -999.250000 137.11950684 5297.3339844
  -999.250000 2.0625000000 0.3059999943 0.2935000062 34.563701630 1926.6407471
  -999.250000 8.5156002045  -999.250000  -999.250000  -999.250000  -999.250000
 1926.7931383
 1.0000000000 0.0000000000 0.0000000000 0.1024999991 0.0819000006 36.812999725
 30.531000137 61.902000427 87.000000000  -999.250000 137.00000000 6753.4375000
  -999.250000 2.0664000511 0.3061999977 0.2813000083 35.187999725 1926.7932129
  -999.250000 8.5156002045  -999.250000  -999.250000  -999.250000  -999.250000
 1926.9455383
 1.0000000000 0.0000000000 0.0000000000 0.1088000014 0.0854000002 32.562999725
 30.016000748 62.993999481 89.527000427  -999.250000 135.50000000 4754.1718750
  -999.250000 2.0957000256 0.2903999984 0.2685000002 34.062999725 1926.9455566
  -999.250000 8.4921998978  -999.250000  -999.250000  -999.250000  -999.250000
 1927.0979383
 1.0000000000 0.0000000000 0.0000000000 0.1263999939 0.0859000012 31.218599319
 26.256700516 60.141498566 85.685798645  -999.250000 135.50000000 3283.7045898
  -999.250000 2.1094000340 0.2822999954 0.2689999938 35.312099457 1927.0980225
  -999.250000 8.4921998978  -999.250000  -999.250000  -999.250000  -999.250000
 1927.2503383
 1.0000000000 0.0000000000 0.0000000000 0.1250000000 0.0874999985 30.577600479
 36.525100708 57.772499084 82.365997314  -999.250000 135.49949646 3285.0036621
  -999.250000 2.1094000340 0.2829999924 0.2689999938 33.970600128 1927.2503662
  -999.250000 8.4375000000  -999.250000  -999.250000  -999.250000  -999.250000
 1927.4027383
 1.0000000000 0.0000000000 0.0000000000 0.1145000011 0.0873000026 30.187999725
 30.766000748 57.265998840 81.417999268  -999.250000 135.00000000 4555.4492188
  -999.250000 2.0957000256 0.2890999913 0.2700000107 35.594001770 1927.4028320
  -999.250000 8.4375000000  -999.250000  -999.250000  -999.250000  -999.250000
 1927.5551383
 1.0000000000 0.0000000000 0.0000000000 0.0914999992 0.0866999999 28.483999252
 32.062999725 53.155998230 75.191001892  -999.250000 135.36999512 6363.3125000
  -999.250000 2.0878999233 0.2953999937 0.2651000023 35.187999725 1927.5551758
  -999.250000 8.4531002045  -999.250000  -999.250000  -999.250000  -999.250000
 1927.7075383
 1.0000000000 0.0000000000 0.0000000000 0.0870999992 0.0882999972 25.764900208
 25.594800949 44.281799316 61.329799652  -999.250000 133.49989319 7683.4423828
  -999.250000 2.0741999149 0.3025000095 0.2700000107 36.593898773 1927.7076416
  -999.250000 8.4531002045  -999.250000  -999.250000  -999.250000  -999.250000
