# LAS format log file from PETREL
# Project units are specified as depth units
#==================================================================
~Version information
VERS.   2.0:
WRAP.   YES:
#==================================================================
~Well
STRT .m      800.09997440 :
STOP .m      2299.7159264 :
STEP .m     0.15240000 :
NULL .        -999.250000 :
COMP.           : COMPANY
WELL.  34/10-11   : WELL
FLD.            : FIELD
LOC.            : LOCATION
SRVC.           : SERVICE COMPANY
DATE.  Wednesday, March 31 2010 12:33:12   : DATE
PROV.           : PROVINCE
UWI.      : UNIQUE WELL ID
API.            : API NUMBER
#==================================================================
~Curve
DEPT .m                   : DEPTH
NETS .                    : NETS
COAL .                    : COAL
CARB .                    : CARB
VSH .                     : VSH
SW .                      : SW
ILD .ohm.m                : ILD
MSFL .ohm.m               : MSFL
LLS .ohm.m                : LLS
LLD .ohm.m                : LLD
ILM .ohm.m                : ILM
DT .us/ft                 : DT
KLOG .mD                  : KLOG
DRHO .g/cm3               : DRHO
RHOB .g/cm3               : RHOB
PHIF .m3/m3               : PHIF
NPHI .m3/m3               : NPHI
GR .gAPI                  : GR
DEPT .m                   : DEPT
TIME .ms                  : TIME
CALI .in                  : CALI
BS .in                    : BS
QTOT .rm3/d               : QTOT
QWAT .sm3/d               : QWAT
GeneralTime1 .ms          : General Time 1
~Parameter
#==================================================================
~Ascii
# ...
 2004.0599359
 0.0000000000 0.0000000000 0.0000000000 0.6035000086 0.6389999986 2.1270000935
 4.3944997787 2.6291999817 2.9739000797  -999.250000 99.000000000 0.0000000000
 0.0098000001 2.4707000256 0.0799999982 0.2998000085 52.780998230 2004.0600586
  -999.250000 8.5625000000  -999.250000  -999.250000  -999.250000  -999.250000
 2004.2123359
 0.0000000000 0.0000000000 0.0000000000 0.5759999752 0.5782999992 2.3417999744
 3.7188000679 2.6057999134 2.9702000618  -999.250000 101.55999756 0.0000000000
  -999.250000 2.4121000767 0.1110000014 0.3174000084 51.875000000 2004.2124023
  -999.250000 8.3984003067  -999.250000  -999.250000  -999.250000  -999.250000
 2004.3647359
 0.0000000000 0.0000000000 0.0000000000 0.6234999895 0.5916000009 2.5195000172
 2.8612999916 2.8419001102 3.3139998913  -999.250000 109.19000244 0.0000000000
  -999.250000 2.4296998978 0.1004000008 0.3350000083 50.844001770 2004.3647461
  -999.250000 8.3828001022  -999.250000  -999.250000  -999.250000  -999.250000
 2004.5171359
 0.0000000000 0.0000000000 0.0000000000 0.6636000276 0.7286000252 2.5564999580
 2.6549000740 2.9809000492 3.6287999153  -999.250000 105.74600220 0.0000000000
  -999.250000 2.4551000595 0.0877000019 0.3368999958 57.379001617 2004.5172119
  -999.250000 8.3984003067  -999.250000  -999.250000  -999.250000  -999.250000
 2004.6695359
 0.0000000000 0.0000000000 0.0000000000 0.6575000286 0.7365000248 2.4238998890
 3.5288999081 2.8276000023 3.5415999889  -999.250000 100.19280243 0.0000000000
  -999.250000 2.4765999317 0.0775000006 0.3237000108 62.872200012 2004.6695557
  -999.250000 8.3359003067  -999.250000  -999.250000  -999.250000  -999.250000
 2004.8219358
 0.0000000000 0.0000000000 0.0000000000 0.5878999829 0.6173999906 2.2890999317
 2.7070000172 2.4872000217 3.0299000740  -999.250000 95.000000000 0.0000000000
  -999.250000 2.4667999744 0.0842000023 0.2964000106 65.313003540 2004.8220215
  -999.250000 8.3750000000  -999.250000  -999.250000  -999.250000  -999.250000
 2004.9743358
 0.0000000000 0.0000000000 0.0000000000 0.5077999830 0.7820000052 2.1659998894
 2.4121000767 1.9493000507 2.3803999424  -999.250000 93.750000000 0.0000000000
  -999.250000 2.4512000084 0.1018999964 0.2748999894 68.063003540 2004.9743652
  -999.250000 8.5390996933  -999.250000  -999.250000  -999.250000  -999.250000
 2005.1267358
 0.0000000000 0.0000000000 0.0000000000 0.5418000221 0.8274000287 2.0604999065
 2.8513000011 1.8939000368 2.3354001045  -999.250000 95.375701904 0.0000000000
 0.0059000002 2.4395000935 0.1071999967 0.2969000041 70.940696716 2005.1268311
  -999.250000 8.6640996933  -999.250000  -999.250000  -999.250000  -999.250000
 2005.2791358
 0.0000000000 0.0000000000 0.0000000000 0.6578999758 0.6079000235 1.9783999920
 2.3861999512 1.8679000139 2.3512001038  -999.250000 96.573196411 0.0000000000
  -999.250000 2.4102001190 0.1120999977 0.3583999872 75.495101929 2005.2791748
  -999.250000 8.6953001022  -999.250000  -999.250000  -999.250000  -999.250000
 2005.4315358
 0.0000000000 0.0000000000 0.0000000000 0.8083999753 0.6025999784 1.9248000383
 1.8222999573 1.8474999666 2.3591001034  -999.250000 107.19000244 0.0000000000
  -999.250000 2.4375000000 0.0898000002 0.4097000062 70.375000000 2005.4316406
  -999.250000 8.6953001022  -999.250000  -999.250000  -999.250000  -999.250000
 2005.5839358
 0.0000000000 0.0000000000 0.0000000000 0.8866999745 0.7318000197 1.8701000214
 1.8583999872 1.8123999834 2.2929999828  -999.250000 108.55999756 0.0000000000
  -999.250000 2.4590001106 0.0768999979 0.4350999892 64.875000000 2005.5839844
  -999.250000 8.7265996933  -999.250000  -999.250000  -999.250000  -999.250000
 2005.7363358
 0.0000000000 0.0000000000 0.0000000000 0.8740000129 0.8003000021 1.7606999874
 2.2458000183 1.7783999443 2.2595000267  -999.250000 109.37940216 0.0000000000
  -999.250000 2.4804999828 0.0658000037 0.4248000085 61.656299591 2005.7364502
  -999.250000 8.7969999313  -999.250000  -999.250000  -999.250000  -999.250000
 2005.8887358
 0.0000000000 0.0000000000 0.0000000000 0.8837000132 0.7882000208 1.7029999495
 1.5683000088 1.8562999964 2.4102001190  -999.250000 107.99919891 0.0000000000
  -999.250000 2.4746000767 0.0657000020 0.4223999977 62.254398346 2005.8887939
  -999.250000 8.9140996933  -999.250000  -999.250000  -999.250000  -999.250000
 2006.0411358
 0.0000000000 0.0000000000 0.0000000000 0.8640000224 0.7926999927 1.6387000084
 1.4804999828 1.8480000496 2.4080998898  -999.250000 107.00000000 0.0000000000
  -999.250000 2.4902000427 0.0636000037 0.4106000066 67.500000000 2006.0412598
  -999.250000 8.9218997955  -999.250000  -999.250000  -999.250000  -999.250000
 2006.1935358
 0.0000000000 0.0000000000 0.0000000000 0.8705999851 0.8589000106 1.5644999743
 1.3301000595 1.7827999592 2.3838999271  -999.250000 106.55999756 0.0000000000
  -999.250000 2.5155999660 0.0496000014 0.3998999894 71.938003540 2006.1936035
  -999.250000 9.1484003067  -999.250000  -999.250000  -999.250000  -999.250000
 2006.3459358
 0.0000000000 0.0000000000 0.0000000000 0.8234000206 0.9138000011 1.5019999743
 1.8310999870 1.6564999819 2.2019999027  -999.250000 103.37999725 0.0000000000
 0.0024000001 2.5253999233 0.0483000018 0.3754999936 75.375000000 2006.3459473
  -999.250000 8.9531002045  -999.250000  -999.250000  -999.250000  -999.250000
 2006.4983358
 0.0000000000 0.0000000000 0.0000000000 0.8091999888 0.8755000234 1.4296000004
 1.1053999662 1.3099000454 1.7359000444  -999.250000 102.38300323 0.0000000000
 0.0239000004 2.4960000515 0.0619999990 0.3822999895 76.872596741 2006.4984131
  -999.250000 8.9608001709  -999.250000  -999.250000  -999.250000  -999.250000
 2006.6507358
 0.0000000000 0.0000000000 0.0000000000 0.7226999998 0.7537999749 1.3506000042
 1.0039999485 1.1775000095 1.5736000538  -999.250000 106.55780029 0.0000000000
 0.0297999997 2.4063000679 0.1277000010 0.4056999981 73.501701355 2006.6507568
  -999.250000 8.8048000336  -999.250000  -999.250000  -999.250000  -999.250000
 2006.8031358
 0.0000000000 0.0000000000 0.0000000000 0.7161999941 0.6868000031 1.2881000042
 1.1464999914 1.1198999882 1.5058000088  -999.250000 115.75000000 0.0000000000
 0.0430000015 2.3457000256 0.1635999978 0.4384999871 70.250000000 2006.8032227
  -999.250000 8.9375000000  -999.250000  -999.250000  -999.250000  -999.250000
 2006.9555358
 0.0000000000 0.0000000000 0.0000000000 0.6482999921 0.6316000223 1.2373000383
 1.1347999573 1.1166000366 1.5648000240  -999.250000 124.55999756 0.0023000001
 0.0189999994 2.2715001106 0.2040999979 0.4458000064 66.438003540 2006.9555664
  -999.250000 9.1171998978  -999.250000  -999.250000  -999.250000  -999.250000
 2007.1079358
 0.0000000000 0.0000000000 0.0000000000 0.6371999979 0.5975000262 1.1649999619
 1.0850000381 1.1375999451 1.5765000582  -999.250000 133.49929810 0.0071000000
 0.0111999996 2.2539000511 0.2143999934 0.4507000148 63.343101501 2007.1080322
  -999.250000 9.0546998978  -999.250000  -999.250000  -999.250000  -999.250000
 2007.2603358
 0.0000000000 0.0000000000 0.0000000000 0.5877000093 0.5871999860 1.0858000517
 1.0499000549 1.1521999836 1.5798000097  -999.250000 132.36749268 0.0335999988
  -999.250000 2.2383000851 0.2274000049 0.4395000041 61.938999176 2007.2603760
  -999.250000 9.0701999664  -999.250000  -999.250000  -999.250000  -999.250000
 2007.4127358
 0.0000000000 0.0000000000 0.0000000000 0.6389999986 0.5960999727 1.0254000425
 1.1064000130 1.1538000107 1.6021000147  -999.250000 129.75000000 0.0057000001
  -999.250000 2.2558999062 0.2154999971 0.4526000023 62.969001770 2007.4128418
  -999.250000 8.9218997955  -999.250000  -999.250000  -999.250000  -999.250000
 2007.5651358
 0.0000000000 0.0000000000 0.0000000000 0.6453999877 0.6158999801 1.0029000044
 1.1454999447 1.1751999855 1.6523000002  -999.250000 126.19000244 0.0013000000
  -999.250000 2.2813000679 0.2002000064 0.4404000044 62.780998230 2007.5651855
  -999.250000 9.1562995911  -999.250000  -999.250000  -999.250000  -999.250000
 2007.7175358
 0.0000000000 0.0000000000 0.0000000000 0.7454000115 0.6371999979 1.0019999743
 1.1190999746 1.1858999729 1.6852999926  -999.250000 121.99800110 0.0000000000
  -999.250000 2.3280999660 0.1674000025 0.4564999938 59.312099457 2007.7176514
  -999.250000 9.5313997269  -999.250000  -999.250000  -999.250000  -999.250000
