# LAS format log file from PETREL
# Project units are specified as depth units
#==================================================================
~Version information
VERS.   2.0:
WRAP.   YES:
#==================================================================
~Well
STRT .m      800.09997440 :
STOP .m      2449.8299216 :
STEP .m     0.15240000 :
NULL .        -999.250000 :
COMP.           : COMPANY
WELL.  34/10-15   : WELL
FLD.            : FIELD
LOC.            : LOCATION
SRVC.           : SERVICE COMPANY
DATE.  Wednesday, March 31 2010 12:33:14   : DATE
PROV.           : PROVINCE
UWI.      : UNIQUE WELL ID
API.            : API NUMBER
#==================================================================
~Curve
DEPT .m                   : DEPTH
NETS .                    : NETS
COAL .                    : COAL
CARB .                    : CARB
VSH .                     : VSH
SW .                      : SW
ILD .ohm.m                : ILD
MSFL .ohm.m               : MSFL
LLS .ohm.m                : LLS
LLD .ohm.m                : LLD
ILM .ohm.m                : ILM
DT .us/ft                 : DT
KLOG .mD                  : KLOG
DRHO .g/cm3               : DRHO
RHOB .g/cm3               : RHOB
PHIF .m3/m3               : PHIF
NPHI .m3/m3               : NPHI
GR .gAPI                  : GR
DEPT .m                   : DEPT
TIME .ms                  : TIME
CALI .in                  : CALI
BS .in                    : BS
QTOT .rm3/d               : QTOT
QWAT .sm3/d               : QWAT
GeneralTime1 .ms          : General Time 1
~Parameter
#==================================================================
~Ascii
# ...
 2061.2099340
 0.0000000000  -999.250000 0.0000000000 0.5558999777 1.0000000000 1.0946999788
 1.0370999575  -999.250000  -999.250000  -999.250000 122.00000000 0.0156999994
  -999.250000 2.3652000427 0.1419000030 0.4149999917 74.500000000 2061.2099609
  -999.250000 10.078000069 8.5000000000  -999.250000  -999.250000  -999.250000
 2061.3623340
 0.0000000000  -999.250000 0.0000000000 0.6049000025 1.0000000000 1.0868999958
 1.5051000118  -999.250000  -999.250000  -999.250000 111.74890137 0.0059000002
  -999.250000 2.3926000595 0.1216999963 0.4228000045 74.499099731 2061.3623047
  -999.250000 10.133000374 8.5000000000  -999.250000  -999.250000  -999.250000
 2061.5147340
 0.0000000000  -999.250000 0.0000000000 0.6022999883 1.0000000000 1.0868999958
 1.7939000130  -999.250000  -999.250000  -999.250000 109.99960327 0.0009000000
  -999.250000 2.4453001022 0.0895000026 0.3892000020 73.127403259 2061.5148926
  -999.250000 10.077799797 8.5000000000  -999.250000  -999.250000  -999.250000
 2061.6671340
 0.0000000000  -999.250000 0.0000000000 0.6230999827 1.0000000000 1.1006000042
 1.8088999987  -999.250000  -999.250000  -999.250000 109.56109619 0.0005000000
  -999.250000 2.4647998810 0.0762000009 0.3876999915 75.489997864 2061.6672363
  -999.250000 9.8280000687 8.5000000000  -999.250000  -999.250000  -999.250000
 2061.8195340
 0.0000000000  -999.250000 0.0000000000 0.5727999806 1.0000000000 1.1220999956
 2.0539999008  -999.250000  -999.250000  -999.250000 110.38240051 0.0011000000
  -999.250000 2.4393999577 0.0952000022 0.3779999912 68.190399170 2061.8195801
  -999.250000 9.7805995941 8.5000000000  -999.250000  -999.250000  -999.250000
 2061.9719340
 0.0000000000  -999.250000 0.0000000000 0.5763000250 1.0000000000 1.1376999617
 1.6457999945  -999.250000  -999.250000  -999.250000 111.74960327 0.0034000000
  -999.250000 2.4082000256 0.1141000018 0.3989000022 69.551300049 2061.9719238
  -999.250000 9.3669004440 8.5000000000  -999.250000  -999.250000  -999.250000
 2062.1243340
 0.0000000000  -999.250000 0.0000000000 0.5279999971 1.0000000000 1.1260000467
 1.8064999580  -999.250000  -999.250000  -999.250000 111.56009674 0.0044999998
  -999.250000 2.4003999233 0.1222999990 0.3794000149 64.004096985 2062.1245117
  -999.250000 9.2188997269 8.5000000000  -999.250000  -999.250000  -999.250000
 2062.2767340
 0.0000000000  -999.250000 0.0000000000 0.5314000249 1.0000000000 1.1112999916
 1.4893000126  -999.250000  -999.250000  -999.250000 108.37999725 0.0055000000
  -999.250000 2.3945000172 0.1256999969 0.3847999871 65.000000000 2062.2768555
  -999.250000 9.1875000000 8.5000000000  -999.250000  -999.250000  -999.250000
 2062.4291340
 0.0000000000  -999.250000 0.0000000000 0.5141000152 1.0000000000 1.0858999491
 2.0645000935  -999.250000  -999.250000  -999.250000 110.00000000 0.0027000001
  -999.250000 2.4140999317 0.1149000004 0.3754999936 62.812999725 2062.4291992
  -999.250000 8.9765996933 8.5000000000  -999.250000  -999.250000  -999.250000
 2062.5815340
 0.0000000000  -999.250000 0.0000000000 0.5472000241 1.0000000000 1.0751999617
 1.7841999531  -999.250000  -999.250000  -999.250000 113.00000000 0.0007000000
  -999.250000 2.4530999660 0.0886000022 0.3896000087 65.188003540 2062.5815430
  -999.250000 8.9921998978 8.5000000000  -999.250000  -999.250000  -999.250000
 2062.7339340
 0.0000000000  -999.250000 0.0000000000 0.5655999780 1.0000000000 1.0791000128
 3.3171000481  -999.250000  -999.250000  -999.250000 113.75489807 0.0004000000
  -999.250000 2.4667999744 0.0790000036 0.4154999852 66.503402710 2062.7338867
  -999.250000 9.1642999649 8.5000000000  -999.250000  -999.250000  -999.250000
 2062.8863340
 0.0000000000  -999.250000 0.0000000000 0.6301000118 1.0000000000 1.1006000042
 1.5812000036  -999.250000  -999.250000  -999.250000 120.36599731 0.0024000001
  -999.250000 2.4179000854 0.1044000015 0.4325999916 71.129203796 2062.8864746
  -999.250000 9.4767999649 8.5000000000  -999.250000  -999.250000  -999.250000
 2063.0387340
 0.0000000000  -999.250000 0.0000000000 0.6078000069 1.0000000000 1.0917999744
 1.6719000340  -999.250000  -999.250000  -999.250000 116.74770355 0.0126999998
  -999.250000 2.3710999489 0.1347000003 0.4375000000 74.887702942 2063.0388184
  -999.250000 9.6561002731 8.5000000000  -999.250000  -999.250000  -999.250000
 2063.1911340
 0.0000000000  -999.250000 0.0000000000 0.5504000187 1.0000000000 1.0762000084
 1.6818000078  -999.250000  -999.250000  -999.250000 115.19149780 0.0207000002
  -999.250000 2.3575000763 0.1471000016 0.4169999957 83.442596436 2063.1911621
  -999.250000 9.5076999664 8.5000000000  -999.250000  -999.250000  -999.250000
 2063.3435340
 0.0000000000  -999.250000 0.0000000000 0.6452000141 1.0000000000 1.0673999786
 1.7967000008  -999.250000  -999.250000  -999.250000 115.99500275 0.0041999999
  -999.250000 2.4024000168 0.1128999963 0.4370000064 85.937301636 2063.3435059
  -999.250000 9.4687995911 8.5000000000  -999.250000  -999.250000  -999.250000
 2063.4959340
 0.0000000000  -999.250000 0.0000000000 0.7347999811 1.0000000000 1.0585999489
 2.6205999851  -999.250000  -999.250000  -999.250000 113.75140381 0.0007000000
  -999.250000 2.4512000084 0.0767000020 0.4521000087 85.625198364 2063.4960938
  -999.250000 9.4687995911 8.5000000000  -999.250000  -999.250000  -999.250000
 2063.6483340
 0.0000000000  -999.250000 0.0000000000 0.7907000184 1.0000000000 1.0214999914
 1.7948999405  -999.250000  -999.250000  -999.250000 112.19000244 0.0004000000
  -999.250000 2.4688000679 0.0619000010 0.4765999913 82.625000000 2063.6484375
  -999.250000 9.3750000000 8.5000000000  -999.250000  -999.250000  -999.250000
 2063.8007340
 0.0000000000  -999.250000 0.0000000000 0.7671999931 1.0000000000 0.9848999977
 1.8632999659  -999.250000  -999.250000  -999.250000 112.00000000 0.0006000000
  -999.250000 2.4551000595 0.0719999969 0.4862999916 80.938003540 2063.8007813
  -999.250000 9.5078001022 8.5000000000  -999.250000  -999.250000  -999.250000
 2063.9531340
 0.0000000000  -999.250000 0.0000000000 0.7549999952 1.0000000000 0.9394000173
 1.6254999638  -999.250000  -999.250000  -999.250000 112.55889893 0.0006000000
  -999.250000 2.4590001106 0.0705000013 0.5088000298 80.063003540 2063.9531250
  -999.250000 9.4296998978 8.5000000000  -999.250000  -999.250000  -999.250000
 2064.1055339
 0.0000000000  -999.250000 0.0000000000 0.7558000088 1.0000000000 0.9193999767
 2.5460000038  -999.250000  -999.250000  -999.250000 110.38670349 0.0003000000
  -999.250000 2.4727001190 0.0619999990 0.5141999722 80.125396729 2064.1057129
  -999.250000 9.4686002731 8.5000000000  -999.250000  -999.250000  -999.250000
 2064.2579339
 0.0000000000  -999.250000 0.0000000000 0.7620000243 1.0000000000 0.9107000232
 1.5389000177  -999.250000  -999.250000  -999.250000 118.18939972 0.0002000000
  -999.250000 2.4902000427 0.0507999994 0.5160999894 80.565200806 2064.2580566
  -999.250000 9.2187995911 8.5000000000  -999.250000  -999.250000  -999.250000
 2064.4103339
 0.0000000000  -999.250000 0.0000000000 0.7871999741 1.0000000000 0.9199000001
 1.3769999743  -999.250000  -999.250000  -999.250000 117.74970245 0.0003000000
  -999.250000 2.4746000767 0.0586999990 0.5450000167 82.372200012 2064.4104004
  -999.250000 9.2263002396 8.5000000000  -999.250000  -999.250000  -999.250000
 2064.5627339
 0.0000000000  -999.250000 0.0000000000 0.7626000047 1.0000000000 0.9229000211
 1.3912999630  -999.250000  -999.250000  -999.250000 117.56159973 0.0008000000
  -999.250000 2.4491000175 0.0759999976 0.5684000254 80.612899780 2064.5627441
  -999.250000 9.0703001022 8.5000000000  -999.250000  -999.250000  -999.250000
 2064.7151339
 0.0000000000  -999.250000 0.0000000000 0.6765000224 1.0000000000 0.9375000000
 1.2246999741  -999.250000  -999.250000  -999.250000 118.36930084 0.0029000000
  -999.250000 2.4121000767 0.1046999991 0.5996000171 74.443298340 2064.7150879
  -999.250000 9.0703001022 8.5000000000  -999.250000  -999.250000  -999.250000
 2064.8675339
 0.0000000000  -999.250000 0.0000000000 0.6327999830 1.0000000000 0.9648000002
 1.3076000214  -999.250000  -999.250000  -999.250000 117.37049866 0.0051000002
  -999.250000 2.3965001106 0.1173999980 0.5327000022 71.314498901 2064.8676758
  -999.250000 9.0703001022 8.5000000000  -999.250000  -999.250000  -999.250000
