# LAS format log file from PETREL
# Project units are specified as depth units
#==================================================================
~Version information
VERS.   2.0:
WRAP.   YES:
#==================================================================
~Well
STRT .m      800.09997440 :
STOP .m      2299.7159264 :
STEP .m     0.15240000 :
NULL .        -999.250000 :
COMP.           : COMPANY
WELL.  34/10-11   : WELL
FLD.            : FIELD
LOC.            : LOCATION
SRVC.           : SERVICE COMPANY
DATE.  Wednesday, March 31 2010 12:33:12   : DATE
PROV.           : PROVINCE
UWI.      : UNIQUE WELL ID
API.            : API NUMBER
#==================================================================
~Curve
DEPT .m                   : DEPTH
NETS .                    : NETS
COAL .                    : COAL
CARB .                    : CARB
VSH .                     : VSH
SW .                      : SW
ILD .ohm.m                : ILD
MSFL .ohm.m               : MSFL
LLS .ohm.m                : LLS
LLD .ohm.m                : LLD
ILM .ohm.m                : ILM
DT .us/ft                 : DT
KLOG .mD                  : KLOG
DRHO .g/cm3               : DRHO
RHOB .g/cm3               : RHOB
PHIF .m3/m3               : PHIF
NPHI .m3/m3               : NPHI
GR .gAPI                  : GR
DEPT .m                   : DEPT
TIME .ms                  : TIME
CALI .in                  : CALI
BS .in                    : BS
QTOT .rm3/d               : QTOT
QWAT .sm3/d               : QWAT
GeneralTime1 .ms          : General Time 1
~Parameter
#==================================================================
~Ascii
# ...
 2065.0199339
 0.0000000000 0.0000000000 0.1000000015 0.1991000026 1.0000000000 1.7714999914
 4.4766001701 2.8800001144 2.6521000862  -999.250000 89.188003540 0.0003000000
  -999.250000 2.4883000851 0.0908000022 0.3037000000 41.875000000 2065.0200195
  -999.250000 8.4531002045 8.5000000000  -999.250000  -999.250000  -999.250000
 2065.1723339
 0.0000000000 0.0000000000 0.1000000015 0.2152999938 1.0000000000 1.9248000383
 2.7147998810 2.6017000675 2.3624999523  -999.250000 89.188003540 0.0003000000
  -999.250000 2.4491999149 0.1134999990 0.2813000083 43.687999725 2065.1723633
  -999.250000 8.4375000000 8.5000000000  -999.250000  -999.250000  -999.250000
 2065.3247339
 0.0000000000 0.0000000000 0.0000000000 0.2549999952 1.0000000000 2.0431001186
 2.6387999058 2.4110000134 2.1879999638  -999.250000 88.190002441 0.0006000000
  -999.250000 2.4237999916 0.1262000054 0.2632000148 47.815101624 2065.3247070
  -999.250000 8.5079002380 8.5000000000  -999.250000  -999.250000  -999.250000
 2065.4771339
 0.0000000000 0.0000000000 0.0001000000 0.2892999947 0.9703000188 2.1466000080
 2.7425000668 2.5583000183 2.4203999043  -999.250000 91.565399170 0.0005000000
  -999.250000 2.4219000340 0.1248999983 0.2730000019 51.284301758 2065.4772949
  -999.250000 8.5937995911 8.5000000000  -999.250000  -999.250000  -999.250000
 2065.6295339
 0.0000000000 0.0000000000 0.1000000015 0.3215000033 1.0000000000 2.2109000683
 3.0248999596 2.7686998844 2.6603999138  -999.250000 94.006202698 0.0003000000
  -999.250000 2.4493000507 0.1059999987 0.3012999892 54.689498901 2065.6296387
  -999.250000 8.6170997620 8.5000000000  -999.250000  -999.250000  -999.250000
 2065.7819339
 0.0000000000 0.0000000000 0.1000000015 0.3305000067 1.0000000000 2.2244999409
 4.1230998039 2.6552000046 2.5462999344  -999.250000 98.556098938 0.0003000000
  -999.250000 2.4902999401 0.0803000033 0.3115000129 55.783401489 2065.7819824
  -999.250000 8.5780000687 8.5000000000  -999.250000  -999.250000  -999.250000
 2065.9343339
 0.0000000000 0.0000000000 0.1002999991 0.3418000042 1.0000000000 2.1579999924
 3.0441000462 2.5818998814 2.4906001091  -999.250000 94.561798096 0.0003000000
  -999.250000 2.5469000340 0.0450000018 0.3251999915 57.189899445 2065.9343262
  -999.250000 8.5235004425 8.5000000000  -999.250000  -999.250000  -999.250000
 2066.0867339
 0.0000000000 0.0000000000 0.2498999983 0.3513000011 1.0000000000 2.0841000080
 2.6447999477 2.3364000320 2.1977000237  -999.250000 94.000396729 0.0003000000
  -999.250000 2.5604999065 0.0361000001 0.3398000002 58.093299866 2066.0869141
  -999.250000 8.5625000000 8.5000000000  -999.250000  -999.250000  -999.250000
 2066.2391339
 0.0000000000 0.0000000000 0.1000000015 0.3851999938 1.0000000000 2.0000000000
 2.6210999489 1.9828000069 1.8490999937  -999.250000 96.750000000 0.0003000000
  -999.250000 2.5313000679 0.0515000001 0.3700999916 61.812999725 2066.2392578
  -999.250000 8.5468997955 8.5000000000  -999.250000  -999.250000  -999.250000
 2066.3915339
 0.0000000000 0.0000000000 0.1000000015 0.3860999942 1.0000000000 1.9823999405
 1.9853999615 1.9514000416 1.8549000025  -999.250000 98.188003540 0.0003000000
  -999.250000 2.4883000851 0.0776999965 0.3725999892 62.187999725 2066.3916016
  -999.250000 8.4687995911 8.5000000000  -999.250000  -999.250000  -999.250000
 2066.5439339
 0.0000000000 0.0000000000 0.1000000015 0.3838000000 1.0000000000 2.0429999828
 1.9335999489 2.0041999817 1.8732000589  -999.250000 102.19000244 0.0003000000
  -999.250000 2.4667999744 0.0908999965 0.3628000021 61.687999725 2066.5439453
  -999.250000 8.5390996933 8.5000000000  -999.250000  -999.250000  -999.250000
 2066.6963339
 0.0000000000 0.0000000000 0.1000000015 0.3556999862 1.0000000000 2.1113998890
 1.9392000437 2.2147998810 2.0439000130  -999.250000 100.55999756 0.0003000000
  -999.250000 2.4453001022 0.1059999987 0.3540000021 58.717399597 2066.6962891
  -999.250000 8.5156002045 8.5000000000  -999.250000  -999.250000  -999.250000
 2066.8487339
 0.0000000000 0.0000000000 0.1000000015 0.3379999995 0.9998999834 2.2188999653
 2.9486999512 2.5906000137 2.3907999992  -999.250000 100.55780029 0.0003000000
  -999.250000 2.4316000938 0.1155999973 0.3490999937 56.593200684 2066.8488770
  -999.250000 8.5781002045 8.5000000000  -999.250000  -999.250000  -999.250000
 2067.0011339
 0.0000000000 0.0000000000 0.1000000015 0.3318000138 0.8860999942 2.3459000587
 6.0430002213 3.3094000816 3.1477000713  -999.250000 98.556297302 0.0003000000
  -999.250000 2.4298000336 0.1156999990 0.3104999959 55.872699738 2067.0012207
  -999.250000 8.5937004089 8.5000000000  -999.250000  -999.250000  -999.250000
 2067.1535339
 0.0000000000 0.0000000000 0.1000000015 0.3158000112 0.9233000278 2.4728999138
 8.7072000504 4.3425002098 4.3175997734  -999.250000 93.986701965 0.0003000000
  -999.250000 2.4728000164 0.0909999982 0.2655000091 54.316001892 2067.1535645
  -999.250000 8.5391998291 8.5000000000  -999.250000  -999.250000  -999.250000
 2067.3059338
 0.0000000000 0.0000000000 0.1000000015 0.3328000009 1.0000000000 2.5587000847
 6.6737999916 4.6020998955 4.6785998344  -999.250000 86.736000061 0.0003000000
  -999.250000 2.5155999660 0.0647000000 0.2202000022 55.965599060 2067.3059082
  -999.250000 8.6017999649 8.5000000000  -999.250000  -999.250000  -999.250000
 2067.4583338
 0.0000000000 0.0000000000 0.1000000015 0.3215999901 1.0000000000 2.6112999916
 5.7505998611 3.4398999214 3.4128999710  -999.250000 80.378997803 0.0003000000
  -999.250000 2.5332000256 0.0548000000 0.2178000063 54.438999176 2067.4584961
  -999.250000 8.7030000687 8.5000000000  -999.250000  -999.250000  -999.250000
 2067.6107338
 0.0000000000 0.0000000000 0.1000000015 0.3393000066 1.0000000000 2.6405999660
 2.6034998894 2.4456000328 2.3877999783  -999.250000 79.750000000 0.0003000000
  -999.250000 2.4941000938 0.0773999989 0.2549000084 56.437999725 2067.6108398
  -999.250000 8.6718997955 8.5000000000  -999.250000  -999.250000  -999.250000
 2067.7631338
 0.0000000000 0.0000000000 0.1000000015 0.3644999862 1.0000000000 2.6054999828
 1.5605000257 1.9493999481 1.9023000002  -999.250000 85.188003540 0.0003000000
  -999.250000 2.4375000000 0.1102000028 0.3208000064 59.125000000 2067.7631836
  -999.250000 8.6796998978 8.5000000000  -999.250000  -999.250000  -999.250000
 2067.9155338
 0.0000000000 0.0000000000 0.0000000000 0.4124000072 1.0000000000 2.4667000771
 1.4922000170 1.6908999681 1.6642999649  -999.250000 97.192298889 0.0003000000
  -999.250000 2.3984000683 0.1306000054 0.3682000041 63.908298492 2067.9155273
  -999.250000 8.7812995911 8.5000000000  -999.250000  -999.250000  -999.250000
 2068.0679338
 0.0000000000 0.0000000000 0.0000000000 0.4553999901 0.9879000187 2.2653999329
 1.5326999426 1.6353000402 1.6344000101  -999.250000 106.19149780 0.0003000000
  -999.250000 2.3945000172 0.1299999952 0.3833000064 68.810401917 2068.0681152
  -999.250000 8.7031002045 8.5000000000  -999.250000  -999.250000  -999.250000
 2068.2203338
 0.0000000000 0.0000000000 0.0000000000 0.4291000068 1.0000000000 2.0467000008
 2.0776000023 1.6437000036 1.6770000458  -999.250000 107.99819946 0.0003000000
  -999.250000 2.4022998810 0.1271000057 0.3808999956 65.813598633 2068.2204590
  -999.250000 8.7498998642 8.5000000000  -999.250000  -999.250000  -999.250000
 2068.3727338
 0.0000000000 0.0000000000 0.0000000000 0.4305000007 1.0000000000 1.8435000181
 1.6421999931 1.6569000483 1.6667000055  -999.250000 106.55709839 0.0003000000
  -999.250000 2.4121000767 0.1209999993 0.3804000020 66.308799744 2068.3728027
  -999.250000 8.6561002731 8.5000000000  -999.250000  -999.250000  -999.250000
 2068.5251338
 0.0000000000 0.0000000000 0.0002000000 0.4022000134 1.0000000000 1.6843999624
 1.3868000507 1.6698000431 1.6621999741  -999.250000 104.74539948 0.0003000000
  -999.250000 2.4140999317 0.1217999980 0.3871999979 63.653999329 2068.5251465
  -999.250000 8.5468997955 8.5000000000  -999.250000  -999.250000  -999.250000
 2068.6775338
 0.0000000000 0.0000000000 0.0998999998 0.3932000101 1.0000000000 1.5851000547
 1.4471999407 1.7098000050 1.7268999815  -999.250000 102.38210297 0.0003000000
  -999.250000 2.4277000427 0.1141000018 0.3930999935 62.625900269 2068.6774902
  -999.250000 8.5625000000 8.5000000000  -999.250000  -999.250000  -999.250000
