# LAS format log file from PETREL
# Project units are specified as depth units
#==================================================================
~Version information
VERS.   2.0:
WRAP.   YES:
#==================================================================
~Well
STRT .m      800.09997440 :
STOP .m      2449.8299216 :
STEP .m     0.15240000 :
NULL .        -999.250000 :
COMP.           : COMPANY
WELL.  34/10-15   : WELL
FLD.            : FIELD
LOC.            : LOCATION
SRVC.           : SERVICE COMPANY
DATE.  Wednesday, March 31 2010 12:33:14   : DATE
PROV.           : PROVINCE
UWI.      : UNIQUE WELL ID
API.            : API NUMBER
#==================================================================
~Curve
DEPT .m                   : DEPTH
NETS .                    : NETS
COAL .                    : COAL
CARB .                    : CARB
VSH .                     : VSH
SW .                      : SW
ILD .ohm.m                : ILD
MSFL .ohm.m               : MSFL
LLS .ohm.m                : LLS
LLD .ohm.m                : LLD
ILM .ohm.m                : ILM
DT .us/ft                 : DT
KLOG .mD                  : KLOG
DRHO .g/cm3               : DRHO
RHOB .g/cm3               : RHOB
PHIF .m3/m3               : PHIF
NPHI .m3/m3               : NPHI
GR .gAPI                  : GR
DEPT .m                   : DEPT
TIME .ms                  : TIME
CALI .in                  : CALI
BS .in                    : BS
QTOT .rm3/d               : QTOT
QWAT .sm3/d               : QWAT
GeneralTime1 .ms          : General Time 1
~Parameter
#==================================================================
~Ascii
# ...
 1912.6199388
 0.0000000000 0.0000000000 0.2320999950 0.4485999942 1.0000000000 0.9473000169
 1.5990999937 1.2495000362 1.0529999733  -999.250000 117.00479889 0.2718000114
  -999.250000 2.2852001190 0.1985999942 0.4180000126 58.125499725 1912.6199951
  -999.250000 8.2578001022  -999.250000  -999.250000  -999.250000  -999.250000
 1912.7723388
 1.0000000000 0.0000000000 0.1764000058 0.4190999866 1.0000000000 0.9477000237
 2.1853001118 1.2656999826 1.0791000128  -999.250000 122.74770355 0.9508000016
  -999.250000 2.2500000000 0.2222000062 0.4169999957 58.749801636 1912.7724609
  -999.250000 8.2031002045  -999.250000  -999.250000  -999.250000  -999.250000
 1912.9247388
 1.0000000000 0.0000000000 0.1969999969 0.3556999862 0.9666000009 0.9394999743
 1.9696999788 1.2235000134 1.0552999973  -999.250000 122.75000000 2.8914999962
  -999.250000 2.2188000679 0.2458000034 0.4043000042 55.250000000 1912.9248047
  -999.250000 8.2109003067  -999.250000  -999.250000  -999.250000  -999.250000
 1913.0771388
 1.0000000000 0.0000000000 0.2377000004 0.3474999964 0.9904999733 0.9311000109
 1.7480000257 1.1614999771 0.9804999828  -999.250000 124.50000000 3.5682001114
  -999.250000 2.2128999233 0.2500000000 0.4038000107 53.280998230 1913.0771484
  -999.250000 8.2109003067  -999.250000  -999.250000  -999.250000  -999.250000
 1913.2295388
 1.0000000000 0.0000000000 0.3382999897 0.3343000114 1.0000000000 0.9272000194
 1.4726999998 1.0827000141 0.9315000176  -999.250000 125.49579620 3.3329000473
  -999.250000 2.2147998810 0.2496999949 0.4043000042 49.940101624 1913.2296143
  -999.250000 8.2109003067  -999.250000  -999.250000  -999.250000  -999.250000
 1913.3819388
 1.0000000000 0.0000000000 0.3025000095 0.3756999969 1.0000000000 0.9185000062
 1.5010000467 1.0680999756 0.9172000289  -999.250000 119.50309753 0.9523000121
  -999.250000 2.2500000000 0.2251999974 0.4027999938 52.904399872 1913.3819580
  -999.250000 8.2109003067  -999.250000  -999.250000  -999.250000  -999.250000
 1913.5343388
 0.0000000000 0.0000000000 0.3118999898 0.3779000044 1.0000000000 0.9057999849
 1.5332000256 1.0894000530 0.9197999835  -999.250000 116.87000275 0.2912999988
  -999.250000 2.2832000256 0.2046999931 0.3856999874 53.062999725 1913.5344238
  -999.250000 8.2500000000  -999.250000  -999.250000  -999.250000  -999.250000
 1913.6867388
 0.0000000000 0.0000000000 0.2529000044 0.4198000133 1.0000000000 0.8949999809
 1.5995999575 1.0865999460 0.9445000291  -999.250000 115.50000000 0.1788000017
  -999.250000 2.2969000340 0.1933999956 0.3887000084 56.062999725 1913.6867676
  -999.250000 8.2500000000  -999.250000  -999.250000  -999.250000  -999.250000
 1913.8391388
 1.0000000000 0.0000000000 0.3655999899 0.3718000054 1.0000000000 0.8974999785
 1.7783000469 1.1553000212 1.0176999569  -999.250000 115.86930084 0.5087000132
  -999.250000 2.2676000595 0.2146999985 0.4189999998 52.625598907 1913.8392334
  -999.250000 8.2734003067  -999.250000  -999.250000  -999.250000  -999.250000
 1913.9915388
 1.0000000000 0.0000000000 0.3325999975 0.3867000043 0.9897000194 0.9161000252
 1.7065999508 1.1825000048 1.0391999483  -999.250000 114.62529755 1.9078999758
  -999.250000 2.2304999828 0.2363999933 0.4515999854 53.688598633 1913.9915771
  -999.250000 8.3046998978  -999.250000  -999.250000  -999.250000  -999.250000
 1914.1439387
 1.0000000000 0.0000000000 0.2538999915 0.3962000012 0.9498000145 0.9512000084
 3.2479999065 1.1878999472 1.0252000093  -999.250000 120.25000000 4.4032001495
  -999.250000 2.2070000172 0.2502000034 0.4379999936 54.375000000 1914.1440430
  -999.250000 8.3125000000  -999.250000  -999.250000  -999.250000  -999.250000
 1914.2963387
 1.0000000000 0.0000000000 0.1441999972 0.3750000000 0.9912999868 0.9897999763
 1.6562999487 1.1684999466 1.0070999861  -999.250000 119.75000000 2.5162999630
  -999.250000 2.2227001190 0.2419999987 0.4115999937 57.875000000 1914.2963867
  -999.250000 8.3515996933  -999.250000  -999.250000  -999.250000  -999.250000
 1914.4487387
 1.0000000000 0.0000000000 0.1537999958 0.3840999901 1.0000000000 1.0420000553
 1.5565999746 1.0602999926 0.9391999841  -999.250000 117.49749756 0.9506000280
  -999.250000 2.2500000000 0.2246000022 0.3993999958 57.749000549 1914.4488525
  -999.250000 8.4375000000  -999.250000  -999.250000  -999.250000  -999.250000
 1914.6011387
 0.0000000000 0.0000000000 0.2458000034 0.4138999879 1.0000000000 1.0917999744
 1.5410000086 1.0522999763 0.9298999906  -999.250000 111.99199677 0.1177000031
  -999.250000 2.3085999489 0.1865999997 0.3783999979 55.656101227 1914.6011963
  -999.250000 8.4296998978  -999.250000  -999.250000  -999.250000  -999.250000
 1914.7535387
 0.0000000000 0.0000000000 0.2632000148 0.4149999917 1.0000000000 1.1298999786
 1.5693000555 1.0750999451 0.9415000081  -999.250000 102.25399780 0.0221999995
  -999.250000 2.3554999828 0.1578000039 0.3540000021 55.719001770 1914.7535400
  -999.250000 8.4609003067  -999.250000  -999.250000  -999.250000  -999.250000
 1914.9059387
 0.0000000000 0.0000000000 0.2085999995 0.3483999968 1.0000000000 1.1649999619
 1.5722999573 1.1857999563 0.9991999865  -999.250000 91.500000000 0.0167999994
  -999.250000 2.3633000851 0.1576000005 0.3120000064 55.250000000 1914.9060059
  -999.250000 8.4062995911  -999.250000  -999.250000  -999.250000  -999.250000
 1915.0583387
 0.0000000000 0.0000000000 0.1938000023 0.3781000078 1.0000000000 1.1806999445
 1.6475000381 1.3976000547 1.2086000443  -999.250000 90.500000000 0.0723000020
  -999.250000 2.3222999573 0.1807000041 0.3519999981 57.030998230 1915.0583496
  -999.250000 8.2734003067  -999.250000  -999.250000  -999.250000  -999.250000
 1915.2107387
 0.0000000000 0.0000000000 0.2282000035 0.3989999890 0.9779999852 1.1855000257
 1.9220999479 1.5274000168 1.3345999718  -999.250000 93.507202148 0.3116999865
  -999.250000 2.2813000679 0.2044000030 0.3876999915 55.941799164 1915.2108154
  -999.250000 8.2968997955  -999.250000  -999.250000  -999.250000  -999.250000
 1915.3631387
 0.0000000000 0.0000000000 0.1262000054 0.4257999957 0.9508000016 1.1689000130
 3.5968000889 1.5355999470 1.3617000580  -999.250000 103.74449921 0.3846000135
  -999.250000 2.2753999233 0.2061000019 0.4047999978 61.403099060 1915.3631592
  -999.250000 8.2812995911  -999.250000  -999.250000  -999.250000  -999.250000
 1915.5155387
 1.0000000000 0.0000000000 0.1295000017 0.3822000027 0.9488000274 1.1367000341
 1.9277000427 1.5127999783 1.3466999531  -999.250000 111.50000000 0.5078999996
  -999.250000 2.2676000595 0.2140000015 0.3876999915 59.594001770 1915.5156250
  -999.250000 8.2734003067  -999.250000  -999.250000  -999.250000  -999.250000
 1915.6679387
 1.0000000000 0.0000000000 0.1456999928 0.3808999956 0.9962000251 1.0976999998
 1.5664000511 1.3523000479 1.1797000170  -999.250000 115.50000000 0.6268000007
  -999.250000 2.2616999149 0.2177000046 0.3905999959 58.687999725 1915.6679688
  -999.250000 8.2734003067  -999.250000  -999.250000  -999.250000  -999.250000
 1915.8203387
 1.0000000000 0.0000000000 0.2669000030 0.3707000017 1.0000000000 1.0547000170
 1.5743000507 1.2209000587 1.0694999695  -999.250000 116.00039673 1.2558000088
  -999.250000 2.2421998978 0.2303999960 0.3975000083 53.156700134 1915.8204346
  -999.250000 8.2734003067  -999.250000  -999.250000  -999.250000  -999.250000
 1915.9727387
 1.0000000000 0.0000000000 0.2345999926 0.3700999916 1.0000000000 1.0176000595
 1.6960999966 1.1397999525 1.0219000578  -999.250000 116.74949646 1.1734999418
  -999.250000 2.2441000938 0.2292000055 0.3959999979 54.344200134 1915.9727783
  -999.250000 8.2734003067  -999.250000  -999.250000  -999.250000  -999.250000
 1916.1251387
 1.0000000000 0.0000000000 0.2197999954 0.3592999876 1.0000000000 0.9965999722
 1.5088000298 1.1361000538 0.9905999899  -999.250000 116.25000000 1.0212999582
  -999.250000 2.2479999065 0.2275999933 0.3882000148 54.562999725 1916.1252441
  -999.250000 8.2734003067  -999.250000  -999.250000  -999.250000  -999.250000
 1916.2775387
 1.0000000000 0.0000000000 0.2150000036 0.3786000013 1.0000000000 0.9911999702
 1.5722999573 1.1238000393 1.0008000135  -999.250000 116.00000000 0.7706999779
  -999.250000 2.2558999062 0.2213999927 0.3930999935 55.437999725 1916.2775879
  -999.250000 8.3046998978  -999.250000  -999.250000  -999.250000  -999.250000
