# LAS format log file from PETREL
# Project units are specified as depth units
#==================================================================
~Version information
VERS.   2.0:
WRAP.   YES:
#==================================================================
~Well
STRT .m      800.09997440 :
STOP .m      2449.8299216 :
STEP .m     0.15240000 :
NULL .        -999.250000 :
COMP.           : COMPANY
WELL.  34/10-15   : WELL
FLD.            : FIELD
LOC.            : LOCATION
SRVC.           : SERVICE COMPANY
DATE.  Wednesday, March 31 2010 12:33:14   : DATE
PROV.           : PROVINCE
UWI.      : UNIQUE WELL ID
API.            : API NUMBER
#==================================================================
~Curve
DEPT .m                   : DEPTH
NETS .                    : NETS
COAL .                    : COAL
CARB .                    : CARB
VSH .                     : VSH
SW .                      : SW
ILD .ohm.m                : ILD
MSFL .ohm.m               : MSFL
LLS .ohm.m                : LLS
LLD .ohm.m                : LLD
ILM .ohm.m                : ILM
DT .us/ft                 : DT
KLOG .mD                  : KLOG
DRHO .g/cm3               : DRHO
RHOB .g/cm3               : RHOB
PHIF .m3/m3               : PHIF
NPHI .m3/m3               : NPHI
GR .gAPI                  : GR
DEPT .m                   : DEPT
TIME .ms                  : TIME
CALI .in                  : CALI
BS .in                    : BS
QTOT .rm3/d               : QTOT
QWAT .sm3/d               : QWAT
GeneralTime1 .ms          : General Time 1
~Parameter
#==================================================================
~Ascii
# ...
 1950.7199376
 1.0000000000 0.0000000000 0.1784999967 0.4465999901 1.0000000000 0.8550000191
 1.4745999575 1.0140000582 0.8418999910  -999.250000 118.12000275 0.6707000136
  -999.250000 2.2597999573 0.2143000066 0.4248000085 59.375000000 1950.7199707
  -999.250000 8.2890996933 8.5000000000  -999.250000  -999.250000  -999.250000
 1950.8723376
 1.0000000000 0.0000000000 0.1141000018 0.4442000091 1.0000000000 0.8574000001
 1.4716999531 1.0240999460 0.8636999726  -999.250000 117.37020111 0.7200999856
  -999.250000 2.2578001022 0.2157000005 0.4248000085 62.501098633 1950.8724365
  -999.250000 8.2734003067 8.5000000000  -999.250000  -999.250000  -999.250000
 1951.0247376
 0.0000000000 0.0000000000 0.0869999975 0.4544999897 1.0000000000 0.8672000170
 1.4774999619 1.0498000383 0.8984000087  -999.250000 117.74909973 0.4747000039
  -999.250000 2.2695000172 0.2078000009 0.4228000045 64.435997009 1951.0247803
  -999.250000 8.3125000000 8.5000000000  -999.250000  -999.250000  -999.250000
 1951.1771376
 1.0000000000 0.0000000000 0.1286000013 0.3774999976 1.0000000000 0.8809000254
 1.4277000427 1.0993000269 0.9156000018  -999.250000 116.75000000 0.5835999846
  -999.250000 2.2637000084 0.2167000026 0.3876999915 62.280998230 1951.1772461
  -999.250000 8.3125000000 8.5000000000  -999.250000  -999.250000  -999.250000
 1951.3295376
 1.0000000000 0.0000000000 0.1395000070 0.3709999919 1.0000000000 0.8871999979
 1.4042999744 1.1104999781 0.9233000278  -999.250000 116.87000275 0.5454000235
  -999.250000 2.2655999660 0.2160000056 0.3833000064 58.812999725 1951.3295898
  -999.250000 8.3046998978 8.5000000000  -999.250000  -999.250000  -999.250000
 1951.4819376
 1.0000000000 0.0000000000 0.2330999970 0.3535000086 1.0000000000 0.8955000043
 1.4989999533 1.1119999886 0.9344000220  -999.250000 118.74970245 0.8855999708
  -999.250000 2.2520000935 0.2256000042 0.3828000128 53.749801636 1951.4820557
  -999.250000 8.3125000000 8.5000000000  -999.250000  -999.250000  -999.250000
 1951.6343375
 1.0000000000 0.0000000000 0.2955999970 0.3810000122 1.0000000000 0.9009000063
 1.4844000340 1.1030999422 0.9329000115  -999.250000 118.00039673 0.8855999708
  -999.250000 2.2520000935 0.2236000001 0.4063000083 53.282501221 1951.6343994
  -999.250000 8.2734003067 8.5000000000  -999.250000  -999.250000  -999.250000
 1951.7867375
 1.0000000000 0.0000000000 0.2680000067 0.4066999853 1.0000000000 0.9038000107
 1.5439000130 1.1346000433 0.9338999987  -999.250000 118.49980164 0.8855999708
  -999.250000 2.2520000935 0.2217999995 0.4199000001 55.124198914 1951.7867432
  -999.250000 8.2812995911 8.5000000000  -999.250000  -999.250000  -999.250000
 1951.9391375
 1.0000000000 0.0000000000 0.2594999969 0.4146000147 1.0000000000 0.9042999744
 1.4862999916 1.0614000559 0.9142000079  -999.250000 118.87000275 0.8855999708
  -999.250000 2.2520000935 0.2213000059 0.4242999852 55.687999725 1951.9392090
  -999.250000 8.2890996933 8.5000000000  -999.250000  -999.250000  -999.250000
 1952.0915375
 1.0000000000 0.0000000000 0.2240999937 0.4399000108 1.0000000000 0.9028000236
 1.3437999487 1.0420999527 0.8923000097  -999.250000 119.12000275 0.6707000136
  -999.250000 2.2597999573 0.2146999985 0.4253000021 57.500000000 1952.0915527
  -999.250000 8.2890996933 8.5000000000  -999.250000  -999.250000  -999.250000
 1952.2439375
 1.0000000000 0.0000000000 0.2124000043 0.4447000027 1.0000000000 0.9042999744
 1.4931999445 1.0606000423 0.8939999938  -999.250000 119.25029755 0.7705000043
  -999.250000 2.2558999062 0.2168000042 0.4277000129 57.844600677 1952.2440186
  -999.250000 8.3125000000 8.5000000000  -999.250000  -999.250000  -999.250000
 1952.3963375
 1.0000000000 0.0000000000 0.2106000036 0.4564999938 1.0000000000 0.9057999849
 1.4306999445 1.0477999449 0.9147999883  -999.250000 119.74970245 0.5837000012
  -999.250000 2.2637000084 0.2111999989 0.4316000044 58.687500000 1952.3963623
  -999.250000 8.2734003067 8.5000000000  -999.250000  -999.250000  -999.250000
 1952.5487375
 1.0000000000 0.0000000000 0.3113999963 0.4133000076 1.0000000000 0.9071999788
 1.5185999870 1.0640000105 0.9020000100  -999.250000 119.00000000 0.6707000136
  -999.250000 2.2597999573 0.2166000009 0.4458000064 55.594001770 1952.5488281
  -999.250000 8.2734003067 8.5000000000  -999.250000  -999.250000  -999.250000
 1952.7011375
 1.0000000000 0.0000000000 0.2879000008 0.4264000058 1.0000000000 0.9101999998
 1.4335999489 1.0706000328 0.9247000217  -999.250000 119.00000000 0.5078999996
  -999.250000 2.2676000595 0.2108999938 0.4413999915 56.530998230 1952.7011719
  -999.250000 8.2734003067 8.5000000000  -999.250000  -999.250000  -999.250000
 1952.8535375
 1.0000000000 0.0000000000 0.1700000018 0.4077000022 1.0000000000 0.9096999764
 1.4141000509 1.0656000376 0.9397000074  -999.250000 118.25009918 0.6705999970
  -999.250000 2.2597999573 0.2169999927 0.4052999914 58.594699860 1952.8536377
  -999.250000 8.2500000000 8.5000000000  -999.250000  -999.250000  -999.250000
 1953.0059375
 1.0000000000 0.0000000000 0.1289000064 0.3770000041 1.0000000000 0.9110999703
 1.4629000425 1.0220999718 0.9273999929  -999.250000 118.49929810 0.6266999841
  -999.250000 2.2616999149 0.2179999948 0.3887000084 59.813899994 1953.0059814
  -999.250000 8.2343997955 8.5000000000  -999.250000  -999.250000  -999.250000
 1953.1583375
 1.0000000000 0.0000000000 0.1577000022 0.3603000045 1.0000000000 0.9110999703
 1.4326000214 1.0424000025 0.9229000211  -999.250000 117.75000000 0.5454000235
  -999.250000 2.2655999660 0.2167000026 0.3779000044 60.812999725 1953.1584473
  -999.250000 8.2343997955 8.5000000000  -999.250000  -999.250000  -999.250000
 1953.3107375
 1.0000000000 0.0000000000 0.1325999945 0.3808000088 1.0000000000 0.9110999703
 1.3428000212 1.0570000410 0.9294000268  -999.250000 118.00000000 0.5454000235
  -999.250000 2.2655999660 0.2152999938 0.3882000148 59.500000000 1953.3107910
  -999.250000 8.2343997955 8.5000000000  -999.250000  -999.250000  -999.250000
 1953.4631375
 1.0000000000 0.0000000000 0.1300999969 0.3768999875 1.0000000000 0.9146000147
 1.4687999487 1.0182000399 0.9261999726  -999.250000 117.74980164 0.5454999804
  -999.250000 2.2655999660 0.2155999988 0.3862000108 63.999000549 1953.4632568
  -999.250000 8.2343997955 8.5000000000  -999.250000  -999.250000  -999.250000
 1953.6155375
 1.0000000000 0.0000000000 0.1415999979 0.3688000143 1.0000000000 0.9190000296
 1.3964999914 1.0595999956 0.9405999780  -999.250000 117.25039673 0.6707000136
  -999.250000 2.2597999573 0.2196999937 0.3856999874 61.748600006 1953.6156006
  -999.250000 8.2421998978 8.5000000000  -999.250000  -999.250000  -999.250000
 1953.7679375
 1.0000000000 0.0000000000 0.1273999959 0.3901999891 1.0000000000 0.9262999892
 1.3983999491 1.0384999514 0.9442999959  -999.250000 117.74980164 0.6707000136
  -999.250000 2.2597999573 0.2181999981 0.3964999914 60.031799316 1953.7679443
  -999.250000 8.2421998978 8.5000000000  -999.250000  -999.250000  -999.250000
 1953.9203375
 1.0000000000 0.0000000000 0.1554999948 0.3596999943 1.0000000000 0.9365000129
 1.5048999786 1.0455000401 0.9575999975  -999.250000 118.50000000 0.8276000023
  -999.250000 2.2539000511 0.2240000069 0.3847999871 58.250000000 1953.9204102
  -999.250000 8.2656002045 8.5000000000  -999.250000  -999.250000  -999.250000
 1954.0727375
 1.0000000000 0.0000000000 0.1747000068 0.3486000001 1.0000000000 0.9452999830
 1.5088000298 1.0384999514 0.9592999816  -999.250000 118.25000000 0.8855999708
  -999.250000 2.2520000935 0.2258999944 0.3804000020 58.530998230 1954.0727539
  -999.250000 8.2656002045 8.5000000000  -999.250000  -999.250000  -999.250000
 1954.2251375
 1.0000000000 0.0000000000 0.1650999933 0.3551999927 1.0000000000 0.9521999955
 1.5429999828 1.0542999506 0.9555000067  -999.250000 117.74900055 0.6704999804
  -999.250000 2.2597999573 0.2205999941 0.3788999915 59.373001099 1954.2252197
  -999.250000 8.2578001022 8.5000000000  -999.250000  -999.250000  -999.250000
 1954.3775375
 0.0000000000 0.0000000000 0.2125000060 0.3941999972 1.0000000000 0.9541000128
 1.5439000130 1.0721000433 0.9451000094  -999.250000 116.25000000 0.4129000008
  -999.250000 2.2734000683 0.2096000016 0.3901000023 56.436798096 1954.3775635
  -999.250000 8.2578001022 8.5000000000  -999.250000  -999.250000  -999.250000
