# LAS format log file from PETREL
# Project units are specified as depth units
#==================================================================
~Version information
VERS.   2.0:
WRAP.   YES:
#==================================================================
~Well
STRT .m      800.09997440 :
STOP .m      2449.8299216 :
STEP .m     0.15240000 :
NULL .        -999.250000 :
COMP.           : COMPANY
WELL.  34/10-15   : WELL
FLD.            : FIELD
LOC.            : LOCATION
SRVC.           : SERVICE COMPANY
DATE.  Wednesday, March 31 2010 12:33:14   : DATE
PROV.           : PROVINCE
UWI.      : UNIQUE WELL ID
API.            : API NUMBER
#==================================================================
~Curve
DEPT .m                   : DEPTH
NETS .                    : NETS
COAL .                    : COAL
CARB .                    : CARB
VSH .                     : VSH
SW .                      : SW
ILD .ohm.m                : ILD
MSFL .ohm.m               : MSFL
LLS .ohm.m                : LLS
LLD .ohm.m                : LLD
ILM .ohm.m                : ILM
DT .us/ft                 : DT
KLOG .mD                  : KLOG
DRHO .g/cm3               : DRHO
RHOB .g/cm3               : RHOB
PHIF .m3/m3               : PHIF
NPHI .m3/m3               : NPHI
GR .gAPI                  : GR
DEPT .m                   : DEPT
TIME .ms                  : TIME
CALI .in                  : CALI
BS .in                    : BS
QTOT .rm3/d               : QTOT
QWAT .sm3/d               : QWAT
GeneralTime1 .ms          : General Time 1
~Parameter
#==================================================================
~Ascii
# ...
 2247.8999281
 0.0000000000 0.0000000000 0.0000000000 0.6187999845 1.0000000000 1.3310999870
 2.1854999065  -999.250000  -999.250000  -999.250000 107.55940247 0.0003000000
  -999.250000 2.4063000679 0.1152999997 0.3521000147 65.626800537 2247.8999023
  -999.250000 9.1015996933 8.5000000000  -999.250000  -999.250000  -999.250000
 2248.0523281
 0.0000000000 0.0000000000 0.0000000000 0.6528999805 1.0000000000 1.3135000467
 2.1407999992  -999.250000  -999.250000  -999.250000 106.55940247 0.0003000000
  -999.250000 2.4003999233 0.1164999977 0.3686999977 68.434997559 2248.0524902
  -999.250000 9.0853004456 8.5000000000  -999.250000  -999.250000  -999.250000
 2248.2047281
 0.0000000000 0.0000000000 0.0000000000 0.5925999880 1.0000000000 1.2969000340
 2.3203999996  -999.250000  -999.250000  -999.250000 105.99939728 0.0003000000
  -999.250000 2.4159998894 0.1110000014 0.3725000024 65.495903015 2248.2048340
  -999.250000 8.5312995911 8.5000000000  -999.250000  -999.250000  -999.250000
 2248.3571281
 0.0000000000 0.0000000000 0.0000000000 0.5575000048 1.0000000000 1.2939000130
 2.3650000095  -999.250000  -999.250000  -999.250000 105.56079865 0.0003000000
  -999.250000 2.4237999916 0.1085999981 0.3501000106 62.499000549 2248.3571777
  -999.250000 8.5546998978 8.5000000000  -999.250000  -999.250000  -999.250000
 2248.5095280
 0.0000000000 0.0000000000 0.0000000000 0.5500000119 1.0000000000 1.3007999659
 2.2441000938  -999.250000  -999.250000  -999.250000 106.00000000 0.0003000000
  -999.250000 2.4219000340 0.1102999970 0.3300000131 61.910198212 2248.5095215
  -999.250000 8.5468997955 8.5000000000  -999.250000  -999.250000  -999.250000
 2248.6619280
 0.0000000000 0.0000000000 0.0000000000 0.5163000226 1.0000000000 1.3085999489
 2.2304999828  -999.250000  -999.250000  -999.250000 106.00000000 0.0007000000
  -999.250000 2.4003999233 0.1261000037 0.3125000000 63.873600006 2248.6621094
  -999.250000 8.5390996933 8.5000000000  -999.250000  -999.250000  -999.250000
 2248.8143280
 0.0000000000 0.0000000000 0.0000000000 0.5169000030 1.0000000000 1.3056999445
 2.2284998894  -999.250000  -999.250000  -999.250000 106.19000244 0.0010000000
  -999.250000 2.3965001106 0.1284999996 0.3154000044 63.155998230 2248.8144531
  -999.250000 8.5234003067 8.5000000000  -999.250000  -999.250000  -999.250000
 2248.9667280
 0.0000000000 0.0000000000 0.0000000000 0.4982999861 1.0000000000 1.2948999405
 2.2128999233  -999.250000  -999.250000  -999.250000 108.19000244 0.0046999999
  -999.250000 2.3808999062 0.1395999938 0.3174000084 63.437999725 2248.9667969
  -999.250000 8.5234003067 8.5000000000  -999.250000  -999.250000  -999.250000
 2249.1191280
 0.0000000000 0.0000000000 0.0000000000 0.5346999764 1.0000000000 1.2803000212
 2.2813000679  -999.250000  -999.250000  -999.250000 108.55999756 0.0022000000
  -999.250000 2.3808999062 0.1369999945 0.3325000107 65.000000000 2249.1191406
  -999.250000 8.5234003067 8.5000000000  -999.250000  -999.250000  -999.250000
 2249.2715280
 0.0000000000 0.0000000000 0.0000000000 0.5289000273 1.0000000000 1.2519999743
 2.2829999924  -999.250000  -999.250000  -999.250000 110.56079865 0.0024999999
  -999.250000 2.3808999062 0.1374000013 0.3300999999 66.938301086 2249.2714844
  -999.250000 8.5234003067 8.5000000000  -999.250000  -999.250000  -999.250000
 2249.4239280
 0.0000000000 0.0000000000 0.0000000000 0.5830000043 1.0000000000 1.2274999619
 2.0157001019  -999.250000  -999.250000  -999.250000 111.56089783 0.0003000000
  -999.250000 2.3965001106 0.1238999963 0.3427999914 67.376403809 2249.4240723
  -999.250000 8.5312995911 8.5000000000  -999.250000  -999.250000  -999.250000
 2249.5763280
 0.0000000000 0.0000000000 0.0000000000 0.5558999777 1.0000000000 1.2129000425
 2.1112000942  -999.250000  -999.250000  -999.250000 112.37049866 0.0005000000
  -999.250000 2.3945000172 0.1270000041 0.3319999874 68.630302429 2249.5764160
  -999.250000 8.5701999664 8.5000000000  -999.250000  -999.250000  -999.250000
 2249.7287280
 0.0000000000 0.0000000000 0.0000000000 0.6279000044 1.0000000000 1.2158000469
 2.0332999229  -999.250000  -999.250000  -999.250000 112.75080109 0.0003000000
  -999.250000 2.4003999233 0.1182999983 0.3355000019 72.198600769 2249.7287598
  -999.250000 8.4844999313 8.5000000000  -999.250000  -999.250000  -999.250000
 2249.8811280
 0.0000000000 0.0000000000 0.0000000000 0.5979999900 1.0000000000 1.2245999575
 2.0722999573  -999.250000  -999.250000  -999.250000 113.18959808 0.0003000000
  -999.250000 2.3984000683 0.1216000021 0.3476000130 77.869499207 2249.8811035
  -999.250000 8.5389995575 8.5000000000  -999.250000  -999.250000  -999.250000
 2250.0335280
 0.0000000000 0.0000000000 0.0000000000 0.6780999899 1.0000000000 1.2382999659
 1.8068000078  -999.250000  -999.250000  -999.250000 111.56099701 0.0003000000
  -999.250000 2.3984000683 0.1159999967 0.3725000024 77.438301086 2250.0336914
  -999.250000 8.9685001373 8.5000000000  -999.250000  -999.250000  -999.250000
 2250.1859280
 0.0000000000 0.0000000000 0.0000000000 0.7110999823 0.9893000126 1.2606999874
 1.6582000256  -999.250000  -999.250000  -999.250000 110.55999756 0.0003000000
  -999.250000 2.3789000511 0.1259000003 0.4086999893 71.813003540 2250.1860352
  -999.250000 9.4531002045 8.5000000000  -999.250000  -999.250000  -999.250000
 2250.3383280
 0.0000000000 0.0000000000 0.0000000000 0.6180999875 1.0000000000 1.2695000172
 1.8018000126  -999.250000  -999.250000  -999.250000 109.37999725 0.0003000000
  -999.250000 2.3671998978 0.1396999955 0.4081999958 65.188003540 2250.3383789
  -999.250000 9.2187995911 8.5000000000  -999.250000  -999.250000  -999.250000
 2250.4907280
 0.0000000000 0.0000000000 0.0000000000 0.5419999957 1.0000000000 1.2637000084
 1.8202999830  -999.250000  -999.250000  -999.250000 100.74839783 0.0004000000
  -999.250000 2.3671998978 0.1450999975 0.4004000127 61.372798920 2250.4907227
  -999.250000 8.5079002380 8.5000000000  -999.250000  -999.250000  -999.250000
 2250.6431280
 0.0000000000 0.0000000000 0.0000000000 0.4981999993 1.0000000000 1.2559000254
 1.9189000130  -999.250000  -999.250000  -999.250000 97.559898376 0.0003000000
  -999.250000 2.3887000084 0.1347000003 0.3628000021 57.056400299 2250.6433105
  -999.250000 8.7187004089 8.5000000000  -999.250000  -999.250000  -999.250000
 2250.7955280
 0.0000000000 0.0000000000 0.0000000000 0.4031000137 1.0000000000 1.2422000170
 1.9271999598  -999.250000  -999.250000  -999.250000 93.999198914 0.0007000000
  -999.250000 2.3905999660 0.1402000040 0.3359000087 49.554500580 2250.7956543
  -999.250000 8.6014003754 8.5000000000  -999.250000  -999.250000  -999.250000
 2250.9479280
 0.0000000000 0.0000000000 0.0000000000 0.3176000118 1.0000000000 1.2118999958
 2.2377998829  -999.250000  -999.250000  -999.250000 93.384101868 0.0015000000
  -999.250000 2.3945000172 0.1437000036 0.3115000129 42.780101776 2250.9479980
  -999.250000 8.4763002396 8.5000000000  -999.250000  -999.250000  -999.250000
 2251.1003280
 0.0000000000 0.0000000000 0.0000000000 0.3061000109 1.0000000000 1.2051000595
 1.9488999844  -999.250000  -999.250000  -999.250000 99.004302979 0.0059000002
  -999.250000 2.3905999660 0.1468999982 0.2928999960 42.220798492 2251.1003418
  -999.250000 8.3121995926 8.5000000000  -999.250000  -999.250000  -999.250000
 2251.2527280
 0.0000000000 0.0000000000 0.0000000000 0.3125000000 1.0000000000 1.1943000555
 1.8185000420  -999.250000  -999.250000  -999.250000 101.18810272 0.0035999999
  -999.250000 2.4042999744 0.1378999949 0.2743999958 43.155200958 2251.2526855
  -999.250000 8.1563997269 8.5000000000  -999.250000  -999.250000  -999.250000
 2251.4051280
 0.0000000000 0.0000000000 0.0000000000 0.3693000078 1.0000000000 1.1689000130
 2.6851000786  -999.250000  -999.250000  -999.250000 105.18810272 0.0091000004
  -999.250000 2.3945000172 0.1395999938 0.2768999934 47.935699463 2251.4052734
  -999.250000 8.1718997955 8.5000000000  -999.250000  -999.250000  -999.250000
 2251.5575280
 0.0000000000 0.0000000000 0.0000000000 0.3858000040 1.0000000000 1.1269999743
 1.6024999619  -999.250000  -999.250000  -999.250000 105.00000000 0.0412999988
  -999.250000 2.3750000000 0.1510999948 0.2842000127 49.219001770 2251.5576172
  -999.250000 8.2109003067 8.5000000000  -999.250000  -999.250000  -999.250000
