# LAS format log file from PETREL
# Project units are specified as depth units
#==================================================================
~Version information
VERS.   2.0:
WRAP.   YES:
#==================================================================
~Well
STRT .m      800.09997440 :
STOP .m      2299.7159264 :
STEP .m     0.15240000 :
NULL .        -999.250000 :
COMP.           : COMPANY
WELL.  34/10-19   : WELL
FLD.            : FIELD
LOC.            : LOCATION
SRVC.           : SERVICE COMPANY
DATE.  Wednesday, March 31 2010 12:33:14   : DATE
PROV.           : PROVINCE
UWI.      : UNIQUE WELL ID
API.            : API NUMBER
#==================================================================
~Curve
DEPT .m                   : DEPTH
NETS .                    : NETS
COAL .                    : COAL
CARB .                    : CARB
VSH .                     : VSH
SW .                      : SW
ILD .ohm.m                : ILD
ILM .ohm.m                : ILM
DT .us/ft                 : DT
KLOG .mD                  : KLOG
DRHO .g/cm3               : DRHO
RHOB .g/cm3               : RHOB
PHIF .m3/m3               : PHIF
NPHI .m3/m3               : NPHI
GR .gAPI                  : GR
DEPT .m                   : DEPT
TIME .ms                  : TIME
CALI .in                  : CALI
BS .in                    : BS
QTOT .rm3/d               : QTOT
QWAT .sm3/d               : QWAT
GeneralTime1 .ms          : General Time 1
~Parameter
#==================================================================
~Ascii
# ...
 2208.2759293
 0.0000000000 0.0000000000 0.0000000000 0.3499000072 1.0000000000 1.2762999535
  -999.250000 108.74960327 0.0395000018  -999.250000 2.3940000534 0.1369999945
 0.2489999980 45.344398499 2208.2758789  -999.250000 8.1717996597  -999.250000
  -999.250000  -999.250000  -999.250000
 2208.4283293
 0.0000000000 0.0000000000 0.0000000000 0.3533999920 1.0000000000 1.1375999451
  -999.250000 108.25029755 0.0003000000  -999.250000 2.4389998913 0.1099999994
 0.2419999987 45.908599854 2208.4284668  -999.250000 8.0548000336  -999.250000
  -999.250000  -999.250000  -999.250000
 2208.5807293
 0.0000000000 0.0000000000 0.0000000000 0.3867999911 1.0000000000 1.0320999622
  -999.250000 108.50000000 0.0003000000  -999.250000 2.4730000496 0.0869999975
 0.2310000062 48.101100922 2208.5808105  -999.250000 8.1099996567  -999.250000
  -999.250000  -999.250000  -999.250000
 2208.7331293
 0.0000000000 0.0000000000 0.0000000000 0.4201000035 1.0000000000 0.9408000112
  -999.250000 108.50000000 0.0005000000  -999.250000 2.4568998814 0.0940999985
 0.2300000042 52.720401764 2208.7331543  -999.250000 8.4834003448  -999.250000
  -999.250000  -999.250000  -999.250000
 2208.8855293
 0.0000000000 0.0000000000 0.0000000000 0.3583999872 1.0000000000 0.8945999742
  -999.250000 108.50000000 0.0636000037  -999.250000 2.3891000748 0.1400000006
 0.2500000000 53.468299866 2208.8854980  -999.250000 7.9380002022  -999.250000
  -999.250000  -999.250000  -999.250000
 2209.0379293
 1.0000000000 0.0000000000 0.0000000000 0.3529999852 1.0000000000 0.8871999979
  -999.250000 108.25009918 1.3683999777  -999.250000 2.3340001106 0.1739999950
 0.2759999931 50.595600128 2209.0380859  -999.250000 7.9531002045  -999.250000
  -999.250000  -999.250000  -999.250000
 2209.1903293
 1.0000000000 0.0000000000 0.0000000000 0.3321000040 1.0000000000 0.8978999853
  -999.250000 108.50000000 4.7540001869  -999.250000 2.3099999428 0.1899999976
 0.2809999883 49.937999725 2209.1904297  -999.250000 7.9453001022  -999.250000
  -999.250000  -999.250000  -999.250000
 2209.3427293
 1.0000000000 0.0000000000 0.0000000000 0.3641999960 1.0000000000 0.9101999998
  -999.250000 108.25000000 0.8087000251  -999.250000 2.3420000076 0.1689999998
 0.2759999931 51.187999725 2209.3427734  -999.250000 7.9453001022  -999.250000
  -999.250000  -999.250000  -999.250000
 2209.4951293
 0.0000000000 0.0000000000 0.0001000000 0.3908999860 1.0000000000 0.9096999764
  -999.250000 108.74990082 0.0096000005  -999.250000 2.4059998989 0.1270000041
 0.2520000041 50.499401093 2209.4951172  -999.250000 7.9375000000  -999.250000
  -999.250000  -999.250000  -999.250000
 2209.6475293
 0.0000000000 0.0000000000 0.1500000060 0.3995000124 1.0000000000 0.9057999849
  -999.250000 108.50019836 0.0003000000  -999.250000 2.4920001030 0.0740000010
 0.2179999948 49.465999603 2209.6477051  -999.250000 7.9531002045  -999.250000
  -999.250000  -999.250000  -999.250000
 2209.7999293
 0.0000000000 0.0000000000 0.1500000060 0.3513000011 1.0000000000 0.9160000086
  -999.250000 108.74970245 0.0003000000  -999.250000 2.5290000439 0.0549999997
 0.1860000044 46.188301086 2209.8000488  -999.250000 7.9063000679  -999.250000
  -999.250000  -999.250000  -999.250000
 2209.9523293
 0.0000000000 0.0000000000 0.1500000060 0.2957000136 1.0000000000 0.9301999807
  -999.250000 108.49960327 0.0003000000  -999.250000 2.5160000324 0.0670000017
 0.1640000045 46.408798218 2209.9523926  -999.250000 7.9218997955  -999.250000
  -999.250000  -999.250000  -999.250000
 2210.1047293
 0.0000000000 0.0000000000 0.1500000060 0.2487999946 1.0000000000 0.9552000165
  -999.250000 108.25050354 0.0004000000  -999.250000 2.4879000187 0.0870999992
 0.1620000005 48.127601624 2210.1047363  -999.250000 7.9219999313  -999.250000
  -999.250000  -999.250000  -999.250000
 2210.2571293
 0.0000000000 0.0000000000 0.1500000060 0.2187000066 1.0000000000 0.9936000109
  -999.250000 108.49980164 0.0340000018  -999.250000 2.4340000153 0.1230000034
 0.1780000031 49.404998779 2210.2570801  -999.250000 7.9688000679  -999.250000
  -999.250000  -999.250000  -999.250000
 2210.4095293
 0.0000000000 0.0000000000 0.0001000000 0.2476000041 1.0000000000 1.0420000553
  -999.250000 108.50000000 0.5787000060  -999.250000 2.3849999905 0.1500000060
 0.2129999995 49.125099182 2210.4096680  -999.250000 7.9688000679  -999.250000
  -999.250000  -999.250000  -999.250000
 2210.5619293
 1.0000000000 0.0000000000 0.0000000000 0.3253000081 1.0000000000 1.1035000086
  -999.250000 108.50000000 0.6209999919  -999.250000 2.3589999676 0.1609999985
 0.2529999912 47.655998230 2210.5620117  -999.250000 7.9375000000  -999.250000
  -999.250000  -999.250000  -999.250000
 2210.7143293
 0.0000000000 0.0000000000 0.0000000000 0.3937999904 1.0000000000 1.1172000170
  -999.250000 108.50000000 0.0340999998  -999.250000 2.3829998970 0.1410000026
 0.2730000019 49.062999725 2210.7143555  -999.250000 7.9531002045  -999.250000
  -999.250000  -999.250000  -999.250000
 2210.8667293
 0.0000000000 0.0000000000 0.0000000000 0.3995000124 1.0000000000 1.0253000259
  -999.250000 108.50000000 0.0003000000  -999.250000 2.4379999638 0.1080000028
 0.2820000052 49.437301636 2210.8666992  -999.250000 7.9608998299  -999.250000
  -999.250000  -999.250000  -999.250000
 2211.0191292
 0.0000000000 0.0000000000 0.0000000000 0.3829999864 1.0000000000 0.9506000280
  -999.250000 108.50000000 0.0003000000  -999.250000 2.4820001125 0.0810000002
 0.2730000019 48.342098236 2211.0192871  -999.250000 7.9375000000  -999.250000
  -999.250000  -999.250000  -999.250000
 2211.1715292
 0.0000000000 0.0000000000 0.0000000000 0.3580999970 1.0000000000 0.9077000022
  -999.250000 108.50000000 0.0004000000  -999.250000 2.4568998814 0.0991000012
 0.2680000067 46.534801483 2211.1716309  -999.250000 7.9531002045  -999.250000
  -999.250000  -999.250000  -999.250000
 2211.3239292
 0.0000000000 0.0000000000 0.0000000000 0.3596000075 1.0000000000 0.8705000281
  -999.250000 108.50000000 0.0839999989  -999.250000 2.3868999481 0.1411000043
 0.2509999871 49.250801086 2211.3239746  -999.250000 7.9453001022  -999.250000
  -999.250000  -999.250000  -999.250000
 2211.4763292
 1.0000000000 0.0000000000 0.0000000000 0.2797000110 1.0000000000 0.8328999877
  -999.250000 108.50000000 7.4137001038  -999.250000 2.3178999424 0.1890999973
 0.2579999864 49.690498352 2211.4763184  -999.250000 7.9531998634  -999.250000
  -999.250000  -999.250000  -999.250000
 2211.6287292
 1.0000000000 0.0000000000 0.0000000000 0.2254000008 1.0000000000 0.7788000107
  -999.250000 108.50000000 44.023899078  -999.250000 2.2850000858 0.2129999995
 0.2560000122 50.843200684 2211.6289063  -999.250000 7.9843997955  -999.250000
  -999.250000  -999.250000  -999.250000
 2211.7811292
 1.0000000000 0.0000000000 0.0000000000 0.1958999932 1.0000000000 0.6948000193
  -999.250000 108.50000000 90.781501770  -999.250000 2.2709999084 0.2230000049
 0.2520000041 45.750000000 2211.7812500  -999.250000 7.9921998978  -999.250000
  -999.250000  -999.250000  -999.250000
 2211.9335292
 1.0000000000 0.0000000000 0.0000000000 0.1941999942 1.0000000000 0.6201000214
  -999.250000 108.50000000 101.75360107  -999.250000 2.2679998875 0.2259999961
 0.2540000081 46.562999725 2211.9335938  -999.250000 7.9843997955  -999.250000
  -999.250000  -999.250000  -999.250000
 2212.0859292
 1.0000000000 0.0000000000 0.0000000000 0.2154999971 1.0000000000 0.5903000236
  -999.250000 108.50000000 44.429500580  -999.250000 2.2890000343 0.2109999955
 0.2500000000 45.564498901 2212.0859375  -999.250000 7.9688000679  -999.250000
  -999.250000  -999.250000  -999.250000
 2212.2383292
 1.0000000000 0.0000000000 0.0000000000 0.2506000102 1.0000000000 0.5830000043
  -999.250000 108.50000000 17.587200165  -999.250000 2.3050000668 0.1990000010
 0.2549999952 49.250099182 2212.2382813  -999.250000 7.9688000679  -999.250000
  -999.250000  -999.250000  -999.250000
 2212.3907292
 1.0000000000 0.0000000000 0.0000000000 0.2453999966 1.0000000000 0.5868999958
  -999.250000 108.50000000 14.551500320  -999.250000 2.3129999638 0.1949999928
 0.2489999980 49.439399719 2212.3908691  -999.250000 7.9688000679  -999.250000
  -999.250000  -999.250000  -999.250000
