# LAS format log file from PETREL
# Project units are specified as depth units
#==================================================================
~Version information
VERS.   2.0:
WRAP.   YES:
#==================================================================
~Well
STRT .m      800.09997440 :
STOP .m      2299.7159264 :
STEP .m     0.15240000 :
NULL .        -999.250000 :
COMP.           : COMPANY
WELL.  34/10-11   : WELL
FLD.            : FIELD
LOC.            : LOCATION
SRVC.           : SERVICE COMPANY
DATE.  Wednesday, March 31 2010 12:33:12   : DATE
PROV.           : PROVINCE
UWI.      : UNIQUE WELL ID
API.            : API NUMBER
#==================================================================
~Curve
DEPT .m                   : DEPTH
NETS .                    : NETS
COAL .                    : COAL
CARB .                    : CARB
VSH .                     : VSH
SW .                      : SW
ILD .ohm.m                : ILD
MSFL .ohm.m               : MSFL
LLS .ohm.m                : LLS
LLD .ohm.m                : LLD
ILM .ohm.m                : ILM
DT .us/ft                 : DT
KLOG .mD                  : KLOG
DRHO .g/cm3               : DRHO
RHOB .g/cm3               : RHOB
PHIF .m3/m3               : PHIF
NPHI .m3/m3               : NPHI
GR .gAPI                  : GR
DEPT .m                   : DEPT
TIME .ms                  : TIME
CALI .in                  : CALI
BS .in                    : BS
QTOT .rm3/d               : QTOT
QWAT .sm3/d               : QWAT
GeneralTime1 .ms          : General Time 1
~Parameter
#==================================================================
~Ascii
# ...
 1859.2799405
  -999.250000  -999.250000 0.0000000000 1.0000000000  -999.250000 1.2763999701
 0.9961000085 1.3050999641 1.3560999632  -999.250000 123.75000000  -999.250000
  -999.250000 2.2753999233 0.0000000000 0.3876999915 45.280998230 1859.2800293
  -999.250000 11.680000305  -999.250000  -999.250000  -999.250000  -999.250000
 1859.4323405
  -999.250000  -999.250000 0.0000000000 1.0000000000  -999.250000 1.2695000172
 0.9545999765 1.3030999899 1.3494000435  -999.250000 131.11999512  -999.250000
  -999.250000 2.2753999233 0.0000000000 0.4169999957 46.375000000 1859.4323730
  -999.250000 11.288999557  -999.250000  -999.250000  -999.250000  -999.250000
 1859.5847405
  -999.250000  -999.250000 0.0000000000 1.0000000000  -999.250000 1.2489999533
 1.2489999533 1.2774000168 1.3186000586  -999.250000 135.75180054  -999.250000
  -999.250000 2.2655999660 0.0000000000 0.4413999915 45.562999725 1859.5848389
  -999.250000 11.718400002  -999.250000  -999.250000  -999.250000  -999.250000
 1859.7371405
  -999.250000  -999.250000 0.0000000000 1.0000000000  -999.250000 1.2089999914
 1.2253999710 1.2719999552 1.3085000515  -999.250000 139.00010681  -999.250000
  -999.250000 2.3085999489 0.0000000000 0.4481999874 45.628299713 1859.7371826
  -999.250000 10.648200035  -999.250000  -999.250000  -999.250000  -999.250000
 1859.8895405
  -999.250000  -999.250000 0.0000000000 1.0000000000  -999.250000 1.1757999659
 1.0146000385 1.2798000574 1.3073999882  -999.250000 139.11999512  -999.250000
  -999.250000 2.3203001022 0.0000000000 0.4320999980 49.250000000 1859.8896484
  -999.250000 10.836000443  -999.250000  -999.250000  -999.250000  -999.250000
 1860.0419405
 0.0000000000 0.0000000000 0.0000000000 0.6654000282 0.8319000006 1.1611000299
 0.9893000126 1.3811000586 1.4024000168  -999.250000 135.75000000 0.0000000000
  -999.250000 2.3340001106 0.1709000021 0.4208999872 56.312999725 1860.0419922
  -999.250000 11.102000237  -999.250000  -999.250000  -999.250000  -999.250000
 1860.1943405
 0.0000000000 0.0000000000 0.0000000000 0.6610999703 0.7631999850 1.1454999447
 0.7979000211 1.5880000591 1.6555000544  -999.250000 133.36860657 0.0001000000
  -999.250000 2.3104999065 0.1846999973 0.4325999916 59.000099182 1860.1944580
  -999.250000 11.718899727  -999.250000  -999.250000  -999.250000  -999.250000
 1860.3467405
 0.0000000000 0.0000000000 0.0000000000 0.6319000125 0.6715999842 1.1504000425
 0.8076000214 1.5770000219 1.6749999523  -999.250000 130.11570740 0.0008000000
  -999.250000 2.2890999317 0.2032999992 0.4370000064 59.124198914 1860.3468018
  -999.250000 11.430100441  -999.250000  -999.250000  -999.250000  -999.250000
 1860.4991405
 0.0000000000 0.0000000000 0.0000000000 0.6935999990 0.6904000044 1.1845999956
 1.3650000095 1.5727000237 1.6763999462  -999.250000 124.75240326 0.0000000000
  -999.250000 2.3203001022 0.1815000027 0.4453000128 58.094398499 1860.4991455
  -999.250000 11.500000000  -999.250000  -999.250000  -999.250000  -999.250000
 1860.6515405
 0.0000000000 0.0000000000 0.0000000000 0.6498000026 0.7389000058 1.1894999743
 0.9648000002 1.5932999849 1.6706999540  -999.250000 119.00000000 0.0001000000
  -999.250000 2.3280999660 0.1686999947 0.4111000001 59.687999725 1860.6516113
  -999.250000 11.437999725  -999.250000  -999.250000  -999.250000  -999.250000
 1860.8039405
 0.0000000000 0.0000000000 0.0000000000 0.6008999944 0.6805999875 1.2187999487
 0.8525000215 1.4160000086 1.4538999796  -999.250000 122.37000275 0.0022000000
  -999.250000 2.2852001190 0.2032999992 0.4219000041 58.500000000 1860.8039551
  -999.250000 10.765999794  -999.250000  -999.250000  -999.250000  -999.250000
 1860.9563404
 0.0000000000 0.0000000000 0.0000000000 0.4871000051 0.6741999984 1.2695000172
 1.0763000250 1.5290000439 1.6252000332  -999.250000 125.37490082 0.2163999975
  -999.250000 2.2284998894 0.2451999933 0.4081999958 56.714801788 1860.9564209
  -999.250000 11.288999557  -999.250000  -999.250000  -999.250000  -999.250000
 1861.1087404
 0.0000000000 0.0000000000 0.0000000000 0.5411000252 0.6359000206 1.3341000080
 1.2273999453 1.6657999754 1.7446999550  -999.250000 132.75759888 0.1106000021
  -999.250000 2.2284998894 0.2358999997 0.4253000021 50.439399719 1861.1087646
  -999.250000 11.265700340  -999.250000  -999.250000  -999.250000  -999.250000
 1861.2611404
 0.0000000000 0.0000000000 0.0000000000 0.5611000061 0.6543999910 1.4335999489
 1.1024999619 1.7836999893 1.8608000278  -999.250000 140.11999512 0.0223999992
  -999.250000 2.2597999573 0.2144999951 0.4135999978 51.812999725 1861.2612305
  -999.250000 10.961000443  -999.250000  -999.250000  -999.250000  -999.250000
 1861.4135404
 0.0000000000 0.0000000000 0.0000000000 0.5425000191 0.6596999764 1.5595999956
 1.6161999702 1.8865000010 1.9809000492  -999.250000 139.00000000 0.0086000003
  -999.250000 2.2832000256 0.2055000067 0.3955000043 52.000000000 1861.4135742
  -999.250000 10.906000137  -999.250000  -999.250000  -999.250000  -999.250000
 1861.5659404
 0.0000000000 0.0000000000 0.0000000000 0.5188999772 0.6227999926 1.6699999571
 1.2369999886 1.9792000055 2.0910000801  -999.250000 131.50149536 0.0876000002
  -999.250000 2.2520000935 0.2155999988 0.3939999938 55.155399323 1861.5660400
  -999.250000 10.805299759  -999.250000  -999.250000  -999.250000  -999.250000
 1861.7183404
 0.0000000000 0.0000000000 0.0000000000 0.5106999874 0.5828999877 1.8115999699
 2.5072000027 2.4911000729 2.7286000252  -999.250000 134.36419678 0.1195999980
  -999.250000 2.2421998978 0.2274000049 0.4018999934 54.030200958 1861.7183838
  -999.250000 11.295900345  -999.250000  -999.250000  -999.250000  -999.250000
 1861.8707404
 0.0000000000 0.0000000000 0.0000000000 0.6334000230 0.5436000228 1.9286999702
 1.8750000000 2.5924000740 2.7644999027  -999.250000 128.00000000 0.0029000000
  -999.250000 2.2832000256 0.1845999956 0.4189000130 53.094001770 1861.8708496
  -999.250000 10.078000069  -999.250000  -999.250000  -999.250000  -999.250000
 1862.0231404
 0.0000000000 0.0000000000 0.0000000000 0.6517999768 0.6482999921 1.9600000381
 1.2754000425 1.6916999817 1.7917000055  -999.250000 123.55999756 0.0000000000
  -999.250000 2.3729999065 0.1384000033 0.3817999959 51.219001770 1862.0231934
  -999.250000 9.8359003067  -999.250000  -999.250000  -999.250000  -999.250000
 1862.1755404
 0.0000000000 0.0000000000 0.0000000000 0.6294000149 0.8313999772 2.0272998810
 1.1865999699 1.7489000559 1.8729000092  -999.250000 125.55960083 0.0000000000
  -999.250000 2.3926000595 0.1361999959 0.3686999977 50.437500000 1862.1756592
  -999.250000 9.9376001358  -999.250000  -999.250000  -999.250000  -999.250000
 1862.3279404
 0.0000000000 0.0000000000 0.0000000000 0.6578999758 0.7357000113 2.0625000000
 1.3495999575 1.7237000465 1.8752000332  -999.250000 124.56430054 0.0000000000
  -999.250000 2.3594000340 0.1539999992 0.4004000127 49.313301086 1862.3280029
  -999.250000 10.125100136  -999.250000  -999.250000  -999.250000  -999.250000
 1862.4803404
 0.0000000000 0.0000000000 0.0000000000 0.6822000146 0.6456999779 2.0527000427
 1.3769999743 1.7520999908 1.8851000071  -999.250000 130.11749268 0.0003000000
  -999.250000 2.2987999916 0.1826999933 0.4408999979 49.655899048 1862.4803467
  -999.250000 10.280900002  -999.250000  -999.250000  -999.250000  -999.250000
 1862.6327404
 0.0000000000 0.0000000000 0.0000000000 0.6794000268 0.6761000156 2.0527000427
 1.5576000214 1.7684999704 1.8686000109  -999.250000 140.36999512 0.0000000000
  -999.250000 2.3203001022 0.1706999987 0.4325999916 48.094001770 1862.6328125
  -999.250000 10.625000000  -999.250000  -999.250000  -999.250000  -999.250000
 1862.7851404
 0.0000000000 0.0000000000 0.0000000000 0.6297000051 0.6931999922 1.9512000084
 1.5917999744 1.7569999695 1.8403999805  -999.250000 143.00000000 0.0004000000
  -999.250000 2.3125000000 0.1756000072 0.4081999958 48.687999725 1862.7851563
  -999.250000 10.522999763  -999.250000  -999.250000  -999.250000  -999.250000
 1862.9375404
 0.0000000000 0.0000000000 0.0000000000 0.6172999740 0.7167000175 1.7919000387
 1.4716999531 1.6517000198 1.7209000587  -999.250000 138.49819946 0.0003000000
  -999.250000 2.3203001022 0.1719000041 0.3984000087 45.374801636 1862.9376221
  -999.250000 10.648200035  -999.250000  -999.250000  -999.250000  -999.250000
