# LAS format log file from PETREL
# Project units are specified as depth units
#==================================================================
~Version information
VERS.   2.0:
WRAP.   YES:
#==================================================================
~Well
STRT .m      800.09997440 :
STOP .m      2299.7159264 :
STEP .m     0.15240000 :
NULL .        -999.250000 :
COMP.           : COMPANY
WELL.  34/10-11   : WELL
FLD.            : FIELD
LOC.            : LOCATION
SRVC.           : SERVICE COMPANY
DATE.  Wednesday, March 31 2010 12:33:12   : DATE
PROV.           : PROVINCE
UWI.      : UNIQUE WELL ID
API.            : API NUMBER
#==================================================================
~Curve
DEPT .m                   : DEPTH
NETS .                    : NETS
COAL .                    : COAL
CARB .                    : CARB
VSH .                     : VSH
SW .                      : SW
ILD .ohm.m                : ILD
MSFL .ohm.m               : MSFL
LLS .ohm.m                : LLS
LLD .ohm.m                : LLD
ILM .ohm.m                : ILM
DT .us/ft                 : DT
KLOG .mD                  : KLOG
DRHO .g/cm3               : DRHO
RHOB .g/cm3               : RHOB
PHIF .m3/m3               : PHIF
NPHI .m3/m3               : NPHI
GR .gAPI                  : GR
DEPT .m                   : DEPT
TIME .ms                  : TIME
CALI .in                  : CALI
BS .in                    : BS
QTOT .rm3/d               : QTOT
QWAT .sm3/d               : QWAT
GeneralTime1 .ms          : General Time 1
~Parameter
#==================================================================
~Ascii
# ...
 1882.1399398
 0.0000000000 0.0000000000 0.0000000000 0.5221999884 0.3269000053 4.5272002220
 3.0722999573 4.0889000893 5.0873999596  -999.250000 91.000099182 8.0872001648
  -999.250000 2.1289000511 0.2646999955 0.4447999895 54.719001770 1882.1400146
  -999.250000 8.2812995911  -999.250000  -999.250000  -999.250000  -999.250000
 1882.2923398
 0.0000000000 0.0000000000 0.0000000000 0.5128999949 0.3197999895 4.3477997780
 3.1387000084 4.0490999222 5.1311001778  -999.250000 91.187896729 8.6826000214
  -999.250000 2.1308999062 0.2644000053 0.4399000108 54.780998230 1882.2923584
  -999.250000 8.2890996933  -999.250000  -999.250000  -999.250000  -999.250000
 1882.4447398
 0.0000000000 0.0000000000 0.0000000000 0.5231999755 0.3192999959 4.1875000000
 3.2616999149 4.0023999214 5.0602998734  -999.250000 92.000000000 6.6389999390
  -999.250000 2.1366999149 0.2603999972 0.4408999979 52.625000000 1882.4448242
  -999.250000 8.2812995911  -999.250000  -999.250000  -999.250000  -999.250000
 1882.5971398
 0.0000000000 0.0000000000 0.0000000000 0.5220999718 0.3248000145 3.9746000767
 3.1034998894 3.8415999413 4.8498997688  -999.250000 92.563003540 5.8720998764
  -999.250000 2.1426000595 0.2569999993 0.4370000064 53.125000000 1882.5971680
  -999.250000 8.3046998978  -999.250000  -999.250000  -999.250000  -999.250000
 1882.7495398
 0.0000000000 0.0000000000 0.0000000000 0.5788000226 0.3305000067 3.9063000679
 2.9354999065 3.5799000263 4.5071997643  -999.250000 92.749900818 2.1545999050
  -999.250000 2.1503999233 0.2497999966 0.4575000107 50.907798767 1882.7496338
  -999.250000 8.3125000000  -999.250000  -999.250000  -999.250000  -999.250000
 1882.9019397
 0.0000000000 0.0000000000 0.0000000000 0.5404000282 0.3420000076 3.8849000931
 2.8849000931 3.3951001167 4.2586998940  -999.250000 92.562797546 4.1466999054
  -999.250000 2.1445000172 0.2563000023 0.4453000128 53.999401093 1882.9019775
  -999.250000 8.3125000000  -999.250000  -999.250000  -999.250000  -999.250000
 1883.0543397
 0.0000000000 0.0000000000 0.0000000000 0.5784999728 0.3517000079 3.9647998810
 3.0020000935 3.8431000710 4.8750000000  -999.250000 92.375000000 2.0857999325
  -999.250000 2.1503999233 0.2509000003 0.4584999979 53.405998230 1883.0544434
  -999.250000 8.3125000000  -999.250000  -999.250000  -999.250000  -999.250000
 1883.2067397
 0.0000000000 0.0000000000 0.0000000000 0.5587999821 0.3301999867 4.0858998299
 3.0762000084 4.2280001640 5.4552998543  -999.250000 92.563003540 2.7771000862
  -999.250000 2.1503999233 0.2517000139 0.4496999979 51.625000000 1883.2067871
  -999.250000 8.3203001022  -999.250000  -999.250000  -999.250000  -999.250000
 1883.3591397
 0.0000000000 0.0000000000 0.0000000000 0.5418999791 0.3136999905 4.2656998634
 3.8884000778 4.7873997688 6.3954000473  -999.250000 92.187896729 2.8982999325
  -999.250000 2.1522998810 0.2515999973 0.4458000064 46.998401642 1883.3592529
  -999.250000 8.3281002045  -999.250000  -999.250000  -999.250000  -999.250000
 1883.5115397
 0.0000000000 0.0000000000 0.0000000000 0.4727999866 0.2964000106 4.3828001022
 7.7020001411 5.4931001663 7.6181001663  -999.250000 92.000198364 2.6261999607
  -999.250000 2.1563000679 0.2513000071 0.4433000088 43.434700012 1883.5115967
  -999.250000 8.3907003403  -999.250000  -999.250000  -999.250000  -999.250000
 1883.6639397
 1.0000000000 0.0000000000 0.0000000000 0.3943000138 0.2338999957 4.3828001022
 6.3871998787 5.3330998421 7.2529997826  -999.250000 92.187896729 6.4489998817
  -999.250000 2.1503999233 0.2522999942 0.4237999916 39.407699585 1883.6639404
  -999.250000 8.4687995911  -999.250000  -999.250000  -999.250000  -999.250000
 1883.8163397
 1.0000000000 0.0000000000 0.0000000000 0.3952000141 0.2389000058 4.2305002213
 3.3397998810 4.2761001587 5.5336999893  -999.250000 91.750000000 6.1389999390
  -999.250000 2.1522998810 0.2529999912 0.4228999913 39.562999725 1883.8164063
  -999.250000 8.4218997955  -999.250000  -999.250000  -999.250000  -999.250000
 1883.9687397
 0.0000000000 0.0000000000 0.0000000000 0.4794000089 0.3082999885 4.0781002045
 2.8789000511 3.4883000851 4.4189000130  -999.250000 92.188003540 7.9977002144
  -999.250000 2.1347999573 0.2639000118 0.4375000000 43.780998230 1883.9687500
  -999.250000 8.3828001022  -999.250000  -999.250000  -999.250000  -999.250000
 1884.1211397
 0.0000000000 0.0000000000 0.0000000000 0.5001000166 0.3379000127 4.0820999146
 2.8926000595 3.1870000362 4.0612998009  -999.250000 91.749298096 11.326800346
  -999.250000 2.1250000000 0.2696999907 0.4390000105 50.222099304 1884.1212158
  -999.250000 8.3593997955  -999.250000  -999.250000  -999.250000  -999.250000
 1884.2735397
 0.0000000000 0.0000000000 0.0000000000 0.5328000188 0.3463999927 4.1680002213
 2.8750000000 3.1728999615 4.0759000778  -999.250000 90.750503540 8.5965995789
  -999.250000 2.1191000938 0.2703000009 0.4555999935 54.716598511 1884.2735596
  -999.250000 8.3593997955  -999.250000  -999.250000  -999.250000  -999.250000
 1884.4259397
 0.0000000000 0.0000000000 0.0000000000 0.4661000073 0.3479000032 4.1757998466
 2.7402000427 3.4477999210 4.4293999672  -999.250000 90.750000000 21.891300201
  -999.250000 2.1152000427 0.2770000100 0.4296999872 57.655998230 1884.4260254
  -999.250000 8.3437995911  -999.250000  -999.250000  -999.250000  -999.250000
 1884.5783397
 0.0000000000 0.0000000000 0.0000000000 0.5403000116 0.3292999864 4.0664000511
 2.9804999828 4.0641999245 5.4355001450  -999.250000 90.563003540 7.9879999161
  -999.250000 2.1171998978 0.2714999914 0.4603999853 56.875000000 1884.5783691
  -999.250000 8.3359003067  -999.250000  -999.250000  -999.250000  -999.250000
 1884.7307397
 0.0000000000 0.0000000000 0.0000000000 0.5449000001 0.2940999866 3.9256999493
 5.6192998886 4.3561000824 5.9239001274  -999.250000 90.563301086 8.5223999023
  -999.250000 2.1133000851 0.2721999884 0.4634000063 50.998600006 1884.7308350
  -999.250000 8.4141998291  -999.250000  -999.250000  -999.250000  -999.250000
 1884.8831397
 0.0000000000 0.0000000000 0.0000000000 0.5619999766 0.2402999997 3.7969000340
 9.2287998199 4.4699001312 6.1466999054  -999.250000 91.187400818 8.3966999054
  -999.250000 2.1152000427 0.2619000077 0.4614000022 48.562999725 1884.8831787
  -999.250000 8.5155000687  -999.250000  -999.250000  -999.250000  -999.250000
 1885.0355397
 0.0000000000 0.0000000000 0.0000000000 0.5238999724 0.2424000055 3.7852001190
 3.2344000340 4.3766999245 5.8003001213  -999.250000 90.563003540 15.331899643
  -999.250000 2.1171998978 0.2579999864 0.4390000105 48.625000000 1885.0356445
  -999.250000 8.3593997955  -999.250000  -999.250000  -999.250000  -999.250000
 1885.1879397
 0.0000000000 0.0000000000 0.0000000000 0.4650999904 0.2946000099 3.8808999062
 3.2188000679 3.8657000065 5.0293002129  -999.250000 91.000000000 20.647600174
  -999.250000 2.1210999489 0.2721000016 0.4242999852 53.812999725 1885.1879883
  -999.250000 8.3203001022  -999.250000  -999.250000  -999.250000  -999.250000
 1885.3403397
 0.0000000000 0.0000000000 0.0000000000 0.4587999880 0.3165000081 4.0859999657
 3.3185000420 3.9811000824 5.3401999474  -999.250000 90.999603271 23.288600922
  -999.250000 2.1191000938 0.2736999989 0.4228000045 55.999000549 1885.3404541
  -999.250000 8.3359003067  -999.250000  -999.250000  -999.250000  -999.250000
 1885.4927397
 0.0000000000 0.0000000000 0.0000000000 0.4375000000 0.3064999878 4.3790001869
 3.4612998962 4.0543999672 5.5030999184  -999.250000 90.187599182 30.885299683
  -999.250000 2.1191000938 0.2748999894 0.4135999978 53.686199188 1885.4927979
  -999.250000 8.3593997955  -999.250000  -999.250000  -999.250000  -999.250000
 1885.6451397
 0.0000000000 0.0000000000 0.0000000000 0.4571000040 0.3012999892 4.5076999664
 4.0075998306 4.0036997795 5.3909001350  -999.250000 89.750198364 23.273899078
  -999.250000 2.1210999489 0.2721000016 0.4203999937 51.500900269 1885.6451416
  -999.250000 8.4140996933  -999.250000  -999.250000  -999.250000  -999.250000
 1885.7975397
 0.0000000000 0.0000000000 0.0000000000 0.4986000061 0.3052999973 4.2108998299
 3.3008000851 3.7820000648 5.0075998306  -999.250000 89.375000000 12.545299530
  -999.250000 2.1270000935 0.2644999921 0.4330999851 47.625000000 1885.7976074
  -999.250000 8.5156002045  -999.250000  -999.250000  -999.250000  -999.250000
