# LAS format log file from PETREL
# Project units are specified as depth units
#==================================================================
~Version information
VERS.   2.0:
WRAP.   YES:
#==================================================================
~Well
STRT .m      800.09997440 :
STOP .m      2449.8299216 :
STEP .m     0.15240000 :
NULL .        -999.250000 :
COMP.           : COMPANY
WELL.  34/10-15   : WELL
FLD.            : FIELD
LOC.            : LOCATION
SRVC.           : SERVICE COMPANY
DATE.  Wednesday, March 31 2010 12:33:14   : DATE
PROV.           : PROVINCE
UWI.      : UNIQUE WELL ID
API.            : API NUMBER
#==================================================================
~Curve
DEPT .m                   : DEPTH
NETS .                    : NETS
COAL .                    : COAL
CARB .                    : CARB
VSH .                     : VSH
SW .                      : SW
ILD .ohm.m                : ILD
MSFL .ohm.m               : MSFL
LLS .ohm.m                : LLS
LLD .ohm.m                : LLD
ILM .ohm.m                : ILM
DT .us/ft                 : DT
KLOG .mD                  : KLOG
DRHO .g/cm3               : DRHO
RHOB .g/cm3               : RHOB
PHIF .m3/m3               : PHIF
NPHI .m3/m3               : NPHI
GR .gAPI                  : GR
DEPT .m                   : DEPT
TIME .ms                  : TIME
CALI .in                  : CALI
BS .in                    : BS
QTOT .rm3/d               : QTOT
QWAT .sm3/d               : QWAT
GeneralTime1 .ms          : General Time 1
~Parameter
#==================================================================
~Ascii
# ...
 1878.3299399
 1.0000000000 0.0000000000 0.4061999917 0.2513999939 1.0000000000 0.6327999830
 1.3349000216 0.8228999972 0.7493000031  -999.250000 108.50029755 30.058599472
  -999.250000 2.2969000340 0.2052000016 0.3228000104 44.001701355 1878.3299561
  -999.250000 8.2343997955  -999.250000  -999.250000  -999.250000  -999.250000
 1878.4823399
 1.0000000000 0.0000000000 0.3903999925 0.2396000028 1.0000000000 0.6553000212
 1.0068000555 0.9419999719 0.8623999953  -999.250000 110.75000000 65.984901428
  -999.250000 2.2753999233 0.2192000002 0.3325000107 43.155998230 1878.4824219
  -999.250000 8.2578001022  -999.250000  -999.250000  -999.250000  -999.250000
 1878.6347399
 1.0000000000 0.0000000000 0.3926999867 0.2046999931 1.0000000000 0.6699000001
 1.1835999489 0.9441999793 0.8432999849  -999.250000 115.25000000 265.07958984
  -999.250000 2.2323999405 0.2479999959 0.3648000062 40.655998230 1878.6347656
  -999.250000 8.2500000000  -999.250000  -999.250000  -999.250000  -999.250000
 1878.7871399
 1.0000000000 0.0000000000 0.3711999953 0.1972000003 1.0000000000 0.6660000086
 4.7248001099 0.9514999986 0.8413000107  -999.250000 113.24790192 280.12838745
  -999.250000 2.2304999828 0.2496999949 0.3578999937 40.124900818 1878.7872314
  -999.250000 8.2421998978  -999.250000  -999.250000  -999.250000  -999.250000
 1878.9395399
 1.0000000000 0.0000000000 0.3950999975 0.1947000027 1.0000000000 0.6493999958
 1.6352000237 0.9261000156 0.8133000135  -999.250000 109.74400330 49.894901276
  -999.250000 2.2832000256 0.2175000012 0.3285999894 39.939498901 1878.9395752
  -999.250000 8.2265996933  -999.250000  -999.250000  -999.250000  -999.250000
 1879.0919399
 1.0000000000 0.0000000000 0.4641000032 0.2169000059 1.0000000000 0.6273999810
 1.1504000425 0.8464999795 0.7185000181  -999.250000 103.50000000 16.282499313
  -999.250000 2.3125000000 0.1979999989 0.3319999874 41.530998230 1879.0920410
  -999.250000 8.2265996933  -999.250000  -999.250000  -999.250000  -999.250000
 1879.2443399
 1.0000000000 0.0000000000 0.4774000049 0.2102999985 1.0000000000 0.6122999787
 1.1660000086 0.8476999998 0.7190999985  -999.250000 107.25000000 92.591499329
  -999.250000 2.2655999660 0.2272000015 0.3720999956 41.062999725 1879.2443848
  -999.250000 8.2343997955  -999.250000  -999.250000  -999.250000  -999.250000
 1879.3967399
 1.0000000000 0.0000000000 0.4356999993 0.2469999939 1.0000000000 0.6083999872
 1.9803999662 0.8593000174 0.7606999874  -999.250000 109.75060272 622.76220703
  -999.250000 2.2012000084 0.2642000020 0.4052999914 43.688499451 1879.3968506
  -999.250000 8.2343997955  -999.250000  -999.250000  -999.250000  -999.250000
 1879.5491399
 1.0000000000 0.0000000000 0.3339999914 0.2623000145 0.9726999998 0.6025000215
 1.8391000032 0.9000999928 0.7667000294  -999.250000 110.99620056 1393.7204590
  -999.250000 2.1659998894 0.2847000062 0.3905999959 44.782199860 1879.5491943
  -999.250000 8.2656002045  -999.250000  -999.250000  -999.250000  -999.250000
 1879.7015398
 1.0000000000 0.0000000000 0.3140000105 0.2495999932 0.9943000078 0.5946999788
 1.0549999475 0.7870000005 0.7185000181  -999.250000 106.50180054 1628.8415527
  -999.250000 2.1582000256 0.2903999984 0.3882000148 46.187400818 1879.7016602
  -999.250000 8.2734003067  -999.250000  -999.250000  -999.250000  -999.250000
 1879.8539398
 1.0000000000 0.0000000000 0.3246999979 0.2352000028 1.0000000000 0.5898000002
 1.0225000381 0.6906999946 0.6177999973  -999.250000 101.50000000 1566.2517090
  -999.250000 2.1602001190 0.2901999950 0.3910999894 42.844001770 1879.8540039
  -999.250000 8.2734003067  -999.250000  -999.250000  -999.250000  -999.250000
 1880.0063398
 1.0000000000 0.0000000000 0.2858999968 0.2293999940 1.0000000000 0.5845000148
 1.0155999660 0.6601999998 0.6011999846  -999.250000 119.75000000 2027.3896484
  -999.250000 2.1465001106 0.2989999950 0.3851999938 42.812999725 1880.0063477
  -999.250000 8.2734003067  -999.250000  -999.250000  -999.250000  -999.250000
 1880.1587398
 1.0000000000 0.0000000000 0.2610999942 0.2127999961 1.0000000000 0.5762000084
 1.0341999531 0.7093999982 0.6087999940  -999.250000 123.50039673 2722.1765137
  -999.250000 2.1289000511 0.3109000027 0.3876999915 42.751800537 1880.1588135
  -999.250000 8.2656002045  -999.250000  -999.250000  -999.250000  -999.250000
 1880.3111398
 1.0000000000 0.0000000000 0.2459000051 0.2029000074 1.0000000000 0.5684000254
 1.0381000042 0.7066000104 0.6136000156  -999.250000 123.99970245 3325.5659180
  -999.250000 2.1152000427 0.3199999928 0.3910999894 45.248699188 1880.3111572
  -999.250000 8.2812995911  -999.250000  -999.250000  -999.250000  -999.250000
 1880.4635398
 1.0000000000 0.0000000000 0.2887000144 0.2383999974 0.9855999947 0.5576000214
 1.0801000595 0.7397000194 0.6366000175  -999.250000 124.50000000 3235.0434570
  -999.250000 2.1171998978 0.3163000047 0.4077000022 43.094001770 1880.4636230
  -999.250000 8.2812995911  -999.250000  -999.250000  -999.250000  -999.250000
 1880.6159398
 1.0000000000 0.0000000000 0.3287000060 0.2431000024 0.9915999770 0.5473999977
 1.0176000595 0.6937000155 0.6363999844  -999.250000 125.00000000 3060.2187500
  -999.250000 2.1210999489 0.3136000037 0.4219000041 43.405998230 1880.6159668
  -999.250000 8.2812995911  -999.250000  -999.250000  -999.250000  -999.250000
 1880.7683398
 1.0000000000 0.0000000000 0.3655000031 0.2361000031 1.0000000000 0.5332000256
 0.9868000150 0.7160999775 0.6377999783  -999.250000 122.99620056 2400.9365234
  -999.250000 2.1366999149 0.3045000136 0.4257999957 42.907100677 1880.7684326
  -999.250000 8.2812995911  -999.250000  -999.250000  -999.250000  -999.250000
 1880.9207398
 1.0000000000 0.0000000000 0.3691000044 0.2617999911 1.0000000000 0.5184999704
 0.9936000109 0.6998999715 0.6230999827  -999.250000 116.50379944 2321.6796875
  -999.250000 2.1387000084 0.3014999926 0.4257999957 44.748699188 1880.9207764
  -999.250000 8.2968997955  -999.250000  -999.250000  -999.250000  -999.250000
 1881.0731398
 1.0000000000 0.0000000000 0.3321999907 0.2431000024 1.0000000000 0.5005000234
 0.9746000171 0.7127000093 0.6226000190  -999.250000 120.50000000 2027.3896484
  -999.250000 2.1465001106 0.2980000079 0.4043000042 43.405998230 1881.0732422
  -999.250000 8.2890996933  -999.250000  -999.250000  -999.250000  -999.250000
 1881.2255398
 1.0000000000 0.0000000000 0.2901000082 0.2247000039 1.0000000000 0.4833999872
 1.1620999575 0.6728000045 0.6148999929  -999.250000 120.00000000 2321.9609375
  -999.250000 2.1387000084 0.3041000068 0.3925999999 42.094001770 1881.2255859
  -999.250000 8.3203001022  -999.250000  -999.250000  -999.250000  -999.250000
 1881.3779398
 1.0000000000 0.0000000000 0.2639000118 0.2162999958 1.0000000000 0.4683000147
 1.0088000298 0.6859999895 0.6143000126  -999.250000 122.00920105 2976.4851074
  -999.250000 2.1229999065 0.3143000007 0.3930999935 42.125099182 1881.3780518
  -999.250000 8.3750000000  -999.250000  -999.250000  -999.250000  -999.250000
 1881.5303398
 1.0000000000 0.0000000000 0.3070000112 0.2274000049 1.0000000000 0.4564999938
 1.0331000090 0.6722999811 0.5954999924  -999.250000 141.99899292 3326.3303223
  -999.250000 2.1152000427 0.3183000088 0.4169999957 42.282398224 1881.5303955
  -999.250000 8.3359003067  -999.250000  -999.250000  -999.250000  -999.250000
 1881.6827398
 1.0000000000 0.0000000000 0.2958999872 0.2478999943 0.9961000085 0.4501999915
 0.9717000127 0.6503999829 0.5943999887  -999.250000 140.75050354 3868.7158203
  -999.250000 2.1034998894 0.3240999877 0.4208999872 43.968299866 1881.6827393
  -999.250000 8.3203001022  -999.250000  -999.250000  -999.250000  -999.250000
 1881.8351398
 1.0000000000 0.0000000000 0.3048999906 0.2239000052 1.0000000000 0.4541000128
 1.0097999573 0.6801000237 0.5928999782  -999.250000 139.00000000 3593.0922852
  -999.250000 2.1094000340 0.3221000135 0.4203999937 42.030998230 1881.8352051
  -999.250000 8.3125000000  -999.250000  -999.250000  -999.250000  -999.250000
 1881.9875398
 1.0000000000 0.0000000000 0.2328999937 0.1939000040 1.0000000000 0.4691999853
 0.9082000256 0.6642000079 0.5885999799  -999.250000 129.00000000 3775.1088867
  -999.250000 2.1054999828 0.3265999854 0.3925999999 42.405998230 1881.9875488
  -999.250000 8.2812995911  -999.250000  -999.250000  -999.250000  -999.250000
