# LAS format log file from PETREL
# Project units are specified as depth units
#==================================================================
~Version information
VERS.   2.0:
WRAP.   YES:
#==================================================================
~Well
STRT .m      800.09997440 :
STOP .m      2449.8299216 :
STEP .m     0.15240000 :
NULL .        -999.250000 :
COMP.           : COMPANY
WELL.  34/10-15   : WELL
FLD.            : FIELD
LOC.            : LOCATION
SRVC.           : SERVICE COMPANY
DATE.  Wednesday, March 31 2010 12:33:14   : DATE
PROV.           : PROVINCE
UWI.      : UNIQUE WELL ID
API.            : API NUMBER
#==================================================================
~Curve
DEPT .m                   : DEPTH
NETS .                    : NETS
COAL .                    : COAL
CARB .                    : CARB
VSH .                     : VSH
SW .                      : SW
ILD .ohm.m                : ILD
MSFL .ohm.m               : MSFL
LLS .ohm.m                : LLS
LLD .ohm.m                : LLD
ILM .ohm.m                : ILM
DT .us/ft                 : DT
KLOG .mD                  : KLOG
DRHO .g/cm3               : DRHO
RHOB .g/cm3               : RHOB
PHIF .m3/m3               : PHIF
NPHI .m3/m3               : NPHI
GR .gAPI                  : GR
DEPT .m                   : DEPT
TIME .ms                  : TIME
CALI .in                  : CALI
BS .in                    : BS
QTOT .rm3/d               : QTOT
QWAT .sm3/d               : QWAT
GeneralTime1 .ms          : General Time 1
~Parameter
#==================================================================
~Ascii
# ...
 1840.2299411
  -999.250000  -999.250000 0.0000000000 1.0000000000  -999.250000 1.1885000467
 1.6426000595 1.4007999897 1.1742999554  -999.250000 130.75000000  -999.250000
 0.0029000000 2.2421998978 0.0000000000 0.4691999853 78.063003540 1840.2299805
  -999.250000 8.6718997955 8.5000000000  -999.250000  -999.250000  -999.250000
 1840.3823411
  -999.250000  -999.250000 0.0000000000 1.0000000000  -999.250000 1.1894999743
 1.5966000557 1.3704999685 1.1444000006  -999.250000 129.75059509  -999.250000
  -999.250000 2.2383000851 0.0000000000 0.4736000001 79.313499451 1840.3824463
  -999.250000 9.0155000687 8.5000000000  -999.250000  -999.250000  -999.250000
 1840.5347411
  -999.250000  -999.250000 0.0000000000 1.0000000000  -999.250000 1.1835999489
 1.3796999454 1.3495999575 1.1237000227  -999.250000 130.99980164  -999.250000
  -999.250000 2.2402000427 0.0000000000 0.4896999896 80.314399719 1840.5347900
  -999.250000 8.9060001373 8.5000000000  -999.250000  -999.250000  -999.250000
 1840.6871411
  -999.250000  -999.250000 0.0000000000 1.0000000000  -999.250000 1.1864999533
 1.1220999956 1.2967000008 1.1046999693  -999.250000 130.75000000  -999.250000
  -999.250000 2.2479999065 0.0000000000 0.4794999957 82.000000000 1840.6872559
  -999.250000 8.5234003067 8.5000000000  -999.250000  -999.250000  -999.250000
 1840.8395411
  -999.250000  -999.250000 0.0000000000 1.0000000000  -999.250000 1.1885000467
 1.1123000383 1.3399000168 1.1054999828  -999.250000 129.25000000  -999.250000
 0.0005000000 2.2500000000 0.0000000000 0.4711999893 77.750000000 1840.8395996
  -999.250000 8.8281002045 8.5000000000  -999.250000  -999.250000  -999.250000
 1840.9919411
  -999.250000  -999.250000 0.0000000000 1.0000000000  -999.250000 1.1934000254
 1.3905999660 1.3539999723 1.1619000435  -999.250000 127.25000000  -999.250000
  -999.250000 2.2578001022 0.0000000000 0.4501999915 78.563003540 1840.9919434
  -999.250000 8.9921998978 8.5000000000  -999.250000  -999.250000  -999.250000
 1841.1443411
  -999.250000  -999.250000 0.0000000000 1.0000000000  -999.250000 1.2001999617
 1.3946000338 1.3824000359 1.1763000488  -999.250000 126.99929810  -999.250000
  -999.250000 2.2637000084 0.0000000000 0.4756000042 79.126602173 1841.1444092
  -999.250000 9.0156002045 8.5000000000  -999.250000  -999.250000  -999.250000
 1841.2967411
  -999.250000  -999.250000 0.0000000000 1.0000000000  -999.250000 1.2089999914
 1.4940999746 1.3853000402 1.1808999777  -999.250000 126.00050354  -999.250000
  -999.250000 2.2734000683 0.0000000000 0.4862999916 81.249000549 1841.2967529
  -999.250000 9.0234003067 8.5000000000  -999.250000  -999.250000  -999.250000
 1841.4491411
  -999.250000  -999.250000 0.0000000000 1.0000000000  -999.250000 1.2196999788
 1.5039000511 1.4119999409 1.1886999607  -999.250000 126.75000000  -999.250000
  -999.250000 2.2578001022 0.0000000000 0.4839000106 80.875000000 1841.4492188
  -999.250000 9.0390996933 8.5000000000  -999.250000  -999.250000  -999.250000
 1841.6015411
  -999.250000  -999.250000 0.0000000000 1.0000000000  -999.250000 1.2304999828
 1.6875000000 1.3990000486 1.1995999813  -999.250000 126.75000000  -999.250000
 0.0010000000 2.2539000511 0.0000000000 0.4736000001 81.750000000 1841.6015625
  -999.250000 9.0156002045 8.5000000000  -999.250000  -999.250000  -999.250000
 1841.7539411
  -999.250000  -999.250000 0.0000000000 1.0000000000  -999.250000 1.2393000126
 1.8007999659 1.4039000273 1.2016999722  -999.250000 124.49780273  -999.250000
 0.0068000001 2.2734000683 0.0000000000 0.4745999873 80.250198364 1841.7540283
  -999.250000 9.1169004440 8.5000000000  -999.250000  -999.250000  -999.250000
 1841.9063411
  -999.250000  -999.250000 0.0000000000 1.0000000000  -999.250000 1.2353999615
 1.7509000301 1.3842999935 1.1746000051  -999.250000 120.99829865  -999.250000
 0.0010000000 2.2792999744 0.0000000000 0.4648000002 80.564201355 1841.9063721
  -999.250000 8.6251001358 8.5000000000  -999.250000  -999.250000  -999.250000
 1842.0587411
  -999.250000  -999.250000 0.0000000000 1.0000000000  -999.250000 1.2178000212
 1.6239999533 1.3644000292 1.1657999754  -999.250000 119.25000000  -999.250000
  -999.250000 2.2832000256 0.0000000000 0.4618999958 81.813003540 1842.0588379
  -999.250000 8.7265996933 8.5000000000  -999.250000  -999.250000  -999.250000
 1842.2111410
  -999.250000  -999.250000 0.0000000000 1.0000000000  -999.250000 1.2030999660
 1.3271000385 1.3753000498 1.1756000519  -999.250000 120.75000000  -999.250000
  -999.250000 2.2616999149 0.0000000000 0.4564999938 81.625000000 1842.2111816
  -999.250000 9.1171998978 8.5000000000  -999.250000  -999.250000  -999.250000
 1842.3635410
  -999.250000  -999.250000 0.0000000000 1.0000000000  -999.250000 1.1923999786
 1.5742000341 1.4670000076 1.2296999693  -999.250000 122.75360107  -999.250000
  -999.250000 2.2558999062 0.0000000000 0.4756000042 79.687896729 1842.3636475
  -999.250000 9.0548000336 8.5000000000  -999.250000  -999.250000  -999.250000
 1842.5159410
  -999.250000  -999.250000 0.0000000000 1.0000000000  -999.250000 1.1806999445
 1.6054999828 1.4349000454 1.2131999731  -999.250000 130.00059509  -999.250000
  -999.250000 2.2441000938 0.0000000000 0.4774999917 79.500000000 1842.5159912
  -999.250000 9.3278999329 8.5000000000  -999.250000  -999.250000  -999.250000
 1842.6683410
  -999.250000  -999.250000 0.0000000000 1.0000000000  -999.250000 1.1698999405
 1.6112999916 1.4247000217 1.1913000345  -999.250000 130.75000000  -999.250000
  -999.250000 2.2421998978 0.0000000000 0.4765999913 79.500000000 1842.6684570
  -999.250000 9.0703001022 8.5000000000  -999.250000  -999.250000  -999.250000
 1842.8207410
  -999.250000  -999.250000 0.0000000000 1.0000000000  -999.250000 1.1523000002
 1.4873000383 1.3838000298 1.1598000526  -999.250000 130.00000000  -999.250000
  -999.250000 2.2578001022 0.0000000000 0.4740999937 78.313003540 1842.8208008
  -999.250000 9.1171998978 8.5000000000  -999.250000  -999.250000  -999.250000
 1842.9731410
  -999.250000  -999.250000 0.0000000000 1.0000000000  -999.250000 1.1454999447
 1.4608999491 1.3282999992 1.1133999825  -999.250000 128.75000000  -999.250000
  -999.250000 2.2734000683 0.0000000000 0.4731000066 77.375000000 1842.9731445
  -999.250000 9.2031002045 8.5000000000  -999.250000  -999.250000  -999.250000
 1843.1255410
  -999.250000  -999.250000 0.0000000000 1.0000000000  -999.250000 1.1405999660
 1.4648000002 1.3143999577 1.0960999727  -999.250000 129.24909973  -999.250000
  -999.250000 2.2772998810 0.0000000000 0.4794999957 77.689697266 1843.1256104
  -999.250000 9.5545997620 8.5000000000  -999.250000  -999.250000  -999.250000
 1843.2779410
  -999.250000  -999.250000 0.0000000000 1.0000000000  -999.250000 1.1454999447
 1.5263999701 1.2862000465 1.1067999601  -999.250000 128.00059509  -999.250000
  -999.250000 2.2616999149 0.0000000000 0.4950999916 80.061798096 1843.2779541
  -999.250000 9.3594999313 8.5000000000  -999.250000  -999.250000  -999.250000
 1843.4303410
  -999.250000  -999.250000 0.0000000000 1.0000000000  -999.250000 1.1475000381
 1.4521000385 1.2660000324 1.1049000025  -999.250000 128.25000000  -999.250000
  -999.250000 2.2460999489 0.0000000000 0.4638999999 80.000000000 1843.4304199
  -999.250000 9.6093997955 8.5000000000  -999.250000  -999.250000  -999.250000
 1843.5827410
  -999.250000  -999.250000 0.0000000000 1.0000000000  -999.250000 1.1483999491
 1.5868999958 1.3228000402 1.0949000120  -999.250000 126.75000000  -999.250000
  -999.250000 2.2460999489 0.0000000000 0.4512000084 79.063003540 1843.5827637
  -999.250000 9.3750000000 8.5000000000  -999.250000  -999.250000  -999.250000
 1843.7351410
  -999.250000  -999.250000 0.0000000000 1.0000000000  -999.250000 1.1405999660
 1.4989999533 1.3043999672 1.1254999638  -999.250000 124.74919891  -999.250000
  -999.250000 2.2539000511 0.0000000000 0.4526999891 76.312599182 1843.7352295
  -999.250000 9.4140996933 8.5000000000  -999.250000  -999.250000  -999.250000
 1843.8875410
  -999.250000  -999.250000 0.0000000000 1.0000000000  -999.250000 1.1327999830
 1.5479999781 1.3342000246 1.1384999752  -999.250000 123.50170135  -999.250000
  -999.250000 2.2578001022 0.0000000000 0.4779999852 75.626098633 1843.8875732
  -999.250000 9.3824996948 8.5000000000  -999.250000  -999.250000  -999.250000
