# LAS format log file from PETREL
# Project units are specified as depth units
#==================================================================
~Version information
VERS.   2.0:
WRAP.   YES:
#==================================================================
~Well
STRT .m      800.09997440 :
STOP .m      2299.7159264 :
STEP .m     0.15240000 :
NULL .        -999.250000 :
COMP.           : COMPANY
WELL.  34/10-19   : WELL
FLD.            : FIELD
LOC.            : LOCATION
SRVC.           : SERVICE COMPANY
DATE.  Wednesday, March 31 2010 12:33:14   : DATE
PROV.           : PROVINCE
UWI.      : UNIQUE WELL ID
API.            : API NUMBER
#==================================================================
~Curve
DEPT .m                   : DEPTH
NETS .                    : NETS
COAL .                    : COAL
CARB .                    : CARB
VSH .                     : VSH
SW .                      : SW
ILD .ohm.m                : ILD
ILM .ohm.m                : ILM
DT .us/ft                 : DT
KLOG .mD                  : KLOG
DRHO .g/cm3               : DRHO
RHOB .g/cm3               : RHOB
PHIF .m3/m3               : PHIF
NPHI .m3/m3               : NPHI
GR .gAPI                  : GR
DEPT .m                   : DEPT
TIME .ms                  : TIME
CALI .in                  : CALI
BS .in                    : BS
QTOT .rm3/d               : QTOT
QWAT .sm3/d               : QWAT
GeneralTime1 .ms          : General Time 1
~Parameter
#==================================================================
~Ascii
# ...
 2097.3287329
 1.0000000000 0.0000000000 0.0000000000 0.0795999989 0.9405000210 0.5702999830
  -999.250000 92.754898071 17452.021484  -999.250000 2.1152000427 0.3265999854
 0.2904999852 39.680000305 2097.3288574  -999.250000 8.2501001358  -999.250000
  -999.250000  -999.250000  -999.250000
 2097.4811329
 1.0000000000 0.0000000000 0.0000000000 0.0951000005 0.9381999969 0.5849999785
  -999.250000 96.751998901 12871.014648  -999.250000 2.1210999489 0.3219999969
 0.2935000062 33.151901245 2097.4812012  -999.250000 8.3437004089  -999.250000
  -999.250000  -999.250000  -999.250000
 2097.6335329
 1.0000000000 0.0000000000 0.0000000000 0.1194999963 0.9429000020 0.6176999807
  -999.250000 97.991401672 5329.9208984  -999.250000 2.1405999660 0.3086000085
 0.2919999957 30.571500778 2097.6335449  -999.250000 8.2578001022  -999.250000
  -999.250000  -999.250000  -999.250000
 2097.7859329
 1.0000000000 0.0000000000 0.0000000000 0.1420000046 0.9521999955 0.6513000131
  -999.250000 93.628799438 2062.6271973  -999.250000 2.1621000767 0.2942000031
 0.2885999978 34.902198792 2097.7858887  -999.250000 8.2812995911  -999.250000
  -999.250000  -999.250000  -999.250000
 2097.9383329
 1.0000000000 0.0000000000 0.0000000000 0.1773999929 1.0000000000 0.6758000255
  -999.250000 87.378097534 348.31588745  -999.250000 2.2030999660 0.2671999931
 0.2788000107 37.498699188 2097.9384766  -999.250000 8.2890996933  -999.250000
  -999.250000  -999.250000  -999.250000
 2098.0907329
 1.0000000000 0.0000000000 0.2000000030 0.2055000067 1.0000000000 0.6898999810
  -999.250000 80.125000000 23.989500046  -999.250000 2.2676000595 0.2266000062
 0.2520000041 42.655998230 2098.0908203  -999.250000 8.2578001022  -999.250000
  -999.250000  -999.250000  -999.250000
 2098.2431329
 1.0000000000 0.0000000000 0.2000000030 0.2179999948 1.0000000000 0.6934000254
  -999.250000 74.125000000 6.1153001785  -999.250000 2.3008000851 0.2057999969
 0.2372999936 42.844001770 2098.2431641  -999.250000 8.2578001022  -999.250000
  -999.250000  -999.250000  -999.250000
 2098.3955329
 1.0000000000 0.0000000000 0.2000000030 0.1419000030 1.0000000000 0.7099999785
  -999.250000 68.002899170 23.732999802  -999.250000 2.2753999233 0.2264000028
 0.2206999958 39.747600555 2098.3955078  -999.250000 8.2578001022  -999.250000
  -999.250000  -999.250000  -999.250000
 2098.5479328
 1.0000000000 0.0000000000 0.2000000030 0.0993999988 1.0000000000 0.7378000021
  -999.250000 72.880996704 182.88679504  -999.250000 2.2284998894 0.2574000061
 0.2310000062 35.838500977 2098.5480957  -999.250000 8.2576999664  -999.250000
  -999.250000  -999.250000  -999.250000
 2098.7003328
 1.0000000000 0.0000000000 0.2000000030 0.1216999963 0.9699000120 0.7705000043
  -999.250000 79.003402710 241.61230469  -999.250000 2.2188000679 0.2615999877
 0.2460999936 30.219299316 2098.7004395  -999.250000 8.1875000000  -999.250000
  -999.250000  -999.250000  -999.250000
 2098.8527328
 1.0000000000 0.0000000000 0.1996999979 0.1754000038 1.0000000000 0.7958999872
  -999.250000 81.524597168 47.257301331  -999.250000 2.2539000511 0.2369000018
 0.2563000023 30.479099274 2098.8527832  -999.250000 8.2033004761  -999.250000
  -999.250000  -999.250000  -999.250000
 2099.0051328
 1.0000000000 0.0000000000 0.0000000000 0.2180999964 1.0000000000 0.8159999847
  -999.250000 95.898101807 13.176600456  -999.250000 2.2813000679 0.2175000012
 0.2489999980 36.436199188 2099.0051270  -999.250000 8.3123998642  -999.250000
  -999.250000  -999.250000  -999.250000
 2099.1575328
 1.0000000000 0.0000000000 0.0000000000 0.2188999951 1.0000000000 0.8490999937
  -999.250000 106.99160004 7.6894998550  -999.250000 2.2948999405 0.2092999965
 0.2412000000 50.958000183 2099.1577148  -999.250000 8.2812995911  -999.250000
  -999.250000  -999.250000  -999.250000
 2099.3099328
 1.0000000000 0.0000000000 0.0000000000 0.3406000137 1.0000000000 0.8988999724
  -999.250000 116.50000000 7.4974999428  -999.250000 2.2813000679 0.2089000046
 0.3003000021 68.813003540 2099.3100586  -999.250000 8.3359003067  -999.250000
  -999.250000  -999.250000  -999.250000
 2099.4623328
 0.0000000000 0.0000000000 0.0000000000 0.4957999885 0.9341999888 0.9970999956
  -999.250000 120.00000000 3.6665999889 0.0044000000 2.2813000679 0.1981000006
 0.3652000129 81.688003540 2099.4624023  -999.250000 8.2890996933  -999.250000
  -999.250000  -999.250000  -999.250000
 2099.6147328
 0.0000000000 0.0000000000 0.0000000000 0.6812000275 0.8744999766 1.1230000257
  -999.250000 121.12000275 0.7228999734 0.0034000000 2.3008000851 0.1733999997
 0.4311000109 89.938003540 2099.6147461  -999.250000 8.3046998978  -999.250000
  -999.250000  -999.250000  -999.250000
 2099.7671328
 0.0000000000 0.0000000000 0.0000000000 0.7911999822 0.8727999926 1.2608000040
  -999.250000 121.23739624 0.0864000022 0.0073000002 2.3417999744 0.1411000043
 0.4526000023 87.935302734 2099.7670898  -999.250000 8.3046998978  -999.250000
  -999.250000  -999.250000  -999.250000
 2099.9195328
 0.0000000000 0.0000000000 0.0000000000 0.8414999843 0.8611999750 1.4122999907
  -999.250000 103.87000275 0.0252000000 0.0103000002 2.3671998978 0.1224000007
 0.4584999979 84.180801392 2099.9196777  -999.250000 8.3048000336  -999.250000
  -999.250000  -999.250000  -999.250000
 2100.0719328
 0.0000000000 0.0000000000 0.0003000000 0.8511999846 0.8687999845 1.6303000450
  -999.250000 94.732299805 0.0070000002 0.0116999997 2.3984999657 0.1030000001
 0.4657999873 77.622802734 2100.0720215  -999.250000 8.3674001694  -999.250000
  -999.250000  -999.250000  -999.250000
 2100.2243328
 0.0000000000 0.0000000000 0.2000000030 0.8367000222 0.9330999851 1.8961000443
  -999.250000 82.613800049 0.0013000000 0.0029000000 2.4435999393 0.0769999996
 0.4595000148 76.115798950 2100.2243652  -999.250000 8.4765996933  -999.250000
  -999.250000  -999.250000  -999.250000
 2100.3767328
 0.0000000000 0.0000000000 0.2000000030 0.7657999992  -999.250000 2.2293000221
  -999.250000 76.485496521 0.0000000000  -999.250000 2.5432000160 0.0222999994
 0.4569000006 71.107696533 2100.3767090  -999.250000 8.4924001694  -999.250000
  -999.250000  -999.250000  -999.250000
 2100.5291328
 0.0000000000 0.0000000000 0.2000000030 0.6581000090  -999.250000 2.5936000347
  -999.250000 69.879203796 0.0000000000  -999.250000 2.6542000771  -999.250000
 0.3887000084 63.255001068 2100.5292969  -999.250000 8.5858001709  -999.250000
  -999.250000  -999.250000  -999.250000
 2100.6815328
 0.0000000000 0.0000000000 0.2000000030 0.5152000189  -999.250000 2.8789000511
  -999.250000 70.375000000 0.0000000000  -999.250000 2.7344000340  -999.250000
 0.3012999892 54.030998230 2100.6816406  -999.250000 8.3671998978  -999.250000
  -999.250000  -999.250000  -999.250000
 2100.8339328
 0.0000000000 0.0000000000 0.2000000030 0.3880000114  -999.250000 2.9296998978
  -999.250000 73.000000000 0.0000000000  -999.250000 2.7090001106  -999.250000
 0.2460999936 45.187999725 2100.8339844  -999.250000 8.3359003067  -999.250000
  -999.250000  -999.250000  -999.250000
 2100.9863328
 0.0000000000 0.0000000000 0.1999000013 0.3260999918 1.0000000000 2.7186000347
  -999.250000 79.003303528 0.0000000000  -999.250000 2.6229999065 0.0052999998
 0.2216999978 40.717399597 2100.9863281  -999.250000 8.3828001022  -999.250000
  -999.250000  -999.250000  -999.250000
 2101.1387328
 0.0000000000 0.0000000000 0.0000000000 0.2802999914 1.0000000000 2.3863999844
  -999.250000 86.003700256 0.0004000000  -999.250000 2.5369999409 0.0599999987
 0.2026000023 37.405200958 2101.1389160  -999.250000 8.4296998978  -999.250000
  -999.250000  -999.250000  -999.250000
 2101.2911328
 0.0000000000 0.0000000000 0.0000000000 0.2648000121 1.0000000000 2.0230998993
  -999.250000 90.388496399 0.0098000001  -999.250000 2.4588999748 0.1079000011
 0.1948000044 36.404598236 2101.2912598  -999.250000 8.3905000687  -999.250000
  -999.250000  -999.250000  -999.250000
 2101.4435328
 0.0000000000 0.0000000000 0.0000000000 0.2446999997 0.9671999812 1.7575999498
  -999.250000 101.50489807 0.1844000071  -999.250000 2.3866000175 0.1526000053
 0.2119999975 35.222698212 2101.4436035  -999.250000 8.2812995911  -999.250000
  -999.250000  -999.250000  -999.250000
