# LAS format log file from PETREL
# Project units are specified as depth units
#==================================================================
~Version information
VERS.   2.0:
WRAP.   YES:
#==================================================================
~Well
STRT .m      800.09997440 :
STOP .m      2299.7159264 :
STEP .m     0.15240000 :
NULL .        -999.250000 :
COMP.           : COMPANY
WELL.  34/10-19   : WELL
FLD.            : FIELD
LOC.            : LOCATION
SRVC.           : SERVICE COMPANY
DATE.  Wednesday, March 31 2010 12:33:14   : DATE
PROV.           : PROVINCE
UWI.      : UNIQUE WELL ID
API.            : API NUMBER
#==================================================================
~Curve
DEPT .m                   : DEPTH
NETS .                    : NETS
COAL .                    : COAL
CARB .                    : CARB
VSH .                     : VSH
SW .                      : SW
ILD .ohm.m                : ILD
ILM .ohm.m                : ILM
DT .us/ft                 : DT
KLOG .mD                  : KLOG
DRHO .g/cm3               : DRHO
RHOB .g/cm3               : RHOB
PHIF .m3/m3               : PHIF
NPHI .m3/m3               : NPHI
GR .gAPI                  : GR
DEPT .m                   : DEPT
TIME .ms                  : TIME
CALI .in                  : CALI
BS .in                    : BS
QTOT .rm3/d               : QTOT
QWAT .sm3/d               : QWAT
GeneralTime1 .ms          : General Time 1
~Parameter
#==================================================================
~Ascii
# ...
 2041.8551347
 1.0000000000 0.0000000000 0.0000000000 0.1779000014 1.0000000000 0.4629000127
  -999.250000 111.62999725 693.98999023  -999.250000 2.1854999065 0.2777000070
 0.2894999981 34.655998230 2041.8552246  -999.250000 8.6250000000  -999.250000
  -999.250000  -999.250000  -999.250000
 2042.0075347
 1.0000000000 0.0000000000 0.0000000000 0.2043000013 1.0000000000 0.4643999934
  -999.250000 111.12999725 662.09301758  -999.250000 2.1835999489 0.2770000100
 0.3018000126 33.469001770 2042.0075684  -999.250000 8.5859003067  -999.250000
  -999.250000  -999.250000  -999.250000
 2042.1599347
 1.0000000000 0.0000000000 0.0000000000 0.2180999964 1.0000000000 0.4652999938
  -999.250000 110.75009918 361.85260010  -999.250000 2.1972999573 0.2678000033
 0.2992999852 35.469001770 2042.1600342  -999.250000 8.4766998291  -999.250000
  -999.250000  -999.250000  -999.250000
 2042.3123346
 1.0000000000 0.0000000000 0.0000000000 0.2565999925 1.0000000000 0.4672999978
  -999.250000 111.00050354 70.139099121  -999.250000 2.2344000340 0.2428999990
 0.3052000105 35.439300537 2042.3123779  -999.250000 8.5780000687  -999.250000
  -999.250000  -999.250000  -999.250000
 2042.4647346
 1.0000000000 0.0000000000 0.0000000000 0.2748999894 1.0000000000 0.4706999958
  -999.250000 111.50000000 14.934900284  -999.250000 2.2715001106 0.2194000036
 0.2949000001 36.875000000 2042.4648438  -999.250000 8.5000000000  -999.250000
  -999.250000  -999.250000  -999.250000
 2042.6171346
 1.0000000000 0.0000000000 0.0000000000 0.2331999987 1.0000000000 0.4740999937
  -999.250000 112.62000275 12.298199654  -999.250000 2.2813000679 0.2163999975
 0.3066000044 34.125000000 2042.6171875  -999.250000 8.4218997955  -999.250000
  -999.250000  -999.250000  -999.250000
 2042.7695346
 1.0000000000 0.0000000000 0.0000000000 0.2316000015 1.0000000000 0.4774999917
  -999.250000 114.12010193 12.433600426  -999.250000 2.2813000679 0.2166000009
 0.3154000044 33.967399597 2042.7696533  -999.250000 8.4453001022  -999.250000
  -999.250000  -999.250000  -999.250000
 2042.9219346
 1.0000000000 0.0000000000 0.0000000000 0.1826000065 1.0000000000 0.4799999893
  -999.250000 114.36840057 115.28240204  -999.250000 2.2304999828 0.2504000068
 0.3276000023 30.483600616 2042.9219971  -999.250000 8.4765996933  -999.250000
  -999.250000  -999.250000  -999.250000
 2043.0743346
 1.0000000000 0.0000000000 0.0000000000 0.1747000068 1.0000000000 0.4824000001
  -999.250000 112.50080109 301.61569214  -999.250000 2.2070000172 0.2649999857
 0.3300999999 29.984199524 2043.0743408  -999.250000 8.4453001022  -999.250000
  -999.250000  -999.250000  -999.250000
 2043.2267346
 1.0000000000 0.0000000000 0.0000000000 0.1436000019 1.0000000000 0.4814000130
  -999.250000 110.37999725 643.98950195  -999.250000 2.1914000511 0.2764999866
 0.3257000148 27.891000748 2043.2268066  -999.250000 8.3984003067  -999.250000
  -999.250000  -999.250000  -999.250000
 2043.3791346
 1.0000000000 0.0000000000 0.0000000000 0.1547999978 1.0000000000 0.4785000086
  -999.250000 108.62999725 356.38159180  -999.250000 2.2051000595 0.2675000131
 0.3070999980 28.593999863 2043.3791504  -999.250000 8.4453001022  -999.250000
  -999.250000  -999.250000  -999.250000
 2043.5315346
 1.0000000000 0.0000000000 0.0000000000 0.1589999944 1.0000000000 0.4769999981
  -999.250000 108.25080109 220.32110596  -999.250000 2.2167999744 0.2601999938
 0.2982999980 29.047700882 2043.5316162  -999.250000 8.3516998291  -999.250000
  -999.250000  -999.250000  -999.250000
 2043.6839346
 1.0000000000 0.0000000000 0.0000000000 0.1753000021 1.0000000000 0.4756000042
  -999.250000 109.37940216 150.26119995  -999.250000 2.2246000767 0.2544000149
 0.2915000021 30.046499252 2043.6839600  -999.250000 8.4375000000  -999.250000
  -999.250000  -999.250000  -999.250000
 2043.8363346
 1.0000000000 0.0000000000 0.0000000000 0.1828999966 1.0000000000 0.4765999913
  -999.250000 109.50000000 98.560501099  -999.250000 2.2344000340 0.2479999959
 0.3066000044 30.577999115 2043.8364258  -999.250000 8.4375000000  -999.250000
  -999.250000  -999.250000  -999.250000
 2043.9887346
 1.0000000000 0.0000000000 0.0000000000 0.1729000062 1.0000000000 0.4794999957
  -999.250000 106.25000000 82.128997803  -999.250000 2.2402000427 0.2452999949
 0.3120000064 29.875000000 2043.9887695  -999.250000 8.4375000000  -999.250000
  -999.250000  -999.250000  -999.250000
 2044.1411346
 1.0000000000 0.0000000000 0.0000000000 0.1508000046 1.0000000000 0.4848999977
  -999.250000 104.74909973 90.919898987  -999.250000 2.2402000427 0.2468000054
 0.3003000021 28.343000412 2044.1412354  -999.250000 8.4296998978  -999.250000
  -999.250000  -999.250000  -999.250000
 2044.2935346
 1.0000000000 0.0000000000 0.0000000000 0.1255999953 1.0000000000 0.4961000085
  -999.250000 103.24819946 75.053100586  -999.250000 2.2479999065 0.2439000010
 0.2793000042 26.580799103 2044.2935791  -999.250000 8.4295997620  -999.250000
  -999.250000  -999.250000  -999.250000
 2044.4459346
 1.0000000000 0.0000000000 0.0000000000 0.1676000059 1.0000000000 0.5106999874
  -999.250000 101.37999725 21.005300522  -999.250000 2.2753999233 0.2246000022
 0.2734000087 29.625000000 2044.4460449  -999.250000 8.3671998978  -999.250000
  -999.250000  -999.250000  -999.250000
 2044.5983346
 1.0000000000 0.0000000000 0.0000000000 0.1858000010 1.0000000000 0.5238999724
  -999.250000 100.75000000 8.2719001770  -999.250000 2.2969000340 0.2104000002
 0.2651000023 30.906000137 2044.5983887  -999.250000 8.3671998978  -999.250000
  -999.250000  -999.250000  -999.250000
 2044.7507346
 1.0000000000 0.0000000000 0.0000000000 0.2249999940 1.0000000000 0.5356000066
  -999.250000 99.875396729 4.7112002373  -999.250000 2.3066000938 0.2019000053
 0.2660999894 33.687500000 2044.7508545  -999.250000 8.3515996933  -999.250000
  -999.250000  -999.250000  -999.250000
 2044.9031346
 1.0000000000 0.0000000000 0.0000000000 0.2132000029 1.0000000000 0.5371000171
  -999.250000 100.88200378 6.7691998482  -999.250000 2.2987999916 0.2073999941
 0.2700000107 32.691898346 2044.9031982  -999.250000 8.4375000000  -999.250000
  -999.250000  -999.250000  -999.250000
 2045.0555346
 1.0000000000 0.0000000000 0.0000000000 0.2822999954 1.0000000000 0.5321999788
  -999.250000 103.37899780 9.8048000336  -999.250000 2.2813000679 0.2129999995
 0.2782999873 37.560901642 2045.0555420  -999.250000 8.4218997955  -999.250000
  -999.250000  -999.250000  -999.250000
 2045.2079346
 1.0000000000 0.0000000000 0.0000000000 0.3041999936 1.0000000000 0.5288000107
  -999.250000 106.75000000 13.051899910  -999.250000 2.2715001106 0.2172999978
 0.2953999937 39.125000000 2045.2080078  -999.250000 8.4062995911  -999.250000
  -999.250000  -999.250000  -999.250000
 2045.3603345
 1.0000000000 0.0000000000 0.0000000000 0.2913999856 1.0000000000 0.5238999724
  -999.250000 109.00000000 37.689098358  -999.250000 2.2460999489 0.2334000021
 0.3007999957 40.312999725 2045.3603516  -999.250000 8.3203001022  -999.250000
  -999.250000  -999.250000  -999.250000
 2045.5127345
 1.0000000000 0.0000000000 0.0000000000 0.2526000142 1.0000000000 0.5185999870
  -999.250000 109.87979889 66.365600586  -999.250000 2.2362999916 0.2419999987
 0.3314999938 35.624801636 2045.5128174  -999.250000 8.3515996933  -999.250000
  -999.250000  -999.250000  -999.250000
 2045.6651345
 1.0000000000 0.0000000000 0.0000000000 0.2495000064 1.0000000000 0.5199999809
  -999.250000 109.63009644 98.617599487  -999.250000 2.2265999317 0.2479999959
 0.3280999959 35.313201904 2045.6651611  -999.250000 8.3984003067  -999.250000
  -999.250000  -999.250000  -999.250000
 2045.8175345
 1.0000000000 0.0000000000 0.0000000000 0.2653000057 1.0000000000 0.5282999873
  -999.250000 109.50000000 62.544700623  -999.250000 2.2362999916 0.2410999984
 0.3393999934 36.405998230 2045.8176270  -999.250000 8.4062995911  -999.250000
  -999.250000  -999.250000  -999.250000
 2045.9699345
 1.0000000000 0.0000000000 0.0000000000 0.3242000043 1.0000000000 0.5429999828
  -999.250000 108.50000000 22.010400772  -999.250000 2.2558999062 0.2252999991
 0.3433000147 40.625000000 2045.9699707  -999.250000 8.3671998978  -999.250000
  -999.250000  -999.250000  -999.250000
