# LAS format log file from PETREL
# Project units are specified as depth units
#==================================================================
~Version information
VERS.   2.0:
WRAP.   YES:
#==================================================================
~Well
STRT .m      800.09997440 :
STOP .m      2299.7159264 :
STEP .m     0.15240000 :
NULL .        -999.250000 :
COMP.           : COMPANY
WELL.  34/10-11   : WELL
FLD.            : FIELD
LOC.            : LOCATION
SRVC.           : SERVICE COMPANY
DATE.  Wednesday, March 31 2010 12:33:12   : DATE
PROV.           : PROVINCE
UWI.      : UNIQUE WELL ID
API.            : API NUMBER
#==================================================================
~Curve
DEPT .m                   : DEPTH
NETS .                    : NETS
COAL .                    : COAL
CARB .                    : CARB
VSH .                     : VSH
SW .                      : SW
ILD .ohm.m                : ILD
MSFL .ohm.m               : MSFL
LLS .ohm.m                : LLS
LLD .ohm.m                : LLD
ILM .ohm.m                : ILM
DT .us/ft                 : DT
KLOG .mD                  : KLOG
DRHO .g/cm3               : DRHO
RHOB .g/cm3               : RHOB
PHIF .m3/m3               : PHIF
NPHI .m3/m3               : NPHI
GR .gAPI                  : GR
DEPT .m                   : DEPT
TIME .ms                  : TIME
CALI .in                  : CALI
BS .in                    : BS
QTOT .rm3/d               : QTOT
QWAT .sm3/d               : QWAT
GeneralTime1 .ms          : General Time 1
~Parameter
#==================================================================
~Ascii
# ...
 1901.1899392
 0.0000000000 0.0000000000 0.0000000000 0.5123999715 0.2585999966 8.9687995911
 7.2227001190 8.6182003021 12.503000259  -999.250000 93.375000000 0.0020000001
  -999.250000 2.2890999317 0.1739999950 0.4185000062 46.155998230 1901.1899414
  -999.250000 8.1093997955  -999.250000  -999.250000  -999.250000  -999.250000
 1901.3423392
 0.0000000000 0.0000000000 0.2000000030 0.4911000133 0.2662000060 8.3669004440
 5.3586997986 8.0862998962 11.582799911  -999.250000 82.372497559 0.0020000001
  -999.250000 2.2832000256 0.1780000031 0.4253000021 45.094898224 1901.3424072
  -999.250000 8.1094999313  -999.250000  -999.250000  -999.250000  -999.250000
 1901.4947392
 0.0000000000 0.0000000000 0.2000000030 0.5202000141 0.2806000113 7.9454998970
 4.4612998962 7.9387998581 11.267200470  -999.250000 79.001602173 0.0020000001
  -999.250000 2.2969000340 0.1720000058 0.4052999914 46.343399048 1901.4947510
  -999.250000 8.1796998978  -999.250000  -999.250000  -999.250000  -999.250000
 1901.6471391
 0.0000000000 0.0000000000 0.0000000000 0.5619000196 0.3050999939 7.7500000000
 5.2500000000 8.3173999786 11.887000084  -999.250000 85.750000000 0.0000000000
  -999.250000 2.3378999233 0.1500000060 0.4219000041 48.250000000 1901.6472168
  -999.250000 8.2343997955  -999.250000  -999.250000  -999.250000  -999.250000
 1901.7995391
 0.0000000000 0.0000000000 0.0000000000 0.5723000169 0.3445000052 8.0000000000
 6.1328001022 9.1352996826 13.307999611  -999.250000 85.375000000 0.0000000000
  -999.250000 2.3965001106 0.1169999987 0.4341000021 48.905998230 1901.7995605
  -999.250000 8.1875000000  -999.250000  -999.250000  -999.250000  -999.250000
 1901.9519391
 0.0000000000 0.0000000000 0.1999000013 0.5830000043 0.2937999964 8.3909997940
 7.0437998772 10.324399948 15.328399658  -999.250000 84.375701904 0.0000000000
  -999.250000 2.3554000854 0.1360000074 0.4569999874 49.435798645 1901.9520264
  -999.250000 8.1875000000  -999.250000  -999.250000  -999.250000  -999.250000
 1902.1043391
 0.0000000000 0.0000000000 0.0000000000 0.5131000280 0.2337999940 8.9778003693
 8.3717002869 12.480899811 19.133600235  -999.250000 85.568000793 0.0082000000
  -999.250000 2.2674999237 0.1840000004 0.4271999896 45.970401764 1902.1043701
  -999.250000 8.1876001358  -999.250000  -999.250000  -999.250000  -999.250000
 1902.2567391
 0.0000000000 0.0000000000 0.0000000000 0.5209000111 0.1891999990 10.180000305
 5.0117001534 17.356000900 27.774999619  -999.250000 90.563003540 1.2259999514
  -999.250000 2.2090001106 0.2119999975 0.3916000128 47.375000000 1902.2568359
  -999.250000 8.2578001022  -999.250000  -999.250000  -999.250000  -999.250000
 1902.4091391
 0.0000000000 0.0000000000 0.0000000000 0.4214000106 0.1544000059 12.203000069
 12.781000137 26.257999420 43.832000732  -999.250000 90.375000000 9.8879995346
  -999.250000 2.1835999489 0.2370000035 0.3682000041 45.155998230 1902.4091797
  -999.250000 8.2890996933  -999.250000  -999.250000  -999.250000  -999.250000
 1902.5615391
 0.0000000000 0.0000000000 0.0000000000 0.4356999993 0.1212999970 15.150500298
 14.439599991 47.101001740 82.576599121  -999.250000 93.375900269 18.836399078
  -999.250000 2.1621000767 0.2389999926 0.3765000105 47.967098236 1902.5616455
  -999.250000 8.2812995911  -999.250000  -999.250000  -999.250000  -999.250000
 1902.7139391
 1.0000000000 0.0000000000 0.0000000000 0.3959999979 0.0869999975 20.052299500
 17.602199554 61.166400909 109.60050201  -999.250000 95.185203552 71.491996765
  -999.250000 2.1270000935 0.2590000033 0.3768999875 44.313701630 1902.7139893
  -999.250000 8.3515996933  -999.250000  -999.250000  -999.250000  -999.250000
 1902.8663391
 1.0000000000 0.0000000000 0.0000000000 0.3591000140 0.0747999996 26.141000748
 27.000000000 66.250000000 121.62999725  -999.250000 92.000000000 171.40400696
  -999.250000 2.1073999405 0.2700000107 0.3700999916 45.094001770 1902.8664551
  -999.250000 8.3359003067  -999.250000  -999.250000  -999.250000  -999.250000
 1903.0187391
 1.0000000000 0.0000000000 0.0000000000 0.3059000075 0.0707999989 35.937999725
 40.905998230 59.566001892 105.91000366  -999.250000 88.375000000 401.25289917
  -999.250000 2.0996000767 0.2750000060 0.3495999873 43.405998230 1903.0187988
  -999.250000 8.4531002045  -999.250000  -999.250000  -999.250000  -999.250000
 1903.1711391
 1.0000000000 0.0000000000 0.0000000000 0.2915999889 0.0750999972 49.625000000
 31.047000885 51.925998688 86.316001892  -999.250000 93.563003540 504.32669067
  -999.250000 2.0996000767 0.2739999890 0.3418000042 43.500000000 1903.1711426
  -999.250000 8.4843997955  -999.250000  -999.250000  -999.250000  -999.250000
 1903.3235391
 1.0000000000 0.0000000000 0.0000000000 0.2759999931 0.0826999992 67.755996704
 23.289400101 46.564800262 75.102096558  -999.250000 117.18779755 642.94500732
  -999.250000 2.0938000679 0.2800000012 0.3393999934 42.341201782 1903.3236084
  -999.250000 8.4453001022  -999.250000  -999.250000  -999.250000  -999.250000
 1903.4759391
 1.0000000000 0.0000000000 0.0000000000 0.2362000048 0.0873000026 75.809097290
 13.168899536 44.912799835 71.302803040  -999.250000 114.19139862 1168.5269775
  -999.250000 2.0820000172 0.2899999917 0.3300999999 38.626800537 1903.4759521
  -999.250000 8.4296998978  -999.250000  -999.250000  -999.250000  -999.250000
 1903.6283391
 1.0000000000 0.0000000000 0.0000000000 0.2187999934 0.0894000009 75.188003540
 22.577999115 42.449001312 63.887001038  -999.250000 121.00000000 1372.2097168
  -999.250000 2.0780999660 0.2960000038 0.3280999959 37.594001770 1903.6284180
  -999.250000 8.3281002045  -999.250000  -999.250000  -999.250000  -999.250000
 1903.7807391
 1.0000000000 0.0000000000 0.0000000000 0.2099999934 0.0926000029 65.125000000
 19.016000748 41.202999115 58.979000092  -999.250000 122.55999756 2006.1496582
  -999.250000 2.0625000000 0.3019999862 0.3291000128 38.437999725 1903.7807617
  -999.250000 8.4062995911  -999.250000  -999.250000  -999.250000  -999.250000
 1903.9331391
 1.0000000000 0.0000000000 0.0000000000 0.2453999966 0.0978000015 58.121498108
 8.5940999985 40.772701263 57.074501038  -999.250000 115.74629974 1186.5987549
  -999.250000 2.0703001022 0.2960000038 0.3407999873 37.625301361 1903.9332275
  -999.250000 8.3437004089  -999.250000  -999.250000  -999.250000  -999.250000
 1904.0855391
 1.0000000000 0.0000000000 0.0000000000 0.2984000146 0.1072999984 52.563400269
 9.1701002121 40.299301147 57.965301514  -999.250000 109.75440216 209.88029480
  -999.250000 2.1310000420 0.2669999897 0.3379000127 38.120498657 1904.0855713
  -999.250000 8.2421998978  -999.250000  -999.250000  -999.250000  -999.250000
 1904.2379391
 0.0000000000 0.0000000000 0.0000000000 0.2649999857 0.1256999969 52.969001770
 23.093999863 48.691001892 72.414001465  -999.250000 114.19000244 0.8970000148
  -999.250000 2.2304999828 0.2179999948 0.3691000044 33.562999725 1904.2380371
  -999.250000 8.2343997955  -999.250000  -999.250000  -999.250000  -999.250000
 1904.3903391
 1.0000000000 0.0000000000 0.0000000000 0.2700000107 0.1049000025 57.125000000
 20.202999115 65.769996643 98.258003235  -999.250000 118.00000000 4.2659997940
  -999.250000 2.1835999489 0.2360000014 0.3921000063 33.750000000 1904.3903809
  -999.250000 8.2656002045  -999.250000  -999.250000  -999.250000  -999.250000
 1904.5427391
 1.0000000000 0.5000000000 0.0000000000 0.2529000044 0.0922000036 67.253700256
 24.912200928 82.609100342 126.64920044  -999.250000 121.56220245 61.025501251
  -999.250000 2.0878999233 0.2360000014 0.4277000129 32.906501770 1904.5428467
  -999.250000 8.2657003403  -999.250000  -999.250000  -999.250000  -999.250000
 1904.6951390
 1.0000000000 0.5000000000 0.0000000000 0.2804999948 0.0833000019 74.707099915
 67.609199524 113.29299927 185.70100403  -999.250000 126.00000000 531.10870361
  -999.250000 2.0000000000 0.2280000001 0.4419000149 33.935600281 1904.6951904
  -999.250000 8.4298000336  -999.250000  -999.250000  -999.250000  -999.250000
 1904.8475390
 1.0000000000 0.5000000000 0.0000000000 0.2259999961 0.0710000023 96.813003540
 49.280998230 197.86999512 337.44970703  -999.250000 126.00000000 1199.2529297
  -999.250000 2.0078001022 0.2230000049 0.4009000063 31.156000137 1904.8476563
  -999.250000 8.4921998978  -999.250000  -999.250000  -999.250000  -999.250000
