# LAS format log file from PETREL
# Project units are specified as depth units
#==================================================================
~Version information
VERS.   2.0:
WRAP.   YES:
#==================================================================
~Well
STRT .m      800.09997440 :
STOP .m      2299.7159264 :
STEP .m     0.15240000 :
NULL .        -999.250000 :
COMP.           : COMPANY
WELL.  34/10-11   : WELL
FLD.            : FIELD
LOC.            : LOCATION
SRVC.           : SERVICE COMPANY
DATE.  Wednesday, March 31 2010 12:33:12   : DATE
PROV.           : PROVINCE
UWI.      : UNIQUE WELL ID
API.            : API NUMBER
#==================================================================
~Curve
DEPT .m                   : DEPTH
NETS .                    : NETS
COAL .                    : COAL
CARB .                    : CARB
VSH .                     : VSH
SW .                      : SW
ILD .ohm.m                : ILD
MSFL .ohm.m               : MSFL
LLS .ohm.m                : LLS
LLD .ohm.m                : LLD
ILM .ohm.m                : ILM
DT .us/ft                 : DT
KLOG .mD                  : KLOG
DRHO .g/cm3               : DRHO
RHOB .g/cm3               : RHOB
PHIF .m3/m3               : PHIF
NPHI .m3/m3               : NPHI
GR .gAPI                  : GR
DEPT .m                   : DEPT
TIME .ms                  : TIME
CALI .in                  : CALI
BS .in                    : BS
QTOT .rm3/d               : QTOT
QWAT .sm3/d               : QWAT
GeneralTime1 .ms          : General Time 1
~Parameter
#==================================================================
~Ascii
# ...
 2087.8799332
 1.0000000000 0.0000000000 0.0000000000 0.3605999947 0.9704999924 0.7006999850
 1.4084000587 1.0831999779 1.1841000319  -999.250000 106.99859619 0.3576999903
  -999.250000 2.3180000782 0.1833000034 0.3364000022 59.968700409 2087.8798828
  -999.250000 8.3125000000 8.5000000000  -999.250000  -999.250000  -999.250000
 2088.0323332
 1.0000000000 0.0000000000 0.0000000000 0.3553999960 0.9393000007 0.7289999723
 1.7084000111 1.0820000172 1.1835000515  -999.250000 105.18879700 0.4828000069
  -999.250000 2.3048999310 0.1915999949 0.3515999913 59.556198120 2088.0324707
  -999.250000 8.2656002045 8.5000000000  -999.250000  -999.250000  -999.250000
 2088.1847332
 1.0000000000 0.0000000000 0.0000000000 0.3018999994 0.8136000037 0.7554000020
 1.2020000219 1.0830999613 1.1907000542  -999.250000 104.19450378 13.339900017
  -999.250000 2.2418999672 0.2337999940 0.3515999913 53.589698792 2088.1848145
  -999.250000 8.2890996933 8.5000000000  -999.250000  -999.250000  -999.250000
 2088.3371332
 1.0000000000 0.0000000000 0.0000000000 0.2754000127 0.7437000275 0.7828000188
 1.1328999996 1.0710999966 1.1912000179  -999.250000 107.19660187 93.808799744
  -999.250000 2.1970000267 0.2630999982 0.3452000022 50.774898529 2088.3371582
  -999.250000 8.2579002380 8.5000000000  -999.250000  -999.250000  -999.250000
 2088.4895332
 1.0000000000 0.0000000000 0.0000000000 0.2477000058 0.7095000148 0.8187999725
 1.1902999878 1.0792000294 1.1950999498  -999.250000 110.74659729 181.00959778
  -999.250000 2.1719999313 0.2802000046 0.3515999913 47.503101349 2088.4895020
  -999.250000 8.3358001709 8.5000000000  -999.250000  -999.250000  -999.250000
 2088.6419332
 1.0000000000 0.0000000000 0.0000000000 0.2691000104 0.7154999971 0.8461999893
 1.2216999531 1.0858000517 1.1805000305  -999.250000 112.36900330 181.19700623
  -999.250000 2.1740000248 0.2775000036 0.3490999937 49.748699188 2088.6420898
  -999.250000 8.3671998978 8.5000000000  -999.250000  -999.250000  -999.250000
 2088.7943332
 1.0000000000 0.0000000000 0.0000000000 0.2912000120 0.7202000022 0.8353999853
 1.1864999533 1.0779999495 1.1978000402  -999.250000 113.00000000 167.99879456
  -999.250000 2.1819999218 0.2711000144 0.3422999978 52.125000000 2088.7944336
  -999.250000 8.3828001022 8.5000000000  -999.250000  -999.250000  -999.250000
 2088.9467332
 1.0000000000 0.0000000000 0.0000000000 0.3055999875 0.7530000210 0.8403000236
 1.2411999702 1.0974999666 1.2036000490  -999.250000 113.55999756 134.50140381
  -999.250000 2.2070000172 0.2547999918 0.3197999895 63.469001770 2088.9467773
  -999.250000 8.3125000000 8.5000000000  -999.250000  -999.250000  -999.250000
 2089.0991331
 1.0000000000 0.0000000000 0.0000000000 0.3167999983 0.8209999800 0.8544999957
 1.4091000557 1.0894999504 1.1863000393  -999.250000 111.56050110 49.613098145
  -999.250000 2.2460000515 0.2302999943 0.3037000000 78.193099976 2089.0991211
  -999.250000 8.3359003067 8.5000000000  -999.250000  -999.250000  -999.250000
 2089.2515331
 0.0000000000 0.0000000000 0.0000000000 0.4627999961 0.8303999901 0.8780000210
 1.2410999537 1.0812000036 1.1959999800  -999.250000 112.56340027 5.9902000427
  -999.250000 2.2620000839 0.2102999985 0.3472000062 88.061203003 2089.2517090
  -999.250000 8.2421998978 8.5000000000  -999.250000  -999.250000  -999.250000
 2089.4039331
 0.0000000000 0.0000000000 0.0000000000 0.5960000157 0.8246999979 0.9092000127
 1.1180000305 1.0381000042 1.1133999825  -999.250000 116.37300110 1.2854000330
  -999.250000 2.2560000420 0.2046000063 0.4038999975 86.057998657 2089.4040527
  -999.250000 8.2658004761 8.5000000000  -999.250000  -999.250000  -999.250000
 2089.5563331
 0.0000000000 0.0000000000 0.0000000000 0.5667999983 0.7612000108 0.9502999783
 0.9987999797 1.0167000294 1.0900000334  -999.250000 118.76180267 0.6148999929
  -999.250000 2.2320001125 0.2213000059 0.4672999978 82.119102478 2089.5563965
  -999.250000 8.4141998291 8.5000000000  -999.250000  -999.250000  -999.250000
 2089.7087331
 0.0000000000 0.0000000000 0.0000000000 0.5360000134 0.7969999909 0.9957000017
 1.7626999617 1.0418000221 1.1148999929  -999.250000 126.00150299 0.5827000141
  -999.250000 2.2290000916 0.2224999964 0.4742000103 78.499298096 2089.7087402
  -999.250000 8.4687995911 8.5000000000  -999.250000  -999.250000  -999.250000
 2089.8611331
 0.0000000000 0.0000000000 0.0000000000 0.5325000286 0.8306999803 1.0381000042
 2.2671999931 1.0614999533 1.1299999952  -999.250000 126.74939728 0.1106999964
  -999.250000 2.2479999065 0.2090999931 0.4945999980 78.125297546 2089.8610840
  -999.250000 8.4687995911 8.5000000000  -999.250000  -999.250000  -999.250000
 2090.0135331
 0.0000000000 0.0000000000 0.0000000000 0.5217999816 0.8550999761 1.0654000044
 2.2344000340 1.0980999470 1.1747000217  -999.250000 126.19029999 0.0395000018
  -999.250000 2.2715001106 0.1974000037 0.4819000065 76.438796997 2090.0136719
  -999.250000 8.5858001709 8.5000000000  -999.250000  -999.250000  -999.250000
 2090.1659331
 0.0000000000 0.0000000000 0.0000000000 0.5238000154 0.8535000086 1.0742000341
 2.2344000340 1.1413999796 1.2080999613  -999.250000 125.00000000 0.0287999995
  -999.250000 2.2772998810 0.1940000057 0.4799999893 76.688003540 2090.1660156
  -999.250000 8.5781002045 8.5000000000  -999.250000  -999.250000  -999.250000
 2090.3183331
 0.0000000000 0.0000000000 0.0000000000 0.5376999974 0.8640999794 1.0731999874
 2.2227001190 1.1468000412 1.2114000320  -999.250000 124.37000275 0.0388999991
  -999.250000 2.2852001190 0.1887000054 0.4560000002 78.188003540 2090.3183594
  -999.250000 8.5781002045 8.5000000000  -999.250000  -999.250000  -999.250000
 2090.4707331
 0.0000000000 0.0000000000 0.0000000000 0.5302000046 0.8597999811 1.0722999573
 2.2070000172 1.1669000387 1.2371000051  -999.250000 123.55819702 0.0527000017
  -999.250000 2.2871000767 0.1882999986 0.4438999891 77.312896729 2090.4707031
  -999.250000 8.5937995911 8.5000000000  -999.250000  -999.250000  -999.250000
 2090.6231331
 0.0000000000 0.0000000000 0.0000000000 0.5289999843 0.8791999817 1.0791000128
 2.1991999149 1.1936000586 1.2338000536  -999.250000 120.75279999 0.0241000000
  -999.250000 2.2969000340 0.1831000000 0.4467999935 77.247497559 2090.6232910
  -999.250000 8.5781002045 8.5000000000  -999.250000  -999.250000  -999.250000
 2090.7755331
 0.0000000000 0.0000000000 0.0000000000 0.5065000057 0.8783000112 1.0898000002
 2.1991999149 1.2089999914 1.2475999594  -999.250000 123.55999756 0.0250000004
  -999.250000 2.2969000340 0.1847999990 0.4458000064 74.749702454 2090.7756348
  -999.250000 8.5938997269 8.5000000000  -999.250000  -999.250000  -999.250000
 2090.9279331
 0.0000000000 0.0000000000 0.0000000000 0.5077999830 0.8838999867 1.1024999619
 2.1895000935 1.2031999826 1.2403999567  -999.250000 123.56030273 0.0175999999
  -999.250000 2.2987999916 0.1837999970 0.4517000020 74.559097290 2090.9279785
  -999.250000 8.6717996597 8.5000000000  -999.250000  -999.250000  -999.250000
 2091.0803331
 0.0000000000 0.0000000000 0.0000000000 0.4851000011 0.8894000053 1.1181999445
 2.1816000938 1.2056000233 1.2345999479  -999.250000 123.74539948 0.0154999997
  -999.250000 2.2988998890 0.1855999976 0.4550999999 72.312301636 2091.0803223
  -999.250000 8.6246995926 8.5000000000  -999.250000  -999.250000  -999.250000
 2091.2327331
 0.0000000000 0.0000000000 0.0000000000 0.4772000015 0.9470999837 1.1396000385
 2.1875000000 1.1904000044 1.2343000174  -999.250000 121.56159973 0.0022000000
  -999.250000 2.3241999149 0.1713999957 0.4535999894 72.000198364 2091.2329102
  -999.250000 8.4923000336 8.5000000000  -999.250000  -999.250000  -999.250000
 2091.3851331
 0.0000000000 0.0000000000 0.0000000000 0.4873999953 1.0000000000 1.1660000086
 2.2012000084 1.2211999893 1.2432999611  -999.250000 119.00000000 0.0003000000
  -999.250000 2.3652000427 0.1456000060 0.4517000020 73.250000000 2091.3852539
  -999.250000 8.4609003067 8.5000000000  -999.250000  -999.250000  -999.250000
 2091.5375331
 0.0000000000 0.0000000000 0.0000000000 0.4952000082 1.0000000000 1.2079999447
 2.2207000256 1.2394000292 1.2632999420  -999.250000 114.75000000 0.0003000000
  -999.250000 2.3926000595 0.1283999979 0.4282000065 73.500000000 2091.5375977
  -999.250000 8.6015996933 8.5000000000  -999.250000  -999.250000  -999.250000
