# LAS format log file from PETREL
# Project units are specified as depth units
#==================================================================
~Version information
VERS.   2.0:
WRAP.   YES:
#==================================================================
~Well
STRT .m      800.09997440 :
STOP .m      2449.8299216 :
STEP .m     0.15240000 :
NULL .        -999.250000 :
COMP.           : COMPANY
WELL.  34/10-15   : WELL
FLD.            : FIELD
LOC.            : LOCATION
SRVC.           : SERVICE COMPANY
DATE.  Wednesday, March 31 2010 12:33:14   : DATE
PROV.           : PROVINCE
UWI.      : UNIQUE WELL ID
API.            : API NUMBER
#==================================================================
~Curve
DEPT .m                   : DEPTH
NETS .                    : NETS
COAL .                    : COAL
CARB .                    : CARB
VSH .                     : VSH
SW .                      : SW
ILD .ohm.m                : ILD
MSFL .ohm.m               : MSFL
LLS .ohm.m                : LLS
LLD .ohm.m                : LLD
ILM .ohm.m                : ILM
DT .us/ft                 : DT
KLOG .mD                  : KLOG
DRHO .g/cm3               : DRHO
RHOB .g/cm3               : RHOB
PHIF .m3/m3               : PHIF
NPHI .m3/m3               : NPHI
GR .gAPI                  : GR
DEPT .m                   : DEPT
TIME .ms                  : TIME
CALI .in                  : CALI
BS .in                    : BS
QTOT .rm3/d               : QTOT
QWAT .sm3/d               : QWAT
GeneralTime1 .ms          : General Time 1
~Parameter
#==================================================================
~Ascii
# ...
 1988.8199364
 0.0000000000 0.0000000000 0.0000000000 0.3727000058 1.0000000000 1.5527000427
 4.5968999863 1.5297000408 1.2861000299  -999.250000 105.19020081 0.0003000000
 0.0063000000 2.4727001190 0.0887999982 0.3443000019 52.686901093 1988.8199463
  -999.250000 10.397899628 8.5000000000  -999.250000  -999.250000  -999.250000
 1988.9723364
 0.0000000000 0.0000000000 0.0000000000 0.4390000105 1.0000000000 1.5635000467
 4.1132998466 1.5556000471 1.2798999548  -999.250000 106.55999756 0.0003000000
 0.0054000001 2.4765999317 0.0817999989 0.3441999853 57.437999725 1988.9724121
  -999.250000 10.227000237 8.5000000000  -999.250000  -999.250000  -999.250000
 1989.1247363
 0.0000000000 0.0000000000 0.0000000000 0.5267000198 1.0000000000 1.5605000257
 2.2284998894 1.5542999506 1.2914999723  -999.250000 116.37000275 0.0010000000
 0.0038999999 2.4414000511 0.0971999988 0.3569000065 63.719001770 1989.1247559
  -999.250000 10.234000206 8.5000000000  -999.250000  -999.250000  -999.250000
 1989.2771363
 0.0000000000 0.0000000000 0.0000000000 0.5432000160 1.0000000000 1.5047999620
 2.5878000259 1.5399999619 1.2947000265  -999.250000 116.37039948 0.0029000000
  -999.250000 2.4121000767 0.1141000018 0.3799000084 65.435798645 1989.2772217
  -999.250000 10.328100204 8.5000000000  -999.250000  -999.250000  -999.250000
 1989.4295363
 0.0000000000 0.0000000000 0.0085000005 0.5036000013 1.0000000000 1.3916000128
 2.3715000153 1.5394999981 1.2649999857  -999.250000 117.00060272 0.0077999998
  -999.250000 2.3847999573 0.1335999966 0.3896999955 62.059799194 1989.4295654
  -999.250000 10.461000443 8.5000000000  -999.250000  -999.250000  -999.250000
 1989.5819363
 0.0000000000 0.0000000000 0.0136000002 0.4607999921 1.0000000000 1.3564000130
 2.7441000938 1.5686000586 1.2768000364  -999.250000 117.55999756 0.0077999998
  -999.250000 2.3847999573 0.1366000026 0.4023000002 59.000000000 1989.5820313
  -999.250000 10.508000374 8.5000000000  -999.250000  -999.250000  -999.250000
 1989.7343363
 0.0000000000 0.0000000000 0.0166999996 0.4591000080 1.0000000000 1.3251999617
 2.8866999149 1.5374000072 1.2962000370  -999.250000 118.55999756 0.0096000005
  -999.250000 2.3789000511 0.1403000057 0.3970000148 58.875000000 1989.7343750
  -999.250000 10.296999931 8.5000000000  -999.250000  -999.250000  -999.250000
 1989.8867363
 0.0000000000 0.0000000000 0.0182000007 0.5302000046 1.0000000000 1.3076000214
 2.3359999657 1.5132000446 1.2826999426  -999.250000 119.74990082 0.0136000002
 0.0015000000 2.3691000938 0.1413999945 0.4018999934 63.969501495 1989.8868408
  -999.250000 10.180000305 8.5000000000  -999.250000  -999.250000  -999.250000
 1990.0391363
 0.0000000000 0.0000000000 0.0197999999 0.5184000134 1.0000000000 1.3047000170
 2.4607999325 1.5615999699 1.2796000242  -999.250000 119.55999756 0.0273000002
 -0.0000000000 2.3496000767 0.1541000009 0.4058000147 64.876701355 1990.0391846
  -999.250000 10.147999763 8.5000000000  -999.250000  -999.250000  -999.250000
 1990.1915363
 0.0000000000 0.0000000000 0.0210999995 0.5278000236 1.0000000000 1.3135000467
 2.3984000683 1.5678000450 1.2892999649  -999.250000 119.55999756 0.0386999995
  -999.250000 2.3397998810 0.1595000029 0.4165000021 66.750000000 1990.1916504
  -999.250000 10.147999763 8.5000000000  -999.250000  -999.250000  -999.250000
 1990.3439363
 0.0000000000 0.0000000000 0.0215000007 0.4826999903 1.0000000000 1.3202999830
 2.4512000084 1.5615999699 1.2774000168  -999.250000 119.19000244 0.0414999984
  -999.250000 2.3378999233 0.1638000011 0.3950000107 66.938003540 1990.3439941
  -999.250000 10.109000206 8.5000000000  -999.250000  -999.250000  -999.250000
 1990.4963363
 0.0000000000 0.0000000000 0.0228000004 0.5117999911 1.0000000000 1.3329999447
 2.5078999996 1.5499999523 1.2836999893  -999.250000 118.74919891 0.0361000001
  -999.250000 2.3417999744 0.1594000012 0.4072000086 68.562400818 1990.4964600
  -999.250000 10.109000206 8.5000000000  -999.250000  -999.250000  -999.250000
 1990.6487363
 0.0000000000 0.0000000000 0.0219000001 0.4986999929 1.0000000000 1.3495999575
 2.6326999664 1.5597000122 1.2860000134  -999.250000 116.74890137 0.0388000011
  -999.250000 2.3397998810 0.1615000069 0.4018999934 67.122596741 1990.6488037
  -999.250000 10.125000000 8.5000000000  -999.250000  -999.250000  -999.250000
 1990.8011363
 0.0000000000 0.0000000000 0.0193000007 0.5268999934 1.0000000000 1.3594000340
 2.5352001190 1.5230000019 1.2943999767  -999.250000 115.37059784 0.0445000008
  -999.250000 2.3359000683 0.1618999988 0.4185000062 64.064399719 1990.8011475
  -999.250000 10.156000137 8.5000000000  -999.250000  -999.250000  -999.250000
 1990.9535363
 0.0000000000 0.0000000000 0.0164000001 0.4842999876 1.0000000000 1.3632999659
 2.5352001190 1.5469000340 1.2671999931  -999.250000 114.75000000 0.0238000005
  -999.250000 2.3534998894 0.1541000009 0.3862000108 61.469001770 1990.9536133
  -999.250000 10.203000069 8.5000000000  -999.250000  -999.250000  -999.250000
 1991.1059363
 0.0000000000 0.0000000000 0.0122999996 0.4799999893 1.0000000000 1.3652000427
 2.8301000595 1.5688999891 1.2933000326  -999.250000 114.37000275 0.0110999998
  -999.250000 2.3750000000 0.1412000060 0.3867000043 60.375000000 1991.1059570
  -999.250000 10.250000000 8.5000000000  -999.250000  -999.250000  -999.250000
 1991.2583363
 0.0000000000 0.0000000000 0.0089999996 0.4674000144 1.0000000000 1.3690999746
 2.7830998898 1.5750999451 1.2770999670  -999.250000 114.19010162 0.0048000002
  -999.250000 2.3984000683 0.1278000027 0.3745000064 59.469001770 1991.2584229
  -999.250000 10.281000137 8.5000000000  -999.250000  -999.250000  -999.250000
 1991.4107363
 0.0000000000 0.0000000000 0.0074000000 0.4677999914 1.0000000000 1.3672000170
 2.6112000942 1.5556999445 1.2858999968  -999.250000 114.37139893 0.0048000002
  -999.250000 2.3984000683 0.1277000010 0.3989000022 59.501399994 1991.4107666
  -999.250000 10.296999931 8.5000000000  -999.250000  -999.250000  -999.250000
 1991.5631363
 0.0000000000 0.0000000000 0.0115000000 0.4866000116 1.0000000000 1.3495999575
 2.5469000340 1.5678000450 1.2827999592  -999.250000 115.75000000 0.0055000000
  -999.250000 2.3945000172 0.1288000047 0.3862000108 60.844001770 1991.5632324
  -999.250000 10.319999695 8.5000000000  -999.250000  -999.250000  -999.250000
 1991.7155363
 0.0000000000 0.0000000000 0.0110999998 0.4988000095 1.0000000000 1.3262000084
 2.3554999828  -999.250000  -999.250000  -999.250000 116.37000275 0.0073000002
  -999.250000 2.3866999149 0.1327999979 0.3892000020 61.719001770 1991.7155762
  -999.250000 10.383000374 8.5000000000  -999.250000  -999.250000  -999.250000
 1991.8679363
 0.0000000000 0.0000000000 0.0122999996 0.5009999871 1.0000000000 1.3036999702
 2.5174999237  -999.250000  -999.250000  -999.250000 118.00070190 0.0068000001
  -999.250000 2.3887000084 0.1314000040 0.3731000125 64.125099182 1991.8680420
  -999.250000 10.578200340 8.5000000000  -999.250000  -999.250000  -999.250000
 1992.0203363
 0.0000000000 0.0000000000 0.0113000004 0.5131999850 1.0000000000 1.2812999487
 2.3064000607  -999.250000  -999.250000  -999.250000 119.36959839 0.0083999997
  -999.250000 2.3828001022 0.1341000050 0.3828000128 64.314796448 1992.0203857
  -999.250000 10.906000137 8.5000000000  -999.250000  -999.250000  -999.250000
 1992.1727363
 0.0000000000 0.0000000000 0.0125000002 0.4898999929 1.0000000000 1.2588000298
 2.0996000767  -999.250000  -999.250000  -999.250000 119.00000000 0.0083999997
  -999.250000 2.3828001022 0.1358000040 0.3711000085 66.375000000 1992.1728516
  -999.250000 10.875000000 8.5000000000  -999.250000  -999.250000  -999.250000
 1992.3251362
 0.0000000000 0.0000000000 0.0131000001 0.5022000074 1.0000000000 1.2393000126
 2.1465001106  -999.250000  -999.250000  -999.250000 119.55999756 0.0119000003
  -999.250000 2.3729999065 0.1409000009 0.3833000064 66.563003540 1992.3251953
  -999.250000 10.812999725 8.5000000000  -999.250000  -999.250000  -999.250000
 1992.4775362
 0.0000000000 0.0000000000 0.0126999998 0.4778999984 1.0000000000 1.2245999575
 2.2948999405  -999.250000  -999.250000  -999.250000 120.37010193 0.0119000003
  -999.250000 2.3729999065 0.1425999999 0.3711000085 69.125801086 1992.4775391
  -999.250000 10.835900307 8.5000000000  -999.250000  -999.250000  -999.250000
