# LAS format log file from PETREL
# Project units are specified as depth units
#==================================================================
~Version information
VERS.   2.0:
WRAP.   YES:
#==================================================================
~Well
STRT .m      800.09997440 :
STOP .m      2299.7159264 :
STEP .m     0.15240000 :
NULL .        -999.250000 :
COMP.           : COMPANY
WELL.  34/10-19   : WELL
FLD.            : FIELD
LOC.            : LOCATION
SRVC.           : SERVICE COMPANY
DATE.  Wednesday, March 31 2010 12:33:14   : DATE
PROV.           : PROVINCE
UWI.      : UNIQUE WELL ID
API.            : API NUMBER
#==================================================================
~Curve
DEPT .m                   : DEPTH
NETS .                    : NETS
COAL .                    : COAL
CARB .                    : CARB
VSH .                     : VSH
SW .                      : SW
ILD .ohm.m                : ILD
ILM .ohm.m                : ILM
DT .us/ft                 : DT
KLOG .mD                  : KLOG
DRHO .g/cm3               : DRHO
RHOB .g/cm3               : RHOB
PHIF .m3/m3               : PHIF
NPHI .m3/m3               : NPHI
GR .gAPI                  : GR
DEPT .m                   : DEPT
TIME .ms                  : TIME
CALI .in                  : CALI
BS .in                    : BS
QTOT .rm3/d               : QTOT
QWAT .sm3/d               : QWAT
GeneralTime1 .ms          : General Time 1
~Parameter
#==================================================================
~Ascii
# ...
 2178.4055303
 1.0000000000 0.0000000000 0.0000000000 0.2775000036 1.0000000000 0.5508000255
  -999.250000 107.88110352 86.666702271  -999.250000 2.2269999981 0.2460999936
 0.3210000098 37.663600922 2178.4055176  -999.250000 8.2266998291  -999.250000
  -999.250000  -999.250000  -999.250000
 2178.5579303
 1.0000000000 0.0000000000 0.0000000000 0.2951000035 1.0000000000 0.5630000234
  -999.250000 108.37969971 63.600799561  -999.250000 2.2320001125 0.2414000034
 0.3109999895 41.216499329 2178.5581055  -999.250000 8.2812995911  -999.250000
  -999.250000  -999.250000  -999.250000
 2178.7103303
 1.0000000000 0.0000000000 0.0000000000 0.2761000097 1.0000000000 0.5770999789
  -999.250000 106.87999725 74.825798035  -999.250000 2.2300000191 0.2437999994
 0.3039999902 39.187999725 2178.7104492  -999.250000 8.2812995911  -999.250000
  -999.250000  -999.250000  -999.250000
 2178.8627303
 1.0000000000 0.0000000000 0.0000000000 0.2416000068 1.0000000000 0.5893999934
  -999.250000 105.37999725 43.988498688  -999.250000 2.2479999065 0.2357999980
 0.2790000141 40.687999725 2178.8627930  -999.250000 8.2734003067  -999.250000
  -999.250000  -999.250000  -999.250000
 2179.0151303
 1.0000000000 0.0000000000 0.0000000000 0.2230000049 1.0000000000 0.5938000083
  -999.250000 103.37950134 47.939201355  -999.250000 2.2479999065 0.2371000051
 0.2709999979 35.312999725 2179.0151367  -999.250000 8.2812995911  -999.250000
  -999.250000  -999.250000  -999.250000
 2179.1675303
 1.0000000000 0.0000000000 0.0000000000 0.2164999992 1.0000000000 0.5952000022
  -999.250000 102.24990082 45.686698914  -999.250000 2.2500000000 0.2363999933
 0.2669999897 35.439498901 2179.1674805  -999.250000 8.2578001022  -999.250000
  -999.250000  -999.250000  -999.250000
 2179.3199303
 1.0000000000 0.0000000000 0.0000000000 0.1917999983 1.0000000000 0.5976999998
  -999.250000 102.12940216 94.709098816  -999.250000 2.2339999676 0.2474000007
 0.2660000026 37.404399872 2179.3200684  -999.250000 8.2578001022  -999.250000
  -999.250000  -999.250000  -999.250000
 2179.4723303
 1.0000000000 0.0000000000 0.0000000000 0.1916999966 1.0000000000 0.6000999808
  -999.250000 101.63400269 175.28199768  -999.250000 2.2190001011 0.2567999959
 0.2750000060 36.029300690 2179.4724121  -999.250000 8.2578001022  -999.250000
  -999.250000  -999.250000  -999.250000
 2179.6247303
 1.0000000000 0.0000000000 0.0000000000 0.1916999966 1.0000000000 0.6044999957
  -999.250000 104.25090027 257.93249512  -999.250000 2.2090001106 0.2626000047
 0.2809999883 34.933898926 2179.6247559  -999.250000 8.2578001022  -999.250000
  -999.250000  -999.250000  -999.250000
 2179.7771302
 1.0000000000 0.0000000000 0.0000000000 0.2090000063 1.0000000000 0.6060000062
  -999.250000 104.74949646 323.57211304  -999.250000 2.2009999752 0.2660999894
 0.3000000119 32.783000946 2179.7770996  -999.250000 8.2421998978  -999.250000
  -999.250000  -999.250000  -999.250000
 2179.9295302
 1.0000000000 0.0000000000 0.0000000000 0.2205000073 1.0000000000 0.5985999703
  -999.250000 104.63009644 284.76870728  -999.250000 2.2030000687 0.2640999854
 0.2969999909 34.155200958 2179.9296875  -999.250000 8.2421998978  -999.250000
  -999.250000  -999.250000  -999.250000
 2180.0819302
 1.0000000000 0.0000000000 0.0000000000 0.2845000029 1.0000000000 0.5868999958
  -999.250000 104.12999725 136.71029663  -999.250000 2.2149999142 0.2529999912
 0.3170000017 38.062999725 2180.0820313  -999.250000 8.2656002045  -999.250000
  -999.250000  -999.250000  -999.250000
 2180.2343302
 1.0000000000 0.0000000000 0.0000000000 0.2716999948 1.0000000000 0.5791000128
  -999.250000 103.37999725 86.218498230  -999.250000 2.2269999981 0.2460000068
 0.3039999902 40.375000000 2180.2343750  -999.250000 8.2578001022  -999.250000
  -999.250000  -999.250000  -999.250000
 2180.3867302
 1.0000000000 0.0000000000 0.0000000000 0.2879999876 1.0000000000 0.5727000237
  -999.250000 103.00029755 80.812400818  -999.250000 2.2269999981 0.2450000048
 0.3109999895 42.654899597 2180.3867188  -999.250000 8.2578001022  -999.250000
  -999.250000  -999.250000  -999.250000
 2180.5391302
 1.0000000000 0.0000000000 0.0000000000 0.2680000067 1.0000000000 0.5688999891
  -999.250000 103.49970245 247.49530029  -999.250000 2.2009999752 0.2619999945
 0.3179999888 40.529800415 2180.5393066  -999.250000 8.2578001022  -999.250000
  -999.250000  -999.250000  -999.250000
 2180.6915302
 1.0000000000 0.0000000000 0.0000000000 0.2572000027 1.0000000000 0.5698000193
  -999.250000 103.12999725 478.04470825  -999.250000 2.1849999428 0.2720000148
 0.3230000138 39.250000000 2180.6916504  -999.250000 8.2578001022  -999.250000
  -999.250000  -999.250000  -999.250000
 2180.8439302
 1.0000000000 0.0008000000 0.0000000000 0.2488999963 1.0000000000 0.5663999915
  -999.250000 103.13120270 708.13110352  -999.250000 2.1758999825 0.2779000103
 0.3249999881 39.247501373 2180.8439941  -999.250000 8.2342996597  -999.250000
  -999.250000  -999.250000  -999.250000
 2180.9963302
 1.0000000000 0.5000000000 0.0000000000 0.1108999997 1.0000000000 0.5615000129
  -999.250000 103.88649750 26.298900604  -999.250000 2.1089000702 0.2278999984
 0.3070000112 37.743801117 2180.9963379  -999.250000 8.2030000687  -999.250000
  -999.250000  -999.250000  -999.250000
 2181.1487302
 0.0000000000 0.5000000000 0.0000000000 0.0888999999 1.0000000000 0.5648999810
  -999.250000 107.12729645 0.3016000092  -999.250000 2.0599999428 0.1590999961
 0.3269999921 34.658599854 2181.1486816  -999.250000 8.1640996933  -999.250000
  -999.250000  -999.250000  -999.250000
 2181.3011302
 0.0000000000 0.5000000000 0.0000000000 0.1826999933 1.0000000000 0.5791000128
  -999.250000 107.87969971 0.1655000001  -999.250000 2.0629999638 0.1509999931
 0.3650000095 32.314098358 2181.3012695  -999.250000 8.1718997955  -999.250000
  -999.250000  -999.250000  -999.250000
 2181.4535302
 1.0000000000 0.5000000000 0.0000000000 0.2141000032 1.0000000000 0.6098999977
  -999.250000 108.37999725 3.6542999744  -999.250000 2.1459999084 0.1979999989
 0.3889999986 33.250000000 2181.4536133  -999.250000 8.1875000000  -999.250000
  -999.250000  -999.250000  -999.250000
 2181.6059302
 1.0000000000 0.0000000000 0.0000000000 0.1986999959 1.0000000000 0.6577000022
  -999.250000 103.25000000 136.71029663  -999.250000 2.2249999046 0.2529999912
 0.3720000088 32.125000000 2181.6059570  -999.250000 8.2031002045  -999.250000
  -999.250000  -999.250000  -999.250000
 2181.7583302
 1.0000000000 0.0000000000 0.0001000000 0.1542000026 1.0000000000 0.7031000257
  -999.250000 93.741996765 39.097099304  -999.250000 2.2620000839 0.2339999974
 0.3170000017 29.028799057 2181.7583008  -999.250000 8.1718997955  -999.250000
  -999.250000  -999.250000  -999.250000
 2181.9107302
 1.0000000000 0.0000000000 0.2000000030 0.1071000025 1.0000000000 0.7256000042
  -999.250000 81.489898682 3.6505999565  -999.250000 2.3261001110 0.1978999972
 0.2628999949 25.720399857 2181.9108887  -999.250000 8.1484003067  -999.250000
  -999.250000  -999.250000  -999.250000
 2182.0631302
 0.0000000000 0.0000000000 0.2000000030 0.1264999956 1.0000000000 0.7407000065
  -999.250000 71.626701355 0.0657000020  -999.250000 2.4261000156 0.1369999945
 0.2089000046 27.096200943 2182.0632324  -999.250000 8.1484003067  -999.250000
  -999.250000  -999.250000  -999.250000
 2182.2155302
 0.0000000000 0.0000000000 0.2000000030 0.1493999958 1.0000000000 0.7530000210
  -999.250000 72.891502380 0.0074999998  -999.250000 2.4788999557 0.1040000021
 0.1669999957 28.697299957 2182.2155762  -999.250000 8.1640996933  -999.250000
  -999.250000  -999.250000  -999.250000
 2182.3679302
 0.0000000000 0.0000000000 0.1995999962 0.2230000049 1.0000000000 0.7652000189
  -999.250000 82.272499084 0.0222999994  -999.250000 2.4428000450 0.1200999990
 0.1590999961 33.973300934 2182.3679199  -999.250000 8.1483001709  -999.250000
  -999.250000  -999.250000  -999.250000
 2182.5203302
 0.0000000000 0.0000000000 0.0001000000 0.1938000023 1.0000000000 0.7875999808
  -999.250000 92.867500305 0.4156000018  -999.250000 2.3710999489 0.1650000066
 0.1850000024 35.998600006 2182.5205078  -999.250000 8.1093997955  -999.250000
  -999.250000  -999.250000  -999.250000
