# LAS format log file from PETREL
# Project units are specified as depth units
#==================================================================
~Version information
VERS.   2.0:
WRAP.   YES:
#==================================================================
~Well
STRT .m      800.09997440 :
STOP .m      2299.7159264 :
STEP .m     0.15240000 :
NULL .        -999.250000 :
COMP.           : COMPANY
WELL.  34/10-19   : WELL
FLD.            : FIELD
LOC.            : LOCATION
SRVC.           : SERVICE COMPANY
DATE.  Wednesday, March 31 2010 12:33:14   : DATE
PROV.           : PROVINCE
UWI.      : UNIQUE WELL ID
API.            : API NUMBER
#==================================================================
~Curve
DEPT .m                   : DEPTH
NETS .                    : NETS
COAL .                    : COAL
CARB .                    : CARB
VSH .                     : VSH
SW .                      : SW
ILD .ohm.m                : ILD
ILM .ohm.m                : ILM
DT .us/ft                 : DT
KLOG .mD                  : KLOG
DRHO .g/cm3               : DRHO
RHOB .g/cm3               : RHOB
PHIF .m3/m3               : PHIF
NPHI .m3/m3               : NPHI
GR .gAPI                  : GR
DEPT .m                   : DEPT
TIME .ms                  : TIME
CALI .in                  : CALI
BS .in                    : BS
QTOT .rm3/d               : QTOT
QWAT .sm3/d               : QWAT
GeneralTime1 .ms          : General Time 1
~Parameter
#==================================================================
~Ascii
# ...
 2140.0007315
 0.0000000000 0.0000000000 0.0000000000 0.5289999843 0.8838000298 1.7077000141
  -999.250000 117.12640381 0.0910999998  -999.250000 2.3710000515 0.1419000030
 0.3801000118 54.403099060 2140.0007324  -999.250000 8.5546998978  -999.250000
  -999.250000  -999.250000  -999.250000
 2140.1531315
 0.0000000000 0.0000000000 0.0000000000 0.5077999830 0.9480000138 1.5841000080
  -999.250000 120.24749756 0.0683000013 -0.0000000000 2.3810000420 0.1376000047
 0.4259999990 53.001098633 2140.1533203  -999.250000 8.5312995911  -999.250000
  -999.250000  -999.250000  -999.250000
 2140.3055315
 0.0000000000 0.0000000000 0.0000000000 0.5108000040 0.9702000022 1.4893000126
  -999.250000 119.00050354 0.0728999972  -999.250000 2.3789999485 0.1386000067
 0.4460000098 53.499801636 2140.3056641  -999.250000 8.4375000000  -999.250000
  -999.250000  -999.250000  -999.250000
 2140.4579315
 0.0000000000 0.0000000000 0.0000000000 0.5408999920 1.0000000000 1.4160000086
  -999.250000 113.25000000 0.0317000002 0.0068000001 2.3959999084 0.1259000003
 0.4329999983 55.655998230 2140.4580078  -999.250000 8.4218997955  -999.250000
  -999.250000  -999.250000  -999.250000
 2140.6103315
 0.0000000000 0.0000000000 0.0000000000 0.5591999888 1.0000000000 1.3887000084
  -999.250000 110.00000000 0.0270000007 0.0073000002 2.3980000019 0.1234999970
 0.4099999964 56.937999725 2140.6103516  -999.250000 8.4218997955  -999.250000
  -999.250000  -999.250000  -999.250000
 2140.7627315
 0.0000000000 0.0000000000 0.0000000000 0.5909000039 1.0000000000 1.3975000381
  -999.250000 106.74880219 0.0216000006 0.0107000005 2.4000000954 0.1200999990
 0.4239999950 59.373100281 2140.7626953  -999.250000 8.3594999313  -999.250000
  -999.250000  -999.250000  -999.250000
 2140.9151315
 0.0000000000 0.0000000000 0.0000000000 0.5558999777 1.0000000000 1.4365999699
  -999.250000 104.99859619 0.0296000000 0.0063000000 2.3959999084 0.1248999983
 0.4560000002 56.654598236 2140.9152832  -999.250000 8.4375000000  -999.250000
  -999.250000  -999.250000  -999.250000
 2141.0675315
 0.0000000000 0.0000000000 0.0000000000 0.5364999771 1.0000000000 1.5157999992
  -999.250000 103.62449646 0.0256999992 0.0059000002 2.4019999504 0.1226999983
 0.4650000036 55.275100708 2141.0676270  -999.250000 8.4455003738  -999.250000
  -999.250000  -999.250000  -999.250000
 2141.2199315
 0.0000000000 0.0000000000 0.0000000000 0.4844000041 1.0000000000 1.6331000328
  -999.250000 99.743499756 0.0189999994 0.0082999999 2.4161000252 0.1181000024
 0.4539000094 51.125198364 2141.2199707  -999.250000 8.6170997620  -999.250000
  -999.250000  -999.250000  -999.250000
 2141.3723315
 0.0000000000 0.0000000000 0.0000000000 0.4828000069 1.0000000000 1.7796000242
  -999.250000 96.117202759 0.0035000001 0.0146000003 2.4591000080 0.0925000012
 0.4219000041 51.221500397 2141.3723145  -999.250000 8.5471000671  -999.250000
  -999.250000  -999.250000  -999.250000
 2141.5247315
 0.0000000000 0.0000000000 0.0000000000 0.5041000247 1.0000000000 1.9003000259
  -999.250000 92.502403259 0.0003000000 0.0107000005 2.5179998875 0.0560000017
 0.3930000067 52.374198914 2141.5249023  -999.250000 8.6562004089  -999.250000
  -999.250000  -999.250000  -999.250000
 2141.6771315
 0.0000000000 0.0000000000 0.0000000000 0.5188000202 1.0000000000 1.9804999828
  -999.250000 86.375000000 0.0001000000 0.0063000000 2.5590000153 0.0304000005
 0.3670000136 54.062999725 2141.6772461  -999.250000 8.4375000000  -999.250000
  -999.250000  -999.250000  -999.250000
 2141.8295315
 0.0000000000 0.0000000000 0.0000000000 0.5766000152 1.0000000000 2.0292999744
  -999.250000 89.375000000 0.0001000000  -999.250000 2.5490000248 0.0322000012
 0.3339999914 57.969001770 2141.8295898  -999.250000 8.4765996933  -999.250000
  -999.250000  -999.250000  -999.250000
 2141.9819315
 0.0000000000 0.0000000000 0.0000000000 0.5769000053 1.0000000000 2.0546998978
  -999.250000 94.502700806 0.0002000000  -999.250000 2.5179998875 0.0509000011
 0.3249999881 58.125801086 2141.9819336  -999.250000 8.4375000000  -999.250000
  -999.250000  -999.250000  -999.250000
 2142.1343315
 0.0000000000 0.0000000000 0.0000000000 0.6031000018 1.0000000000 2.0859000683
  -999.250000 100.63439941 0.0002000000 0.0034000000 2.5160000324 0.0502000004
 0.3729999959 59.876098633 2142.1345215  -999.250000 8.4609003067  -999.250000
  -999.250000  -999.250000  -999.250000
 2142.2867314
 0.0000000000 0.0000000000 0.0000000000 0.6244999766 1.0000000000 2.0975999832
  -999.250000 106.13249969 0.0003000000 0.0073000002 2.5079998970 0.0533999987
 0.3980000019 61.256099701 2142.2868652  -999.250000 8.4920997620  -999.250000
  -999.250000  -999.250000  -999.250000
 2142.4391314
 0.0000000000 0.0000000000 0.0000000000 0.6959999800 1.0000000000 2.0467998981
  -999.250000 108.24849701 0.0001000000 0.0131999999 2.5209999084 0.0401999988
 0.4320000112 66.451896667 2142.4392090  -999.250000 8.4375000000  -999.250000
  -999.250000  -999.250000  -999.250000
 2142.5915314
 0.0000000000 0.0000000000 0.0000000000 0.8251000047 1.0000000000 1.9510999918
  -999.250000 107.24690247 0.0001000000 0.0068000001 2.5060000420 0.0405000001
 0.4070000052 75.446601868 2142.5915527  -999.250000 8.4454002380  -999.250000
  -999.250000  -999.250000  -999.250000
 2142.7439314
 0.0000000000 0.0000000000 0.0000000000 0.8640000224 1.0000000000 1.8770999908
  -999.250000 105.63150024 0.0002000000 0.0024000001 2.4820001125 0.0518000014
 0.3989999890 79.933799744 2142.7438965  -999.250000 8.4998998642  -999.250000
  -999.250000  -999.250000  -999.250000
 2142.8963314
 0.0000000000 0.0000000000 0.0000000000 0.8161000013 0.9657999873 1.8388999701
  -999.250000 106.62950134 0.0012000001 0.0005000000 2.4470000267 0.0762000009
 0.4000000060 84.872299194 2142.8964844  -999.250000 8.5781002045  -999.250000
  -999.250000  -999.250000  -999.250000
 2143.0487314
 0.0000000000 0.0000000000 0.0000000000 0.7813000083 0.9427000284 1.8184000254
  -999.250000 105.75000000 0.0024000001 0.0015000000 2.4340000153 0.0869000033
 0.3939999938 84.625000000 2143.0488281  -999.250000 8.6015996933  -999.250000
  -999.250000  -999.250000  -999.250000
 2143.2011314
 0.0000000000 0.0000000000 0.0000000000 0.8226000071 0.9638000131 1.8085999489
  -999.250000 100.75000000 0.0013000000 0.0000000000 2.4449999332 0.0769999996
 0.4040000141 82.000000000 2143.2011719  -999.250000 8.6328001022  -999.250000
  -999.250000  -999.250000  -999.250000
 2143.3535314
 0.0000000000 0.0000000000 0.0000000000 0.7935000062 1.0000000000 1.8076000214
  -999.250000 96.999198914 0.0008000000 0.0015000000 2.4609999657 0.0697000027
 0.3819999993 76.120697021 2143.3535156  -999.250000 8.6094999313  -999.250000
  -999.250000  -999.250000  -999.250000
 2143.5059314
 0.0000000000 0.0000000000 0.0000000000 0.7056000233 1.0000000000 1.7998000383
  -999.250000 95.498199463 0.0013000000 0.0034000000 2.4590001106 0.0769999996
 0.3470000029 68.314102173 2143.5061035  -999.250000 8.7498998642  -999.250000
  -999.250000  -999.250000  -999.250000
 2143.6583314
 0.0000000000 0.0000000000 0.0000000000 0.5745000243 1.0000000000 1.7861000299
  -999.250000 93.503997803 0.0054000001 0.0044000000 2.4379999638 0.0989999995
 0.3050000072 69.500701904 2143.6584473  -999.250000 8.6015996933  -999.250000
  -999.250000  -999.250000  -999.250000
 2143.8107314
 0.0000000000 0.0000000000 0.0000000000 0.4952999949 0.9998999834 1.7637000084
  -999.250000 96.632102966 0.0167999994 0.0044000000 2.4179999828 0.1163000017
 0.2829999924 70.063697815 2143.8107910  -999.250000 8.6326999664  -999.250000
  -999.250000  -999.250000  -999.250000
 2143.9631314
 0.0000000000 0.0000000000 0.0000000000 0.4629000127 0.9549999833 1.7372000217
  -999.250000 100.88300323 0.0491999984 0.0024000001 2.3940000534 0.1325999945
 0.2840000093 70.487503052 2143.9631348  -999.250000 8.6015996933  -999.250000
  -999.250000  -999.250000  -999.250000
 2144.1155314
 0.0000000000 0.0000000000 0.0000000000 0.4801999927 0.9154999852 1.7060999870
  -999.250000 102.37879944 0.0838999972 0.0029000000 2.3789999485 0.1406999975
 0.3000000119 64.318000793 2144.1154785  -999.250000 8.6171998978  -999.250000
  -999.250000  -999.250000  -999.250000
