# LAS format log file from PETREL
# Project units are specified as depth units
#==================================================================
~Version information
VERS.   2.0:
WRAP.   YES:
#==================================================================
~Well
STRT .m      800.09997440 :
STOP .m      2299.7159264 :
STEP .m     0.15240000 :
NULL .        -999.250000 :
COMP.           : COMPANY
WELL.  34/10-19   : WELL
FLD.            : FIELD
LOC.            : LOCATION
SRVC.           : SERVICE COMPANY
DATE.  Wednesday, March 31 2010 12:33:14   : DATE
PROV.           : PROVINCE
UWI.      : UNIQUE WELL ID
API.            : API NUMBER
#==================================================================
~Curve
DEPT .m                   : DEPTH
NETS .                    : NETS
COAL .                    : COAL
CARB .                    : CARB
VSH .                     : VSH
SW .                      : SW
ILD .ohm.m                : ILD
ILM .ohm.m                : ILM
DT .us/ft                 : DT
KLOG .mD                  : KLOG
DRHO .g/cm3               : DRHO
RHOB .g/cm3               : RHOB
PHIF .m3/m3               : PHIF
NPHI .m3/m3               : NPHI
GR .gAPI                  : GR
DEPT .m                   : DEPT
TIME .ms                  : TIME
CALI .in                  : CALI
BS .in                    : BS
QTOT .rm3/d               : QTOT
QWAT .sm3/d               : QWAT
GeneralTime1 .ms          : General Time 1
~Parameter
#==================================================================
~Ascii
# ...
 2084.5271333
 1.0000000000 0.0000000000 0.0000000000 0.3847000003 0.9847999811 1.1299999952
  -999.250000 105.38110352 1.3134000301  -999.250000 2.3203001022 0.1824000031
 0.3407999873 45.317501068 2084.5270996  -999.250000 8.2031002045  -999.250000
  -999.250000  -999.250000  -999.250000
 2084.6795333
 1.0000000000 0.0000000000 0.0000000000 0.3240000010 1.0000000000 1.0391999483
  -999.250000 98.254096985 1.2783000469  -999.250000 2.3280999660 0.1820999980
 0.3140000105 40.877498627 2084.6796875  -999.250000 8.2578001022  -999.250000
  -999.250000  -999.250000  -999.250000
 2084.8319333
 0.0000000000 0.0000000000 0.0000000000 0.3391999900 1.0000000000 0.9487000108
  -999.250000 98.750000000 0.8761000037  -999.250000 2.3359000683 0.1763000041
 0.2919999957 41.812999725 2084.8320313  -999.250000 8.3125000000  -999.250000
  -999.250000  -999.250000  -999.250000
 2084.9843333
 1.0000000000 0.0000000000 0.0000000000 0.3161000013 1.0000000000 0.8560000062
  -999.250000 98.750000000 1.5463999510  -999.250000 2.3241999149 0.1849000007
 0.2822000086 40.219001770 2084.9843750  -999.250000 8.2968997955  -999.250000
  -999.250000  -999.250000  -999.250000
 2085.1367333
 1.0000000000 0.0000000000 0.0000000000 0.3151000142 1.0000000000 0.7670999765
  -999.250000 100.63510132 4.5613999367  -999.250000 2.2969000340 0.2013999969
 0.2802999914 41.187099457 2085.1367188  -999.250000 8.3670997620  -999.250000
  -999.250000  -999.250000  -999.250000
 2085.2891333
 1.0000000000 0.0000000000 0.0000000000 0.3028999865 1.0000000000 0.6996999979
  -999.250000 110.25050354 9.6604003906  -999.250000 2.2792999744 0.2127999961
 0.2944000065 39.439899445 2085.2893066  -999.250000 8.2343997955  -999.250000
  -999.250000  -999.250000  -999.250000
 2085.4415333
 1.0000000000 0.0000000000 0.0000000000 0.3183999956 1.0000000000 0.6503000259
  -999.250000 110.75170135 18.020900726  -999.250000 2.2616999149 0.2222000062
 0.3027000129 41.565399170 2085.4416504  -999.250000 8.1953001022  -999.250000
  -999.250000  -999.250000  -999.250000
 2085.5939333
 1.0000000000 0.0000000000 0.0000000000 0.3032999933 1.0000000000 0.6093000174
  -999.250000 112.12699890 41.685600281  -999.250000 2.2421998978 0.2349999994
 0.3080999851 43.437599182 2085.5939941  -999.250000 8.1953001022  -999.250000
  -999.250000  -999.250000  -999.250000
 2085.7463333
 1.0000000000 0.0000000000 0.0000000000 0.2815999985 1.0000000000 0.5824999809
  -999.250000 116.36969757 92.125503540  -999.250000 2.2246000767 0.2469999939
 0.3095999956 43.218898773 2085.7463379  -999.250000 8.1718997955  -999.250000
  -999.250000  -999.250000  -999.250000
 2085.8987333
 1.0000000000 0.0000000000 0.0000000000 0.2646999955 1.0000000000 0.5590999722
  -999.250000 116.25009918 135.34820557  -999.250000 2.2167999744 0.2527999878
 0.3070999980 43.187999725 2085.8986816  -999.250000 8.1640996933  -999.250000
  -999.250000  -999.250000  -999.250000
 2086.0511332
 1.0000000000 0.0000000000 0.0000000000 0.2418999970 1.0000000000 0.5346999764
  -999.250000 118.36900330 138.98280334  -999.250000 2.2188000679 0.2533000112
 0.2964000106 40.532199860 2086.0512695  -999.250000 8.1718997955  -999.250000
  -999.250000  -999.250000  -999.250000
 2086.2035332
 1.0000000000 0.0000000000 0.0000000000 0.2623000145 1.0000000000 0.5170999765
  -999.250000 116.00000000 201.43080139  -999.250000 2.2070000172 0.2588999867
 0.3120000064 40.469001770 2086.2036133  -999.250000 8.1718997955  -999.250000
  -999.250000  -999.250000  -999.250000
 2086.3559332
 1.0000000000 0.0000000000 0.0000000000 0.2432000041 1.0000000000 0.5062999725
  -999.250000 115.37000275 348.85598755  -999.250000 2.1953001022 0.2671999931
 0.3109999895 37.969001770 2086.3559570  -999.250000 8.1718997955  -999.250000
  -999.250000  -999.250000  -999.250000
 2086.5083332
 1.0000000000 0.0000000000 0.0000000000 0.2635000050 1.0000000000 0.4966000021
  -999.250000 118.36750031 432.12341309  -999.250000 2.1875000000 0.2705000043
 0.3242000043 36.999599457 2086.5083008  -999.250000 8.1718997955  -999.250000
  -999.250000  -999.250000  -999.250000
 2086.6607332
 1.0000000000 0.0000000000 0.0000000000 0.2405000031 1.0000000000 0.4916999936
  -999.250000 114.50000000 560.40350342  -999.250000 2.1835999489 0.2743999958
 0.3169000149 36.344100952 2086.6608887  -999.250000 8.1953001022  -999.250000
  -999.250000  -999.250000  -999.250000
 2086.8131332
 1.0000000000 0.0000000000 0.0000000000 0.2608999908 1.0000000000 0.4867999852
  -999.250000 114.49790192 510.21868896  -999.250000 2.1835999489 0.2730000019
 0.3355000019 36.498901367 2086.8132324  -999.250000 8.2187995911  -999.250000
  -999.250000  -999.250000  -999.250000
 2086.9655332
 1.0000000000 0.0000000000 0.0000000000 0.2486999929 1.0000000000 0.4848999977
  -999.250000 112.99720001 583.67089844  -999.250000 2.1816000938 0.2750000060
 0.3407999873 35.687801361 2086.9655762  -999.250000 8.1953001022  -999.250000
  -999.250000  -999.250000  -999.250000
 2087.1179332
 1.0000000000 0.0000000000 0.0000000000 0.2480999976 1.0000000000 0.4921999872
  -999.250000 111.37599945 463.79370117  -999.250000 2.1875000000 0.2714999914
 0.3364000022 35.595500946 2087.1179199  -999.250000 8.2187995911  -999.250000
  -999.250000  -999.250000  -999.250000
 2087.2703332
 1.0000000000 0.0000000000 0.0000000000 0.2579999864 1.0000000000 0.5059000254
  -999.250000 109.50129700 380.14410400  -999.250000 2.1914000511 0.2685000002
 0.3251999915 36.312500000 2087.2705078  -999.250000 8.2109003067  -999.250000
  -999.250000  -999.250000  -999.250000
 2087.4227332
 1.0000000000 0.0000000000 0.0000000000 0.2556999922 1.0000000000 0.5166000128
  -999.250000 107.00000000 355.05371094  -999.250000 2.1933999062 0.2675000131
 0.3174000084 36.187999725 2087.4228516  -999.250000 8.2187995911  -999.250000
  -999.250000  -999.250000  -999.250000
 2087.5751332
 1.0000000000 0.0000000000 0.0000000000 0.2388000041 1.0000000000 0.5199999809
  -999.250000 106.62999725 241.88810730  -999.250000 2.2051000595 0.2617000043
 0.3066000044 34.937999725 2087.5751953  -999.250000 8.2187995911  -999.250000
  -999.250000  -999.250000  -999.250000
 2087.7275332
 1.0000000000 0.0000000000 0.0000000000 0.2304999977 1.0000000000 0.5185999870
  -999.250000 104.25050354 85.657501221  -999.250000 2.2323999405 0.2459000051
 0.2881000042 34.314098358 2087.7275391  -999.250000 8.2343997955  -999.250000
  -999.250000  -999.250000  -999.250000
 2087.8799332
 1.0000000000 0.0000000000 0.0000000000 0.2415000051 1.0000000000 0.5243999958
  -999.250000 105.37889862 55.328201294  -999.250000 2.2421998978 0.2392999977
 0.2822000086 37.126499176 2087.8798828  -999.250000 8.2500000000  -999.250000
  -999.250000  -999.250000  -999.250000
 2088.0323332
 1.0000000000 0.0000000000 0.0000000000 0.2786000073 1.0000000000 0.5522999763
  -999.250000 103.99870300 58.873500824  -999.250000 2.2362999916 0.2401999980
 0.3012999892 39.094600677 2088.0324707  -999.250000 8.2578001022  -999.250000
  -999.250000  -999.250000  -999.250000
 2088.1847332
 1.0000000000 0.0000000000 0.0000000000 0.3055000007 1.0000000000 0.6046000123
  -999.250000 102.87640381 76.147598267  -999.250000 2.2265999317 0.2441000044
 0.3183999956 39.625999451 2088.1848145  -999.250000 8.2500000000  -999.250000
  -999.250000  -999.250000  -999.250000
 2088.3371332
 1.0000000000 0.0000000000 0.0000000000 0.3131999969 1.0000000000 0.6862000227
  -999.250000 100.47920227 42.938499451  -999.250000 2.2402999401 0.2354000062
 0.3134000003 40.304798126 2088.3371582  -999.250000 8.2498998642  -999.250000
  -999.250000  -999.250000  -999.250000
 2088.4895332
 1.0000000000 0.0000000000 0.0000000000 0.2529999912 1.0000000000 0.7767999768
  -999.250000 89.385597229 13.177000046  -999.250000 2.2772998810 0.2175000012
 0.2890999913 35.942199707 2088.4895020  -999.250000 8.2187995911  -999.250000
  -999.250000  -999.250000  -999.250000
 2088.6419332
 1.0000000000 0.0000000000 0.1999000013 0.2257999927 1.0000000000 0.8744999766
  -999.250000 82.878799438 7.4478001595  -999.250000 2.2948999405 0.2088000029
 0.2651999891 34.064098358 2088.6420898  -999.250000 8.1953001022  -999.250000
  -999.250000  -999.250000  -999.250000
