# LAS format log file from PETREL
# Project units are specified as depth units
#==================================================================
~Version information
VERS.   2.0:
WRAP.   YES:
#==================================================================
~Well
STRT .m      800.09997440 :
STOP .m      2299.7159264 :
STEP .m     0.15240000 :
NULL .        -999.250000 :
COMP.           : COMPANY
WELL.  34/10-11   : WELL
FLD.            : FIELD
LOC.            : LOCATION
SRVC.           : SERVICE COMPANY
DATE.  Wednesday, March 31 2010 12:33:12   : DATE
PROV.           : PROVINCE
UWI.      : UNIQUE WELL ID
API.            : API NUMBER
#==================================================================
~Curve
DEPT .m                   : DEPTH
NETS .                    : NETS
COAL .                    : COAL
CARB .                    : CARB
VSH .                     : VSH
SW .                      : SW
ILD .ohm.m                : ILD
MSFL .ohm.m               : MSFL
LLS .ohm.m                : LLS
LLD .ohm.m                : LLD
ILM .ohm.m                : ILM
DT .us/ft                 : DT
KLOG .mD                  : KLOG
DRHO .g/cm3               : DRHO
RHOB .g/cm3               : RHOB
PHIF .m3/m3               : PHIF
NPHI .m3/m3               : NPHI
GR .gAPI                  : GR
DEPT .m                   : DEPT
TIME .ms                  : TIME
CALI .in                  : CALI
BS .in                    : BS
QTOT .rm3/d               : QTOT
QWAT .sm3/d               : QWAT
GeneralTime1 .ms          : General Time 1
~Parameter
#==================================================================
~Ascii
# ...
 1943.0999378
 0.0000000000 0.0000000000 0.0000000000 0.4650999904 0.6126999855 2.0527000427
 5.9383997917 1.9672000408 2.5759999752  -999.250000 91.756401062 0.0001000000
  -999.250000 2.3905999660 0.1289999932 0.2813000083 61.223400116 1943.0999756
  -999.250000 8.4217996597  -999.250000  -999.250000  -999.250000  -999.250000
 1943.2523378
 0.0000000000 0.0000000000 0.0000000000 0.4131999910 0.5590000153 2.0332000256
 2.8046998978 1.9421000481 2.6029000282  -999.250000 98.375000000 0.0153000001
  -999.250000 2.3438000679 0.1544000059 0.2813000083 65.813003540 1943.2524414
  -999.250000 8.3593997955  -999.250000  -999.250000  -999.250000  -999.250000
 1943.4047378
 0.0000000000 0.0000000000 0.0000000000 0.3555000126 0.4891999960 1.9882999659
 1.2577999830 1.9513000250 2.5889999866  -999.250000 114.55999756 0.3402999938
  -999.250000 2.3008000851 0.1904000044 0.2890999913 72.188003540 1943.4047852
  -999.250000 8.7187995911  -999.250000  -999.250000  -999.250000  -999.250000
 1943.5571378
 0.0000000000 0.0000000000 0.0000000000 0.3853000104 0.5350999832 2.0371000767
 1.1446000338 1.9423999786 2.5938000679  -999.250000 121.19280243 0.2143000066
 0.0005000000 2.2813000679 0.2150000036 0.3282000124 71.376296997 1943.5572510
  -999.250000 8.4766998291  -999.250000  -999.250000  -999.250000  -999.250000
 1943.7095378
 0.0000000000 0.0000000000 0.0000000000 0.5636000037 0.5065000057 1.9364000559
 1.2948999405 1.9455000162 2.5803999901  -999.250000 127.19349670 0.0070000002
 0.0063000000 2.2792999744 0.2064999938 0.4068000019 74.119102478 1943.7095947
  -999.250000 8.6248998642  -999.250000  -999.250000  -999.250000  -999.250000
 1943.8619378
 0.0000000000 0.0000000000 0.0000000000 0.7242000103 0.5008999705 1.8350000381
 1.3144999743 1.9336999655 2.5855998993  -999.250000 131.36830139 0.0002000000
 0.0005000000 2.2909998894 0.1855999976 0.4643000066 67.065803528 1943.8620605
  -999.250000 8.5078001022  -999.250000  -999.250000  -999.250000  -999.250000
 1944.0143378
 0.0000000000 0.0000000000 0.0000000000 0.8719999790 0.5188000202 1.7129000425
 1.8867000341 1.9420000315 2.5936000347  -999.250000 133.11999512 0.0000000000
  -999.250000 2.3417999744 0.1480000019 0.4990000129 64.563003540 1944.0144043
  -999.250000 8.6015996933  -999.250000  -999.250000  -999.250000  -999.250000
 1944.1667378
 0.0000000000 0.0000000000 0.0000000000 0.7443000078 0.6564999819 1.5565999746
 2.2969000340 1.8860000372 2.5857000351  -999.250000 122.37000275 0.0000000000
  -999.250000 2.4121000767 0.1116999984 0.4769999981 55.905998230 1944.1667480
  -999.250000 8.6484003067  -999.250000  -999.250000  -999.250000  -999.250000
 1944.3191378
 0.0000000000 0.0000000000 0.0000000000 0.7645999789 0.7662000060 1.4414000511
 1.4579000473 1.6791000366 2.2091999054  -999.250000 111.37619781 0.0000000000
  -999.250000 2.4727001190 0.0750000030 0.4515999854 56.812000275 1944.3192139
  -999.250000 8.6717996597  -999.250000  -999.250000  -999.250000  -999.250000
 1944.4715378
 0.0000000000 0.0000000000 0.0000000000 0.7235999703 0.8264999986 1.4120999575
 1.3135999441 1.3952000141 1.8145999908  -999.250000 106.00279999 0.0000000000
 0.0107000005 2.4688000679 0.0870999992 0.4194000065 55.469699860 1944.4715576
  -999.250000 8.4688997269  -999.250000  -999.250000  -999.250000  -999.250000
 1944.6239378
 0.0000000000 0.0000000000 0.0000000000 0.7883999944 0.8583999872 1.3876999617
 1.2725000381 1.2987999916 1.6958999634  -999.250000 109.55999756 0.0000000000
 0.0518000014 2.4609000683 0.0886000022 0.4268000126 58.875000000 1944.6240234
  -999.250000 8.3984003067  -999.250000  -999.250000  -999.250000  -999.250000
 1944.7763378
 0.0000000000 0.0000000000 0.0000000000 0.8068000078 0.7623000145 1.3710999489
 1.2548999786 1.2604000568 1.6678999662  -999.250000 122.37000275 0.0000000000
 0.0531999990 2.4082000256 0.1171000004 0.4429000020 59.750000000 1944.7763672
  -999.250000 8.4062995911  -999.250000  -999.250000  -999.250000  -999.250000
 1944.9287378
 0.0000000000 0.0000000000 0.0000000000 0.8255000114 0.6710000038 1.3437000513
 1.2637000084 1.2345999479 1.6549999714  -999.250000 126.99870300 0.0000000000
 0.0307000000 2.3515999317 0.1467999965 0.4751000106 62.622699738 1944.9288330
  -999.250000 8.4454002380  -999.250000  -999.250000  -999.250000  -999.250000
 1945.0811378
 0.0000000000 0.0000000000 0.0000000000 0.7576000094 0.6352000237 1.2587000132
 1.2529000044 1.2087999582 1.6575000286  -999.250000 124.74680328 0.0000000000
 0.0093000000 2.3104999065 0.1736000031 0.4686999917 58.651100159 1945.0811768
  -999.250000 8.6953001022  -999.250000  -999.250000  -999.250000  -999.250000
 1945.2335378
 0.0000000000 0.0000000000 0.0000000000 0.6967999935 0.6327000260 1.1553000212
 1.2323999405 1.2314000130 1.6572999954  -999.250000 121.37000275 0.0001000000
 0.0005000000 2.3008000851 0.1832000017 0.4584999979 53.469001770 1945.2336426
  -999.250000 8.6953001022  -999.250000  -999.250000  -999.250000  -999.250000
 1945.3859377
 0.0000000000 0.0000000000 0.0000000000 0.5328999758 0.6758999825 1.0908000469
 1.3486000299 1.2058000565 1.6339000463  -999.250000 117.55999756 0.0001000000
 0.0000000000 2.3085999489 0.1911000013 0.4419000149 45.655998230 1945.3859863
  -999.250000 8.6640996933  -999.250000  -999.250000  -999.250000  -999.250000
 1945.5383377
 0.0000000000 0.0000000000 0.0000000000 0.5267999768 0.6829000115 1.0410000086
 1.3173999786 1.1875000000 1.6066000462  -999.250000 114.75050354 0.0001000000
 -0.0000000000 2.3066000938 0.1899999976 0.4433999956 45.344001770 1945.5384521
  -999.250000 8.6718997955  -999.250000  -999.250000  -999.250000  -999.250000
 1945.6907377
 0.0000000000 0.0000000000 0.0000000000 0.5216000080 0.6818000078 1.0137000084
 1.2676000595 1.1705000401 1.6078000069  -999.250000 115.75319672 0.0001000000
  -999.250000 2.3008000851 0.1941000074 0.4521999955 45.314399719 1945.6907959
  -999.250000 8.5859003067  -999.250000  -999.250000  -999.250000  -999.250000
 1945.8431377
 0.0000000000 0.0000000000 0.0000000000 0.5536000133 0.6814000010 1.0146000385
 1.2655999660 1.2174999714 1.6598000526  -999.250000 119.55850220 0.0000000000
  -999.250000 2.3085999489 0.1888000071 0.4614000022 46.968299866 1945.8431396
  -999.250000 8.5468997955  -999.250000  -999.250000  -999.250000  -999.250000
 1945.9955377
 0.0000000000 0.0000000000 0.0000000000 0.5000000000 0.6866999865 1.0448999405
 2.2246000767 1.2980999947 1.7834000587  -999.250000 123.55999756 0.0000000000
 0.0020000001 2.3125000000 0.1905999929 0.4535999894 44.405998230 1945.9956055
  -999.250000 8.5312995911  -999.250000  -999.250000  -999.250000  -999.250000
 1946.1479377
 0.0000000000 0.0000000000 0.0000000000 0.5297999978 0.5763999820 1.0850000381
 1.4385000467 1.4065999985 1.9273999929  -999.250000 128.36999512 0.0000000000
  -999.250000 2.3145000935 0.1747999936 0.4555999935 45.750000000 1946.1479492
  -999.250000 8.5703001022  -999.250000  -999.250000  -999.250000  -999.250000
 1946.3003377
 0.0000000000 0.0000000000 0.0000000000 0.4887999892 0.6600999832 1.1476000547
 1.2969000340 1.4973000288 2.0127999783  -999.250000 124.99449921 0.0000000000
  -999.250000 2.3241999149 0.1817000061 0.4404000044 43.626899719 1946.3004150
  -999.250000 8.6250000000  -999.250000  -999.250000  -999.250000  -999.250000
 1946.4527377
 0.0000000000 0.0000000000 0.0000000000 0.5472999811 0.7175999880 1.2333999872
 1.2440999746 1.7596000433 2.3647000790  -999.250000 117.19409943 0.0000000000
  -999.250000 2.3828001022 0.1492999941 0.4359999895 46.311599731 1946.4527588
  -999.250000 8.6796998978  -999.250000  -999.250000  -999.250000  -999.250000
 1946.6051377
 0.0000000000 0.0000000000 0.0000000000 0.5291000009 0.7566000223 1.3603999615
 1.2196999788 2.7084999084 3.5985999107  -999.250000 112.19000244 0.0000000000
 0.0005000000 2.4335999489 0.1238999963 0.4203999937 45.375000000 1946.6052246
  -999.250000 8.7031002045  -999.250000  -999.250000  -999.250000  -999.250000
 1946.7575377
 0.0000000000 0.0000000000 0.0000000000 0.5677999854 0.6445999742 1.5283000469
 1.1981999874 2.5729000568 3.3080000877  -999.250000 106.00000000 0.0000000000
  -999.250000 2.4530999660 0.1106999964 0.3944999874 47.219001770 1946.7575684
  -999.250000 8.7109003067  -999.250000  -999.250000  -999.250000  -999.250000
