# LAS format log file from PETREL
# Project units are specified as depth units
#==================================================================
~Version information
VERS.   2.0:
WRAP.   YES:
#==================================================================
~Well
STRT .m      800.09997440 :
STOP .m      2449.8299216 :
STEP .m     0.15240000 :
NULL .        -999.250000 :
COMP.           : COMPANY
WELL.  34/10-15   : WELL
FLD.            : FIELD
LOC.            : LOCATION
SRVC.           : SERVICE COMPANY
DATE.  Wednesday, March 31 2010 12:33:14   : DATE
PROV.           : PROVINCE
UWI.      : UNIQUE WELL ID
API.            : API NUMBER
#==================================================================
~Curve
DEPT .m                   : DEPTH
NETS .                    : NETS
COAL .                    : COAL
CARB .                    : CARB
VSH .                     : VSH
SW .                      : SW
ILD .ohm.m                : ILD
MSFL .ohm.m               : MSFL
LLS .ohm.m                : LLS
LLD .ohm.m                : LLD
ILM .ohm.m                : ILM
DT .us/ft                 : DT
KLOG .mD                  : KLOG
DRHO .g/cm3               : DRHO
RHOB .g/cm3               : RHOB
PHIF .m3/m3               : PHIF
NPHI .m3/m3               : NPHI
GR .gAPI                  : GR
DEPT .m                   : DEPT
TIME .ms                  : TIME
CALI .in                  : CALI
BS .in                    : BS
QTOT .rm3/d               : QTOT
QWAT .sm3/d               : QWAT
GeneralTime1 .ms          : General Time 1
~Parameter
#==================================================================
~Ascii
# ...
 1767.8399434
  -999.250000  -999.250000 0.0000000000 1.0000000000  -999.250000 0.9390000105
 1.5733000040 1.1576000452 1.0485999584  -999.250000 126.49949646  -999.250000
  -999.250000 2.2637000084 0.0000000000 0.3862000108 69.566398621 1767.8399658
  -999.250000 9.4609003067  -999.250000  -999.250000  -999.250000  -999.250000
 1767.9923434
  -999.250000  -999.250000 0.0000000000 1.0000000000  -999.250000 0.9394999743
 1.6239999533 1.1534999609 1.0315999985  -999.250000 126.00000000  -999.250000
  -999.250000 2.2558999062 0.0000000000 0.3862000108 72.875000000 1767.9924316
  -999.250000 9.4765996933  -999.250000  -999.250000  -999.250000  -999.250000
 1768.1447434
  -999.250000  -999.250000 0.0000000000 1.0000000000  -999.250000 0.9390000105
 1.6152000427 1.1239999533 1.0329999924  -999.250000 126.25000000  -999.250000
  -999.250000 2.2637000084 0.0000000000 0.4004000127 72.688003540 1768.1447754
  -999.250000 9.5078001022  -999.250000  -999.250000  -999.250000  -999.250000
 1768.2971434
  -999.250000  -999.250000 0.0000000000 1.0000000000  -999.250000 0.9365000129
 1.6289000511 1.1426000595 1.0238000154  -999.250000 126.24949646  -999.250000
 0.0005000000 2.2655999660 0.0000000000 0.4149999917 72.062896729 1768.2972412
  -999.250000 9.4609003067  -999.250000  -999.250000  -999.250000  -999.250000
 1768.4495434
  -999.250000  -999.250000 0.0000000000 1.0000000000  -999.250000 0.9351000190
 1.6161999702 1.1131000519 1.0097999573  -999.250000 125.25160217  -999.250000
  -999.250000 2.2655999660 0.0000000000 0.4219000041 71.877296448 1768.4495850
  -999.250000 9.5233001709  -999.250000  -999.250000  -999.250000  -999.250000
 1768.6019434
  -999.250000  -999.250000 0.0000000000 1.0000000000  -999.250000 0.9351000190
 1.6454999447 1.1203000546 1.0001000166  -999.250000 127.00000000  -999.250000
  -999.250000 2.2558999062 0.0000000000 0.4291999936 74.438003540 1768.6020508
  -999.250000 9.4140996933  -999.250000  -999.250000  -999.250000  -999.250000
 1768.7543434
  -999.250000  -999.250000 0.0000000000 1.0000000000  -999.250000 0.9369999766
 1.5702999830 1.1133999825 1.0053000450  -999.250000 127.25000000  -999.250000
  -999.250000 2.2479999065 0.0000000000 0.4219000041 74.375000000 1768.7543945
  -999.250000 9.4140996933  -999.250000  -999.250000  -999.250000  -999.250000
 1768.9067434
  -999.250000  -999.250000 0.0000000000 1.0000000000  -999.250000 0.9409000278
 1.5986000299 1.0970000029 1.0214999914  -999.250000 129.49949646  -999.250000
  -999.250000 2.2479999065 0.0000000000 0.4203999937 76.124099731 1768.9068604
  -999.250000 9.5000000000  -999.250000  -999.250000  -999.250000  -999.250000
 1769.0591434
  -999.250000  -999.250000 0.0000000000 1.0000000000  -999.250000 0.9442999959
 1.4746999741 1.0976999998 1.0082999468  -999.250000 128.25000000  -999.250000
  -999.250000 2.2558999062 0.0000000000 0.4052999914 73.876899719 1769.0592041
  -999.250000 9.5001001358  -999.250000  -999.250000  -999.250000  -999.250000
 1769.2115434
  -999.250000  -999.250000 0.0000000000 1.0000000000  -999.250000 0.9506999850
 1.5945999622 1.1051000357 1.0110000372  -999.250000 128.25000000  -999.250000
  -999.250000 2.2578001022 0.0000000000 0.4214000106 76.373901367 1769.2115479
  -999.250000 9.5859003067  -999.250000  -999.250000  -999.250000  -999.250000
 1769.3639434
  -999.250000  -999.250000 0.0000000000 1.0000000000  -999.250000 0.9531000257
 1.4297000170 1.1132999659 1.0242999792  -999.250000 127.50000000  -999.250000
  -999.250000 2.2616999149 0.0000000000 0.4253000021 75.188003540 1769.3640137
  -999.250000 9.5781002045  -999.250000  -999.250000  -999.250000  -999.250000
 1769.5163434
  -999.250000  -999.250000 0.0000000000 1.0000000000  -999.250000 0.9516999722
 1.5155999660 1.1252000332 1.0124000311  -999.250000 126.25000000  -999.250000
  -999.250000 2.2578001022 0.0000000000 0.4390000105 74.250000000 1769.5163574
  -999.250000 9.7109003067  -999.250000  -999.250000  -999.250000  -999.250000
 1769.6687434
  -999.250000  -999.250000 0.0000000000 1.0000000000  -999.250000 0.9463000298
 1.4951000214 1.1292999983 1.0232000351  -999.250000 127.00000000  -999.250000
  -999.250000 2.2597999573 0.0000000000 0.4379999936 68.497596741 1769.6688232
  -999.250000 9.6483001709  -999.250000  -999.250000  -999.250000  -999.250000
 1769.8211434
  -999.250000  -999.250000 0.0000000000 1.0000000000  -999.250000 0.9384999871
 1.4708000422 1.1233999729 1.0268000364  -999.250000 127.00080109  -999.250000
  -999.250000 2.2558999062 0.0000000000 0.4388999939 64.749397278 1769.8211670
  -999.250000 9.5391998291  -999.250000  -999.250000  -999.250000  -999.250000
 1769.9735434
  -999.250000  -999.250000 0.0000000000 1.0000000000  -999.250000 0.9330999851
 1.5214999914 1.1217000484 1.0240000486  -999.250000 127.75000000  -999.250000
  -999.250000 2.2441000938 0.0000000000 0.4208999872 64.125000000 1769.9736328
  -999.250000 9.6093997955  -999.250000  -999.250000  -999.250000  -999.250000
 1770.1259434
  -999.250000  -999.250000 0.0000000000 1.0000000000  -999.250000 0.9326000214
 1.4335999489 1.1003999710 1.0319999456  -999.250000 128.50000000  -999.250000
  -999.250000 2.2246000767 0.0000000000 0.4365000129 66.875000000 1770.1259766
  -999.250000 9.3359003067  -999.250000  -999.250000  -999.250000  -999.250000
 1770.2783434
  -999.250000  -999.250000 0.0000000000 1.0000000000  -999.250000 0.9311000109
 1.5439000130 1.1123000383 1.0166000128  -999.250000 129.24920654  -999.250000
  -999.250000 2.2128999233 0.0000000000 0.4560999870 70.501502991 1770.2784424
  -999.250000 9.3046998978  -999.250000  -999.250000  -999.250000  -999.250000
 1770.4307433
  -999.250000  -999.250000 0.0000000000 1.0000000000  -999.250000 0.9276999831
 1.4539999962 1.0893000364 1.0097999573  -999.250000 127.74890137  -999.250000
  -999.250000 2.2188000679 0.0000000000 0.4589000046 73.371696472 1770.4307861
  -999.250000 9.2655000687  -999.250000  -999.250000  -999.250000  -999.250000
 1770.5831433
  -999.250000  -999.250000 0.0000000000 1.0000000000  -999.250000 0.9253000021
 1.3476999998 1.1023000479 0.9914000034  -999.250000 126.50000000  -999.250000
  -999.250000 2.2227001190 0.0000000000 0.4126000106 69.625000000 1770.5832520
  -999.250000 9.1640996933  -999.250000  -999.250000  -999.250000  -999.250000
 1770.7355433
  -999.250000  -999.250000 0.0000000000 1.0000000000  -999.250000 0.9237999916
 1.3301000595 1.0805000067 0.9829999804  -999.250000 124.75000000  -999.250000
  -999.250000 2.2304999828 0.0000000000 0.3970000148 68.250000000 1770.7355957
  -999.250000 8.9062995911  -999.250000  -999.250000  -999.250000  -999.250000
 1770.8879433
  -999.250000  -999.250000 0.0000000000 1.0000000000  -999.250000 0.9208999872
 1.3418999910 1.0763000250 0.9915999770  -999.250000 130.99940491  -999.250000
  -999.250000 2.2304999828 0.0000000000 0.4081999958 67.063796997 1770.8879395
  -999.250000 8.8828001022  -999.250000  -999.250000  -999.250000  -999.250000
 1771.0403433
  -999.250000  -999.250000 0.0000000000 1.0000000000  -999.250000 0.9208999872
 1.5642000437 1.0972000360 1.0041999817  -999.250000 129.50079346  -999.250000
 0.0029000000 2.2402000427 0.0000000000 0.4330999851 69.189498901 1771.0404053
  -999.250000 8.9373998642  -999.250000  -999.250000  -999.250000  -999.250000
 1771.1927433
  -999.250000  -999.250000 0.0000000000 1.0000000000  -999.250000 0.9233000278
 1.2316000462 1.1046999693 1.0377000570  -999.250000 130.49949646  -999.250000
 0.0038999999 2.2460999489 0.0000000000 0.4375000000 71.124099731 1771.1927490
  -999.250000 8.7579002380  -999.250000  -999.250000  -999.250000  -999.250000
 1771.3451433
  -999.250000  -999.250000 0.0000000000 1.0000000000  -999.250000 0.9223999977
 1.3173999786 1.1207000017 1.0434000492  -999.250000 125.75000000  -999.250000
 0.0005000000 2.2479999065 0.0000000000 0.4390000105 71.500000000 1771.3452148
  -999.250000 8.7734003067  -999.250000  -999.250000  -999.250000  -999.250000
 1771.4975433
  -999.250000  -999.250000 0.0000000000 1.0000000000  -999.250000 0.9204000235
 1.3173999786 1.1073000431 1.0461000204  -999.250000 126.75000000  -999.250000
  -999.250000 2.2460999489 0.0000000000 0.4467999935 73.375000000 1771.4975586
  -999.250000 8.7812995911  -999.250000  -999.250000  -999.250000  -999.250000
