# LAS format log file from PETREL
# Project units are specified as depth units
#==================================================================
~Version information
VERS.   2.0:
WRAP.   YES:
#==================================================================
~Well
STRT .m      800.09997440 :
STOP .m      2299.7159264 :
STEP .m     0.15240000 :
NULL .        -999.250000 :
COMP.           : COMPANY
WELL.  34/10-19   : WELL
FLD.            : FIELD
LOC.            : LOCATION
SRVC.           : SERVICE COMPANY
DATE.  Wednesday, March 31 2010 12:33:14   : DATE
PROV.           : PROVINCE
UWI.      : UNIQUE WELL ID
API.            : API NUMBER
#==================================================================
~Curve
DEPT .m                   : DEPTH
NETS .                    : NETS
COAL .                    : COAL
CARB .                    : CARB
VSH .                     : VSH
SW .                      : SW
ILD .ohm.m                : ILD
ILM .ohm.m                : ILM
DT .us/ft                 : DT
KLOG .mD                  : KLOG
DRHO .g/cm3               : DRHO
RHOB .g/cm3               : RHOB
PHIF .m3/m3               : PHIF
NPHI .m3/m3               : NPHI
GR .gAPI                  : GR
DEPT .m                   : DEPT
TIME .ms                  : TIME
CALI .in                  : CALI
BS .in                    : BS
QTOT .rm3/d               : QTOT
QWAT .sm3/d               : QWAT
GeneralTime1 .ms          : General Time 1
~Parameter
#==================================================================
~Ascii
# ...
 2122.9319321
 0.0000000000 0.0000000000 0.0000000000 0.8680999875 0.7605999708 1.5655000210
  -999.250000 118.86730194 0.0606000014 0.0034000000 2.3417999744 0.1358000040
 0.4848000109 79.317298889 2122.9318848  -999.250000 8.3203001022  -999.250000
  -999.250000  -999.250000  -999.250000
 2123.0843321
 0.0000000000 0.0000000000 0.0000000000 0.7454000115 0.8324000239 1.4893000126
  -999.250000 120.86900330 0.0785000026 0.0126999998 2.3496000767 0.1396999955
 0.4896999896 70.692100525 2123.0844727  -999.250000 8.2500000000  -999.250000
  -999.250000  -999.250000  -999.250000
 2123.2367321
 0.0000000000 0.0000000000 0.0000000000 0.6614000201 0.8360000253 1.4091999531
  -999.250000 121.37000275 0.2698999941 0.0151000004 2.3280999660 0.1583999991
 0.4657999873 64.688003540 2123.2368164  -999.250000 8.2656002045  -999.250000
  -999.250000  -999.250000  -999.250000
 2123.3891321
 0.0000000000 0.0000000000 0.0000000000 0.6251999736 0.8212000132 1.3398000002
  -999.250000 121.62000275 0.8022999763 0.0107000005 2.3046998978 0.1749999970
 0.4535999894 62.280998230 2123.3891602  -999.250000 8.2265996933  -999.250000
  -999.250000  -999.250000  -999.250000
 2123.5415320
 0.0000000000 0.0000000000 0.0000000000 0.6057000160 0.8011999726 1.3065999746
  -999.250000 122.99980164 1.8940999508 0.0034000000 2.2852001190 0.1879999936
 0.4623999894 60.813301086 2123.5415039  -999.250000 8.2500000000  -999.250000
  -999.250000  -999.250000  -999.250000
 2123.6939320
 0.0000000000 0.0000000000 0.0000000000 0.6140000224 0.7954000235 1.2870999575
  -999.250000 122.74559784 2.2990000248  -999.250000 2.2792999744 0.1909999996
 0.4873000085 61.370601654 2123.6940918  -999.250000 8.2578001022  -999.250000
  -999.250000  -999.250000  -999.250000
 2123.8463320
 0.0000000000 0.0000000000 0.0000000000 0.5522999763 0.8424999714 1.2666000128
  -999.250000 118.36019897 1.6504000425  -999.250000 2.2948999405 0.1859000027
 0.4745999873 56.931301117 2123.8464355  -999.250000 8.2812995911  -999.250000
  -999.250000  -999.250000  -999.250000
 2123.9987320
 0.0000000000 0.0000000000 0.0000000000 0.4835999906 0.9136999846 1.2509000301
  -999.250000 111.24040222 0.8317999840  -999.250000 2.3203999996 0.1755000055
 0.4668000042 52.052700043 2123.9987793  -999.250000 8.2889995575  -999.250000
  -999.250000  -999.250000  -999.250000
 2124.1511320
 0.0000000000 0.0000000000 0.0000000000 0.3984000087 1.0000000000 1.2166999578
  -999.250000 105.74160004 0.3075999916  -999.250000 2.3554999828 0.1604000032
 0.4442000091 46.152000427 2124.1511230  -999.250000 8.2500000000  -999.250000
  -999.250000  -999.250000  -999.250000
 2124.3035320
 0.0000000000 0.0000000000 0.0000000000 0.3720999956 1.0000000000 1.1826000214
  -999.250000 101.75289917 0.1879999936  -999.250000 2.3710999489 0.1528999954
 0.3907000124 44.251399994 2124.3037109  -999.250000 8.2656002045  -999.250000
  -999.250000  -999.250000  -999.250000
 2124.4559320
 0.0000000000 0.0000000000 0.0000000000 0.3483999968 1.0000000000 1.1591999531
  -999.250000 100.00000000 0.1797000021  -999.250000 2.3750000000 0.1523000002
 0.3359000087 42.437999725 2124.4560547  -999.250000 8.3203001022  -999.250000
  -999.250000  -999.250000  -999.250000
 2124.6083320
 0.0000000000 0.0000000000 0.0000000000 0.3465999961 1.0000000000 1.1279000044
  -999.250000 100.50000000 0.2286999971  -999.250000 2.3691000938 0.1559000015
 0.2915000021 42.312999725 2124.6083984  -999.250000 8.3203001022  -999.250000
  -999.250000  -999.250000  -999.250000
 2124.7607320
 0.0000000000 0.0000000000 0.0000000000 0.3249000013 1.0000000000 1.0839999914
  -999.250000 103.75000000 0.3704000115  -999.250000 2.3594000340 0.1632000059
 0.2816999853 41.000000000 2124.7607422  -999.250000 8.2343997955  -999.250000
  -999.250000  -999.250000  -999.250000
 2124.9131320
 0.0000000000 0.0000000000 0.0000000000 0.3540999889 1.0000000000 1.0135999918
  -999.250000 104.49870300 0.5145999789  -999.250000 2.3477001190 0.1682000011
 0.2870999873 43.062999725 2124.9130859  -999.250000 8.2343997955  -999.250000
  -999.250000  -999.250000  -999.250000
 2125.0655320
 1.0000000000 0.0000000000 0.0000000000 0.3564000130 1.0000000000 0.9179000258
  -999.250000 102.75080109 1.7490999699  -999.250000 2.3164000511 0.1868000031
 0.2978999913 43.125301361 2125.0656738  -999.250000 8.2734003067  -999.250000
  -999.250000  -999.250000  -999.250000
 2125.2179320
 1.0000000000 0.0000000000 0.0000000000 0.3614000082 1.0000000000 0.8533999920
  -999.250000 103.50070190 4.3126001358  -999.250000 2.2929999828 0.2004999965
 0.3115000129 43.398700714 2125.2180176  -999.250000 8.3046998978  -999.250000
  -999.250000  -999.250000  -999.250000
 2125.3703320
 1.0000000000 0.0000000000 0.0000000000 0.2924999893 1.0000000000 0.7918999791
  -999.250000 104.00559998 18.753000259  -999.250000 2.2637000084 0.2228000015
 0.3032000065 38.466201782 2125.3703613  -999.250000 8.3360996246  -999.250000
  -999.250000  -999.250000  -999.250000
 2125.5227320
 1.0000000000 0.0000000000 0.0000000000 0.2721999884 1.0000000000 0.7206000090
  -999.250000 107.00440216 30.302200317  -999.250000 2.2539000511 0.2301000059
 0.2881000042 36.963798523 2125.5227051  -999.250000 8.4216995239  -999.250000
  -999.250000  -999.250000  -999.250000
 2125.6751320
 1.0000000000 0.0000000000 0.0000000000 0.2379000038 1.0000000000 0.6855999827
  -999.250000 108.99880219 44.749698639  -999.250000 2.2479999065 0.2360000014
 0.2793000042 34.657398224 2125.6752930  -999.250000 8.3204002380  -999.250000
  -999.250000  -999.250000  -999.250000
 2125.8275320
 1.0000000000 0.0000000000 0.0000000000 0.2463999987 1.0000000000 0.6675000191
  -999.250000 112.50000000 63.077999115  -999.250000 2.2383000851 0.2413000017
 0.2865999937 37.530998230 2125.8276367  -999.250000 8.2890996933  -999.250000
  -999.250000  -999.250000  -999.250000
 2125.9799320
 1.0000000000 0.0000000000 0.0000000000 0.2614000142 1.0000000000 0.6523000002
  -999.250000 114.00000000 108.88809967  -999.250000 2.2227001190 0.2495000064
 0.3109999895 36.469001770 2125.9799805  -999.250000 8.2500000000  -999.250000
  -999.250000  -999.250000  -999.250000
 2126.1323320
 1.0000000000 0.0000000000 0.0000000000 0.2397000045 1.0000000000 0.6685000062
  -999.250000 113.99690247 177.03640747  -999.250000 2.2128999233 0.2569000125
 0.3145000041 34.936100006 2126.1323242  -999.250000 8.2500000000  -999.250000
  -999.250000  -999.250000  -999.250000
 2126.2847320
 1.0000000000 0.0000000000 0.0000000000 0.1849000007 1.0000000000 0.6996999979
  -999.250000 107.74620056 97.593597412  -999.250000 2.2344000340 0.2478999943
 0.3149000108 31.046300888 2126.2849121  -999.250000 8.2578001022  -999.250000
  -999.250000  -999.250000  -999.250000
 2126.4371320
 1.0000000000 0.0000000000 0.0000000000 0.1738999933 1.0000000000 0.7315000296
  -999.250000 103.37709808 20.382600784  -999.250000 2.2755000591 0.2240999937
 0.2845999897 30.251600266 2126.4372559  -999.250000 8.2656002045  -999.250000
  -999.250000  -999.250000  -999.250000
 2126.5895319
 1.0000000000 0.0000000000 0.0000000000 0.1923000067 1.0000000000 0.7896999717
  -999.250000 100.99400330 2.5276000500  -999.250000 2.3262000084 0.1923999935
 0.2495000064 31.549100876 2126.5895996  -999.250000 8.2656002045  -999.250000
  -999.250000  -999.250000  -999.250000
 2126.7419319
 1.0000000000 0.0000000000 0.0000000000 0.2100999951 1.0000000000 0.8751999736
  -999.250000 97.237503052 1.4666999578  -999.250000 2.3378999233 0.1841000021
 0.2402999997 32.840400696 2126.7419434  -999.250000 8.2500000000  -999.250000
  -999.250000  -999.250000  -999.250000
 2126.8943319
 0.0000000000 0.0000000000 0.0000000000 0.1850000024 1.0000000000 0.9998999834
  -999.250000 90.880500793 0.8242999911  -999.250000 2.3554999828 0.1754000038
 0.2524000108 31.048500061 2126.8942871  -999.250000 8.2578001022  -999.250000
  -999.250000  -999.250000  -999.250000
 2127.0467319
 0.0000000000 0.0000000000 0.1999000013 0.2067999989 1.0000000000 1.1355999708
  -999.250000 82.504096985 0.0803000033  -999.250000 2.4121000767 0.1400000006
 0.2538999915 32.593200684 2127.0468750  -999.250000 8.2578001022  -999.250000
  -999.250000  -999.250000  -999.250000
