# LAS format log file from PETREL
# Project units are specified as depth units
#==================================================================
~Version information
VERS.   2.0:
WRAP.   YES:
#==================================================================
~Well
STRT .m      800.09997440 :
STOP .m      2449.8299216 :
STEP .m     0.15240000 :
NULL .        -999.250000 :
COMP.           : COMPANY
WELL.  34/10-15   : WELL
FLD.            : FIELD
LOC.            : LOCATION
SRVC.           : SERVICE COMPANY
DATE.  Wednesday, March 31 2010 12:33:14   : DATE
PROV.           : PROVINCE
UWI.      : UNIQUE WELL ID
API.            : API NUMBER
#==================================================================
~Curve
DEPT .m                   : DEPTH
NETS .                    : NETS
COAL .                    : COAL
CARB .                    : CARB
VSH .                     : VSH
SW .                      : SW
ILD .ohm.m                : ILD
MSFL .ohm.m               : MSFL
LLS .ohm.m                : LLS
LLD .ohm.m                : LLD
ILM .ohm.m                : ILM
DT .us/ft                 : DT
KLOG .mD                  : KLOG
DRHO .g/cm3               : DRHO
RHOB .g/cm3               : RHOB
PHIF .m3/m3               : PHIF
NPHI .m3/m3               : NPHI
GR .gAPI                  : GR
DEPT .m                   : DEPT
TIME .ms                  : TIME
CALI .in                  : CALI
BS .in                    : BS
QTOT .rm3/d               : QTOT
QWAT .sm3/d               : QWAT
GeneralTime1 .ms          : General Time 1
~Parameter
#==================================================================
~Ascii
# ...
 2285.9999268
 0.0000000000 0.0000000000 0.0000000000 0.4289000034 1.0000000000 0.8730000257
 1.6582000256  -999.250000  -999.250000  -999.250000 102.55999756 0.0008000000
  -999.250000 2.4042999744 0.1298000067 0.3012999892 52.125000000 2286.0000000
  -999.250000 8.4531002045 8.5000000000  -999.250000  -999.250000  -999.250000
 2286.1523268
 1.0000000000 0.0000000000 0.0000000000 0.3729000092 1.0000000000 0.7734000087
 1.5361000299  -999.250000  -999.250000  -999.250000 101.00000000 0.0504000001
  -999.250000 2.3594000340 0.1617999971 0.3091000021 47.687999725 2286.1523438
  -999.250000 8.3671998978 8.5000000000  -999.250000  -999.250000  -999.250000
 2286.3047268
 1.0000000000 0.0000000000 0.0000000000 0.3316999972 1.0000000000 0.7085000277
 1.4921000004  -999.250000  -999.250000  -999.250000 101.99980164 0.2117999941
  -999.250000 2.3378999233 0.1781000048 0.3149000108 44.436798096 2286.3046875
  -999.250000 8.2890996933 8.5000000000  -999.250000  -999.250000  -999.250000
 2286.4571268
 1.0000000000 0.0000000000 0.0000000000 0.3113000095 1.0000000000 0.6654999852
 1.3236000538  -999.250000  -999.250000  -999.250000 101.75440216 0.6791999936
  -999.250000 2.3280999660 0.1856999993 0.3032000065 42.872501373 2286.4572754
  -999.250000 8.2265996933 8.5000000000  -999.250000  -999.250000  -999.250000
 2286.6095268
 1.0000000000 0.0000000000 0.0000000000 0.2849999964 1.0000000000 0.6362000108
 1.6641999483  -999.250000  -999.250000  -999.250000 105.74770355 1.4029999971
  -999.250000 2.3162999153 0.1948000044 0.3041999936 40.629199982 2286.6096191
  -999.250000 8.2346000671 8.5000000000  -999.250000  -999.250000  -999.250000
 2286.7619268
 1.0000000000 0.0000000000 0.0000000000 0.3222999871 1.0000000000 0.6039999723
 1.1190999746  -999.250000  -999.250000  -999.250000 104.19000244 12.198699951
  -999.250000 2.2772998810 0.2166000009 0.3037000000 43.444198608 2286.7619629
  -999.250000 8.3673000336 8.5000000000  -999.250000  -999.250000  -999.250000
 2286.9143268
 1.0000000000 0.0000000000 0.0000000000 0.3580000103 1.0000000000 0.5859000087
 1.1253999472  -999.250000  -999.250000  -999.250000 104.18959808 19.611299515
  -999.250000 2.2578001022 0.2263000011 0.3169000149 46.785598755 2286.9143066
  -999.250000 8.4062004089 8.5000000000  -999.250000  -999.250000  -999.250000
 2287.0667268
 1.0000000000 0.0000000000 0.0000000000 0.3865000010 1.0000000000 0.5766999722
 1.2869999409  -999.250000  -999.250000  -999.250000 104.00009918 20.844600677
  -999.250000 2.2441000938 0.2312999964 0.3339999914 48.873699188 2287.0668945
  -999.250000 8.3515996933 8.5000000000  -999.250000  -999.250000  -999.250000
 2287.2191268
 1.0000000000 0.0000000000 0.0000000000 0.3880999982 1.0000000000 0.5806000233
 1.1376999617  -999.250000  -999.250000  -999.250000 104.19000244 20.864299774
  -999.250000 2.2402000427 0.2352000028 0.3393999934 49.030998230 2287.2192383
  -999.250000 8.3437995911 8.5000000000  -999.250000  -999.250000  -999.250000
 2287.3715268
 1.0000000000 0.0000000000 0.0000000000 0.3750000000 1.0000000000 0.5853999853
 1.0673999786  -999.250000  -999.250000  -999.250000 104.75000000 25.516000748
  -999.250000 2.2383000851 0.2372999936 0.3353999853 47.562999725 2287.3715820
  -999.250000 8.4765996933 8.5000000000  -999.250000  -999.250000  -999.250000
 2287.5239268
 1.0000000000 0.0000000000 0.0000000000 0.2757000029 1.0000000000 0.5903000236
 1.0987000465  -999.250000  -999.250000  -999.250000 104.19010162 62.741798401
  -999.250000 2.2284998894 0.2504000068 0.3188000023 45.998100281 2287.5239258
  -999.250000 8.5234003067 8.5000000000  -999.250000  -999.250000  -999.250000
 2287.6763268
 1.0000000000 0.0000000000 0.0000000000 0.2806000113 1.0000000000 0.5961999893
 1.2244999409  -999.250000  -999.250000  -999.250000 104.38030243 44.156600952
  -999.250000 2.2421998978 0.2415000051 0.3125000000 42.063098907 2287.6765137
  -999.250000 8.5156002045 8.5000000000  -999.250000  -999.250000  -999.250000
 2287.8287268
 1.0000000000 0.0000000000 0.0000000000 0.2851999998 1.0000000000 0.6114000082
 1.0713000298  -999.250000  -999.250000  -999.250000 104.74980164 113.69730377
  -999.250000 2.2188000679 0.2558000088 0.3109999895 42.251499176 2287.8288574
  -999.250000 8.4610004425 8.5000000000  -999.250000  -999.250000  -999.250000
 2287.9811268
 1.0000000000 0.0000000000 0.0000000000 0.2858999968 1.0000000000 0.6358000040
 1.0882999897  -999.250000  -999.250000  -999.250000 104.55999756 43.038600922
  -999.250000 2.2402000427 0.2424000055 0.3158999979 43.501201630 2287.9812012
  -999.250000 8.5156002045 8.5000000000  -999.250000  -999.250000  -999.250000
 2288.1335268
 1.0000000000 0.0000000000 0.0000000000 0.3357000053 1.0000000000 0.6743999720
 1.3200000525  -999.250000  -999.250000  -999.250000 104.55539703 33.793701172
  -999.250000 2.2402000427 0.2375999987 0.3237999976 44.243999481 2288.1335449
  -999.250000 8.4920997620 8.5000000000  -999.250000  -999.250000  -999.250000
 2288.2859268
 1.0000000000 0.0000000000 0.0000000000 0.2973000109 1.0000000000 0.6996999979
 1.1427999735  -999.250000  -999.250000  -999.250000 102.19200134 20.047300339
  -999.250000 2.2421998978 0.2402999997 0.3379000127 41.190601349 2288.2858887
  -999.250000 8.4298000336 8.5000000000  -999.250000  -999.250000  -999.250000
 2288.4383268
 1.0000000000 0.0000000000 0.0000000000 0.2628000081 1.0000000000 0.7070000172
 1.0439000130  -999.250000  -999.250000  -999.250000 102.74970245 22.634399414
  -999.250000 2.2344000340 0.2476000041 0.3447000086 38.376399994 2288.4384766
  -999.250000 8.3984003067 8.5000000000  -999.250000  -999.250000  -999.250000
 2288.5907268
 1.0000000000 0.0000000000 0.0000000000 0.2763999999 1.0000000000 0.7074999809
 1.0458999872  -999.250000  -999.250000  -999.250000 102.37999725 31.956499100
  -999.250000 2.2383000851 0.2442000061 0.3280999959 39.469001770 2288.5908203
  -999.250000 8.4218997955 8.5000000000  -999.250000  -999.250000  -999.250000
 2288.7431268
 1.0000000000 0.0000000000 0.0000000000 0.3045000136 1.0000000000 0.7099999785
 1.3564000130  -999.250000  -999.250000  -999.250000 103.55999756 17.533000946
  -999.250000 2.2676000595 0.2239000052 0.3066000044 42.312999725 2288.7431641
  -999.250000 8.5156002045 8.5000000000  -999.250000  -999.250000  -999.250000
 2288.8955268
 1.0000000000 0.0000000000 0.0000000000 0.2824999988 1.0000000000 0.7261000276
 1.4256000519  -999.250000  -999.250000  -999.250000 104.55950165 19.929899216
  -999.250000 2.2753999233 0.2205999941 0.2919999957 45.061901093 2288.8955078
  -999.250000 8.5546998978 8.5000000000  -999.250000  -999.250000  -999.250000
 2289.0479268
 1.0000000000 0.0000000000 0.0000000000 0.3231000006 1.0000000000 0.7470999956
 1.1610000134  -999.250000  -999.250000  -999.250000 103.75099945 12.785900116
  -999.250000 2.2715001106 0.2202000022 0.3106000125 43.216701508 2289.0480957
  -999.250000 8.4843997955 8.5000000000  -999.250000  -999.250000  -999.250000
 2289.2003267
 1.0000000000 0.0000000000 0.0000000000 0.2955999970 1.0000000000 0.7730000019
 1.0858999491  -999.250000  -999.250000  -999.250000 104.75000000 9.2243003845
  -999.250000 2.2616999149 0.2282000035 0.3345000148 40.904701233 2289.2004395
  -999.250000 8.4920997620 8.5000000000  -999.250000  -999.250000  -999.250000
 2289.3527267
 1.0000000000 0.0000000000 0.0000000000 0.2824999988 1.0000000000 0.7993999720
 1.1161999702  -999.250000  -999.250000  -999.250000 104.75039673 9.0318002701
  -999.250000 2.2578001022 0.2316000015 0.3407999873 39.940601349 2289.3527832
  -999.250000 8.4377002716 8.5000000000  -999.250000  -999.250000  -999.250000
 2289.5051267
 1.0000000000 0.0000000000 0.0000000000 0.3030000031 0.9998999834 0.8194000125
 1.1326999664  -999.250000  -999.250000  -999.250000 104.99870300 13.887599945
  -999.250000 2.2520000935 0.2337999940 0.3359000087 41.445598602 2289.5051270
  -999.250000 8.5312995911 8.5000000000  -999.250000  -999.250000  -999.250000
 2289.6575267
 1.0000000000 0.0000000000 0.0000000000 0.2748999894 0.9369999766 0.8306000233
 1.0645999908  -999.250000  -999.250000  -999.250000 104.38050079 52.429500580
  -999.250000 2.2383000851 0.2442999929 0.3120000064 45.091201782 2289.6577148
  -999.250000 8.5468997955 8.5000000000  -999.250000  -999.250000  -999.250000
