# LAS format log file from PETREL
# Project units are specified as depth units
#==================================================================
~Version information
VERS.   2.0:
WRAP.   YES:
#==================================================================
~Well
STRT .m      800.09997440 :
STOP .m      2299.7159264 :
STEP .m     0.15240000 :
NULL .        -999.250000 :
COMP.           : COMPANY
WELL.  34/10-11   : WELL
FLD.            : FIELD
LOC.            : LOCATION
SRVC.           : SERVICE COMPANY
DATE.  Wednesday, March 31 2010 12:33:12   : DATE
PROV.           : PROVINCE
UWI.      : UNIQUE WELL ID
API.            : API NUMBER
#==================================================================
~Curve
DEPT .m                   : DEPTH
NETS .                    : NETS
COAL .                    : COAL
CARB .                    : CARB
VSH .                     : VSH
SW .                      : SW
ILD .ohm.m                : ILD
MSFL .ohm.m               : MSFL
LLS .ohm.m                : LLS
LLD .ohm.m                : LLD
ILM .ohm.m                : ILM
DT .us/ft                 : DT
KLOG .mD                  : KLOG
DRHO .g/cm3               : DRHO
RHOB .g/cm3               : RHOB
PHIF .m3/m3               : PHIF
NPHI .m3/m3               : NPHI
GR .gAPI                  : GR
DEPT .m                   : DEPT
TIME .ms                  : TIME
CALI .in                  : CALI
BS .in                    : BS
QTOT .rm3/d               : QTOT
QWAT .sm3/d               : QWAT
GeneralTime1 .ms          : General Time 1
~Parameter
#==================================================================
~Ascii
# ...
 1962.1499372
 1.0000000000 0.0000000000 0.0000000000 0.1418000013 0.0825999975 45.674198151
 19.853399277 75.389198303 78.562202454  -999.250000 130.49890137 2312.2175293
  -999.250000 2.1270000935 0.2703999877 0.2646000087 32.908000946 1962.1500244
  -999.250000 8.2656002045  -999.250000  -999.250000  -999.250000  -999.250000
 1962.3023372
 1.0000000000 0.0000000000 0.0000000000 0.1133999974 0.1027999967 122.92040253
 11.227199554 55.420898438 60.152198792  -999.250000 128.74800110 2847.8710938
  -999.250000 2.1308999062 0.2739999890 0.2544000149 36.094799042 1962.3023682
  -999.250000 8.2655000687  -999.250000  -999.250000  -999.250000  -999.250000
 1962.4547372
 1.0000000000 0.0000000000 0.0000000000 0.1333999932 0.1106000021 727.50000000
 11.437999725 42.458999634 48.425998688  -999.250000 126.75000000 2272.3427734
  -999.250000 2.1191000938 0.2822999954 0.2725000083 36.905998230 1962.4548340
  -999.250000 8.2031002045  -999.250000  -999.250000  -999.250000  -999.250000
 1962.6071372
 1.0000000000 0.0000000000 0.0000000000 0.1840000004 0.1199000031 136.11999512
 13.031000137 41.715000153 48.811000824  -999.250000 126.55999756 1164.4968262
  -999.250000 2.1210999489 0.2775999904 0.2924999893 33.780998230 1962.6071777
  -999.250000 8.2187995911  -999.250000  -999.250000  -999.250000  -999.250000
 1962.7595372
 1.0000000000 0.0000000000 0.0000000000 0.2529000044 0.1199999973 77.434097290
 10.430800438 51.108501434 59.866798401  -999.250000 125.56020355 410.69250488
  -999.250000 2.1328001022 0.2658999860 0.3143999875 34.593101501 1962.7596436
  -999.250000 8.2343997955  -999.250000  -999.250000  -999.250000  -999.250000
 1962.9119372
 1.0000000000 0.0000000000 0.0000000000 0.2497999966 0.1123000011 69.806900024
 12.026499748 63.709098816 75.024597168  -999.250000 125.99960327 250.09840393
  -999.250000 2.1503999233 0.2588999867 0.3115000129 32.812500000 1962.9119873
  -999.250000 8.2343997955  -999.250000  -999.250000  -999.250000  -999.250000
 1963.0643372
 1.0000000000 0.0000000000 0.0000000000 0.2396000028 0.1010999978 62.969001770
 23.937999725 86.433998108 102.84999847  -999.250000 125.55999756 345.48361206
  -999.250000 2.1465001106 0.2605000138 0.3057000041 32.250000000 1963.0644531
  -999.250000 8.2656002045  -999.250000  -999.250000  -999.250000  -999.250000
 1963.2167372
 1.0000000000 0.0000000000 0.0000000000 0.2080000043 0.0878999978 60.875000000
 30.812999725 114.98000336 134.47999573  -999.250000 125.19000244 692.22167969
  -999.250000 2.1445000172 0.2594999969 0.2861000001 32.062999725 1963.2167969
  -999.250000 8.2656002045  -999.250000  -999.250000  -999.250000  -999.250000
 1963.3691372
 1.0000000000 0.0000000000 0.0000000000 0.1807000041 0.0793000013 62.219001770
 29.718999863 123.50000000 139.97999573  -999.250000 125.19000244 981.21478271
  -999.250000 2.1484000683 0.2581999898 0.2714999914 32.094001770 1963.3691406
  -999.250000 8.2421998978  -999.250000  -999.250000  -999.250000  -999.250000
 1963.5215372
 1.0000000000 0.0000000000 0.0000000000 0.1617999971 0.0797000006 69.005699158
 21.612600327 122.72850037 139.66050720  -999.250000 125.56030273 1156.5776367
  -999.250000 2.1542999744 0.2567000091 0.2606999874 32.998798370 1963.5216064
  -999.250000 8.2500000000  -999.250000  -999.250000  -999.250000  -999.250000
 1963.6739372
 1.0000000000 0.0000000000 0.0000000000 0.1474000067 0.0784000009 76.496398926
 26.341699600 120.73090363 140.24969482  -999.250000 125.99980164 1496.6829834
  -999.250000 2.1465001106 0.2632000148 0.2603000104 31.375799179 1963.6739502
  -999.250000 8.2187995911  -999.250000  -999.250000  -999.250000  -999.250000
 1963.8263372
 1.0000000000 0.0000000000 0.0000000000 0.1569000036 0.0781999975 86.438003540
 25.812999725 141.22000122 161.91000366  -999.250000 126.55999756 1285.8801270
  -999.250000 2.1503999233 0.2596000135 0.2612000108 33.155998230 1963.8264160
  -999.250000 8.2265996933  -999.250000  -999.250000  -999.250000  -999.250000
 1963.9787372
 1.0000000000 0.0000000000 0.0000000000 0.1448000073 0.0725999996 91.563003540
 20.516000748 179.97000122 196.14999390  -999.250000 127.37000275 1732.9946289
  -999.250000 2.1405999660 0.2655000091 0.2612000108 31.827999115 1963.9787598
  -999.250000 8.2265996933  -999.250000  -999.250000  -999.250000  -999.250000
 1964.1311371
 1.0000000000 0.0000000000 0.0000000000 0.1561000049 0.0689999983 84.054901123
 29.282199860 170.44129944 172.50860596  -999.250000 126.99939728 1245.7419434
  -999.250000 2.1503999233 0.2608999908 0.2621999979 31.108800888 1964.1312256
  -999.250000 8.2187995911  -999.250000  -999.250000  -999.250000  -999.250000
 1964.2835371
 1.0000000000 0.0000000000 0.0000000000 0.1439999938 0.0741999969 71.307998657
 31.182500839 109.31199646 107.16169739  -999.250000 125.99700165 1645.0996094
  -999.250000 2.1465001106 0.2619999945 0.2572999895 30.859500885 1964.2835693
  -999.250000 8.2265996933  -999.250000  -999.250000  -999.250000  -999.250000
 1964.4359371
 1.0000000000 0.0000000000 0.0000000000 0.1472000033 0.0939999968 66.313003540
 41.687999725 91.390998840 88.862998962  -999.250000 123.00000000 1381.6679688
  -999.250000 2.1563000679 0.2565000057 0.2533999979 31.358999252 1964.4360352
  -999.250000 8.2187995911  -999.250000  -999.250000  -999.250000  -999.250000
 1964.5883371
 1.0000000000 0.0000000000 0.0000000000 0.1360999942 0.1040999964 71.938003540
 19.312999725 85.569999695 83.551002502  -999.250000 119.55999756 1495.8483887
  -999.250000 2.1640999317 0.2520999908 0.2435999960 32.625000000 1964.5883789
  -999.250000 8.2265996933  -999.250000  -999.250000  -999.250000  -999.250000
 1964.7407371
 1.0000000000 0.0000000000 0.0000000000 0.1533000022 0.1076999977 80.630798340
 14.981599808 92.539901733 91.651397705  -999.250000 116.37010193 893.39727783
  -999.250000 2.1737999916 0.2495999932 0.2495000064 31.672000885 1964.7408447
  -999.250000 8.2187995911  -999.250000  -999.250000  -999.250000  -999.250000
 1964.8931371
 1.0000000000 0.0000000000 0.0000000000 0.1739999950 0.1006999984 92.077003479
 39.729598999 131.86000061 135.79130554  -999.250000 116.56189728 764.29632568
  -999.250000 2.1621000767 0.2556999922 0.2655999959 31.639400482 1964.8931885
  -999.250000 8.2343997955  -999.250000  -999.250000  -999.250000  -999.250000
 1965.0455371
 1.0000000000 0.0000000000 0.0000000000 0.1881999969 0.0824000016 108.05999756
 51.875000000 200.30000305 217.16999817  -999.250000 118.75000000 846.96972656
  -999.250000 2.1405999660 0.2606000006 0.2836999893 29.750000000 1965.0456543
  -999.250000 8.2421998978  -999.250000  -999.250000  -999.250000  -999.250000
 1965.1979371
 1.0000000000 0.0000000000 0.0000000000 0.1301999986 0.0626000017 104.55999756
 48.655998230 279.68969727 316.50000000  -999.250000 124.55999756 2053.0874023
  -999.250000 2.1073999405 0.2804000080 0.2865999937 26.858999252 1965.1979980
  -999.250000 8.2578001022  -999.250000  -999.250000  -999.250000  -999.250000
 1965.3503371
 1.0000000000 0.0000000000 0.0000000000 0.1202000007 0.0513999984 96.375000000
 43.219001770 287.29998779 318.22970581  -999.250000 128.00000000 4183.3750000
  -999.250000 2.0996000767 0.2851999998 0.2694999874 26.391000748 1965.3503418
  -999.250000 8.2421998978  -999.250000  -999.250000  -999.250000  -999.250000
 1965.5027371
 1.0000000000 0.0000000000 0.0000000000 0.1088000014 0.0507999994 88.687103271
 47.686199188 208.61729431 220.25540161  -999.250000 129.37040710 5456.6049805
  -999.250000 2.0878999233 0.2924000025 0.2705000043 26.032499313 1965.5028076
  -999.250000 8.2265996933  -999.250000  -999.250000  -999.250000  -999.250000
 1965.6551371
 1.0000000000 0.0000000000 0.0000000000 0.1200999990 0.0614000000 87.500602722
 45.282199860 125.10019684 120.88790131  -999.250000 129.99969482 4618.2788086
  -999.250000 2.0917999744 0.2892999947 0.2728999853 28.062000275 1965.6551514
  -999.250000 8.2578001022  -999.250000  -999.250000  -999.250000  -999.250000
 1965.8075371
 1.0000000000 0.0000000000 0.0000000000 0.1289999932 0.0803999975 99.563003540
 38.500000000 72.258003235 64.832000732  -999.250000 130.11999512 4303.8984375
  -999.250000 2.0878999233 0.2908000052 0.2788000107 29.641000748 1965.8076172
  -999.250000 8.2578001022  -999.250000  -999.250000  -999.250000  -999.250000
