# LAS format log file from PETREL
# Project units are specified as depth units
#==================================================================
~Version information
VERS.   2.0:
WRAP.   YES:
#==================================================================
~Well
STRT .m      800.09997440 :
STOP .m      2299.7159264 :
STEP .m     0.15240000 :
NULL .        -999.250000 :
COMP.           : COMPANY
WELL.  34/10-19   : WELL
FLD.            : FIELD
LOC.            : LOCATION
SRVC.           : SERVICE COMPANY
DATE.  Wednesday, March 31 2010 12:33:14   : DATE
PROV.           : PROVINCE
UWI.      : UNIQUE WELL ID
API.            : API NUMBER
#==================================================================
~Curve
DEPT .m                   : DEPTH
NETS .                    : NETS
COAL .                    : COAL
CARB .                    : CARB
VSH .                     : VSH
SW .                      : SW
ILD .ohm.m                : ILD
ILM .ohm.m                : ILM
DT .us/ft                 : DT
KLOG .mD                  : KLOG
DRHO .g/cm3               : DRHO
RHOB .g/cm3               : RHOB
PHIF .m3/m3               : PHIF
NPHI .m3/m3               : NPHI
GR .gAPI                  : GR
DEPT .m                   : DEPT
TIME .ms                  : TIME
CALI .in                  : CALI
BS .in                    : BS
QTOT .rm3/d               : QTOT
QWAT .sm3/d               : QWAT
GeneralTime1 .ms          : General Time 1
~Parameter
#==================================================================
~Ascii
# ...
 2165.6039307
 1.0000000000 0.0000000000 0.0000000000 0.1788000017 1.0000000000 0.7343999743
  -999.250000 101.00000000 14.663499832  -999.250000 2.2829999924 0.2190999985
 0.2310000062 36.312999725 2165.6040039  -999.250000 8.2265996933  -999.250000
  -999.250000  -999.250000  -999.250000
 2165.7563307
 1.0000000000 0.0000000000 0.0000000000 0.1675000042 1.0000000000 0.7074999809
  -999.250000 103.50000000 38.875000000  -999.250000 2.2599999905 0.2338999957
 0.2409999967 39.812999725 2165.7563477  -999.250000 8.2734003067  -999.250000
  -999.250000  -999.250000  -999.250000
 2165.9087307
 1.0000000000 0.0000000000 0.0000000000 0.1986999959 1.0000000000 0.6875000000
  -999.250000 104.24770355 62.540599823  -999.250000 2.2439999580 0.2410999984
 0.2630000114 38.062500000 2165.9086914  -999.250000 8.3437995911  -999.250000
  -999.250000  -999.250000  -999.250000
 2166.0611307
 1.0000000000 0.0000000000 0.0000000000 0.2302999943 1.0000000000 0.6762999892
  -999.250000 101.00180054 79.245697021  -999.250000 2.2339999676 0.2446999997
 0.2820000052 37.374500275 2166.0612793  -999.250000 8.3437995911  -999.250000
  -999.250000  -999.250000  -999.250000
 2166.2135307
 1.0000000000 0.0000000000 0.0000000000 0.2131000012 1.0000000000 0.6693999767
  -999.250000 102.63110352 100.00460052  -999.250000 2.2300000191 0.2483000010
 0.2770000100 36.943698883 2166.2136230  -999.250000 8.3593997955  -999.250000
  -999.250000  -999.250000  -999.250000
 2166.3659307
 1.0000000000 0.0000000000 0.0000000000 0.2185000032 1.0000000000 0.6621000171
  -999.250000 103.37999725 71.677200317  -999.250000 2.2381000519 0.2432000041
 0.2750000060 40.909801483 2166.3659668  -999.250000 8.3437995911  -999.250000
  -999.250000  -999.250000  -999.250000
 2166.5183307
 1.0000000000 0.0000000000 0.0000000000 0.2540999949 1.0000000000 0.6542999744
  -999.250000 103.38240051 20.719999313  -999.250000 2.2660999298 0.2242999971
 0.2730000019 42.969600677 2166.5183105  -999.250000 8.3201999664  -999.250000
  -999.250000  -999.250000  -999.250000
 2166.6707307
 1.0000000000 0.0000000000 0.0000000000 0.3296999931 1.0000000000 0.6493999958
  -999.250000 104.49929810 3.1438000202  -999.250000 2.3050000668 0.1957000047
 0.2820000052 43.249801636 2166.6708984  -999.250000 8.2578001022  -999.250000
  -999.250000  -999.250000  -999.250000
 2166.8231307
 1.0000000000 0.0000000000 0.0000000000 0.3190999925 1.0000000000 0.6470000148
  -999.250000 106.62999725 2.2349998951  -999.250000 2.3139998913 0.1905000061
 0.2800000012 40.530998230 2166.8232422  -999.250000 8.2578001022  -999.250000
  -999.250000  -999.250000  -999.250000
 2166.9755307
 1.0000000000 0.0000000000 0.0000000000 0.2928999960 1.0000000000 0.6542999744
  -999.250000 108.25000000 5.0486998558  -999.250000 2.2969999313 0.2029000074
 0.2709999979 41.155998230 2166.9755859  -999.250000 8.2578001022  -999.250000
  -999.250000  -999.250000  -999.250000
 2167.1279307
 1.0000000000 0.0000000000 0.0000000000 0.2583999932 1.0000000000 0.6768000126
  -999.250000 108.50039673 17.451499939  -999.250000 2.2690000534 0.2216999978
 0.2730000019 43.718601227 2167.1279297  -999.250000 8.2578001022  -999.250000
  -999.250000  -999.250000  -999.250000
 2167.2803306
 1.0000000000 0.0000000000 0.0000000000 0.2515000105 1.0000000000 0.7300000191
  -999.250000 109.37809753 38.844100952  -999.250000 2.2500000000 0.2338999957
 0.2820000052 43.003799438 2167.2805176  -999.250000 8.2656002045  -999.250000
  -999.250000  -999.250000  -999.250000
 2167.4327306
 1.0000000000 0.0000000000 0.0000000000 0.2962000072 0.9836999774 0.8066999912
  -999.250000 107.11409760 36.847400665  -999.250000 2.2460999489 0.2330999970
 0.3030000031 47.562301636 2167.4328613  -999.250000 8.2890996933  -999.250000
  -999.250000  -999.250000  -999.250000
 2167.5851306
 0.0000000000 0.0000000000 0.0003000000 0.4135999978 1.0000000000 0.8877999783
  -999.250000 93.853401184 2.8898999691  -999.250000 2.2971999645 0.1943999976
 0.3230000138 47.030601501 2167.5852051  -999.250000 8.3204002380  -999.250000
  -999.250000  -999.250000  -999.250000
 2167.7375306
 0.0000000000 0.0000000000 0.2000000030 0.4119000137 1.0000000000 0.9684000015
  -999.250000 80.108596802 0.0491999984  -999.250000 2.4003000259 0.1324000061
 0.2958999872 46.776401520 2167.7375488  -999.250000 8.3673000336  -999.250000
  -999.250000  -999.250000  -999.250000
 2167.8899306
 0.0000000000 0.0000000000 0.2000000030 0.3792999983 1.0000000000 1.0546000004
  -999.250000 71.632598877 0.0003000000  -999.250000 2.5369000435 0.0531000011
 0.2260999978 44.408100128 2167.8898926  -999.250000 8.3984003067  -999.250000
  -999.250000  -999.250000  -999.250000
 2168.0423306
 0.0000000000 0.0000000000 0.2000000030 0.3704000115 1.0000000000 1.1464999914
  -999.250000 68.501701355 0.0000000000  -999.250000 2.5980000496 0.0174000002
 0.1539999992 43.688400269 2168.0424805  -999.250000 8.4375000000  -999.250000
  -999.250000  -999.250000  -999.250000
 2168.1947306
 0.0000000000 0.0000000000 0.2000000030 0.3379999995 1.0000000000 1.2470999956
  -999.250000 72.875000000 0.0001000000 0.0034000000 2.5820000172 0.0289999992
 0.1190000027 52.625000000 2168.1948242  -999.250000 8.4843997955  -999.250000
  -999.250000  -999.250000  -999.250000
 2168.3471306
 0.0000000000 0.0000000000 0.0000000000 0.2651999891 1.0000000000 1.4004000425
  -999.250000 86.875000000 0.0033000000 0.0015000000 2.4860000610 0.0913999975
 0.1459999979 60.655998230 2168.3471680  -999.250000 8.5312995911  -999.250000
  -999.250000  -999.250000  -999.250000
 2168.4995306
 0.0000000000 0.0000000000 0.0000000000 0.4176000059 1.0000000000 1.5801999569
  -999.250000 99.253097534 0.0031999999 0.0049000001 2.4690001011 0.0913000032
 0.2199999988 72.126403809 2168.4995117  -999.250000 8.7342996597  -999.250000
  -999.250000  -999.250000  -999.250000
 2168.6519306
 0.0000000000 0.0000000000 0.0000000000 0.5929999948 1.0000000000 1.6806999445
  -999.250000 104.63619995 0.0024999999 0.0005000000 2.4549999237 0.0870999992
 0.3021000028 74.500099182 2168.6520996  -999.250000 8.4923000336  -999.250000
  -999.250000  -999.250000  -999.250000
 2168.8043306
 0.0000000000 0.0000000000 0.0000000000 0.8215000033 1.0000000000 1.6297999620
  -999.250000 111.12950134 0.0001000000 0.0082999999 2.5020000935 0.0430999994
 0.3819999993 74.618698120 2168.8044434  -999.250000 8.5781002045  -999.250000
  -999.250000  -999.250000  -999.250000
 2168.9567306
 0.0000000000 0.0000000000 0.0000000000 0.7526999712 1.0000000000 1.5282000303
  -999.250000 110.75080109 0.0001000000 0.0111999996 2.5160000324 0.0397999994
 0.3779999912 69.814102173 2168.9567871  -999.250000 8.5858001709  -999.250000
  -999.250000  -999.250000  -999.250000
 2169.1091306
 0.0000000000 0.0000000000 0.0000000000 0.7602999806 1.0000000000 1.4677000046
  -999.250000 111.25129700 0.0001000000 0.0131999999 2.5250000954 0.0333000012
 0.3768999875 70.499702454 2169.1091309  -999.250000 8.5469999313  -999.250000
  -999.250000  -999.250000  -999.250000
 2169.2615306
 0.0000000000 0.0000000000 0.0000000000 0.7616999745 1.0000000000 1.4375000000
  -999.250000 111.87950134 0.0000000000 0.0131999999 2.5390000343 0.0251000002
 0.3519999981 70.375099182 2169.2617188  -999.250000 8.6015996933  -999.250000
  -999.250000  -999.250000  -999.250000
 2169.4139306
 0.0000000000 0.0000000000 0.0000000000 0.7950000167 1.0000000000 1.4179999828
  -999.250000 111.87999725 0.0001000000 0.0073000002 2.5039999485 0.0438000001
 0.3759999871 72.686996460 2169.4140625  -999.250000 8.6015996933  -999.250000
  -999.250000  -999.250000  -999.250000
 2169.5663306
 0.0000000000 0.0000000000 0.0000000000 0.7950999737 1.0000000000 1.3983999491
  -999.250000 106.00000000 0.0007000000 0.0068000001 2.4630000591 0.0684000030
 0.3819999993 72.563003540 2169.5664063  -999.250000 8.6328001022  -999.250000
  -999.250000  -999.250000  -999.250000
 2169.7187306
 0.0000000000 0.0000000000 0.0000000000 0.7432000041 1.0000000000 1.3798999786
  -999.250000 112.12000275 0.0073000002 0.0034000000 2.4100000858 0.1035000011
 0.3919999897 72.750000000 2169.7187500  -999.250000 8.5703001022  -999.250000
  -999.250000  -999.250000  -999.250000
