# LAS format log file from PETREL
# Project units are specified as depth units
#==================================================================
~Version information
VERS.   2.0:
WRAP.   YES:
#==================================================================
~Well
STRT .m      800.09997440 :
STOP .m      2299.7159264 :
STEP .m     0.15240000 :
NULL .        -999.250000 :
COMP.           : COMPANY
WELL.  34/10-11   : WELL
FLD.            : FIELD
LOC.            : LOCATION
SRVC.           : SERVICE COMPANY
DATE.  Wednesday, March 31 2010 12:33:12   : DATE
PROV.           : PROVINCE
UWI.      : UNIQUE WELL ID
API.            : API NUMBER
#==================================================================
~Curve
DEPT .m                   : DEPTH
NETS .                    : NETS
COAL .                    : COAL
CARB .                    : CARB
VSH .                     : VSH
SW .                      : SW
ILD .ohm.m                : ILD
MSFL .ohm.m               : MSFL
LLS .ohm.m                : LLS
LLD .ohm.m                : LLD
ILM .ohm.m                : ILM
DT .us/ft                 : DT
KLOG .mD                  : KLOG
DRHO .g/cm3               : DRHO
RHOB .g/cm3               : RHOB
PHIF .m3/m3               : PHIF
NPHI .m3/m3               : NPHI
GR .gAPI                  : GR
DEPT .m                   : DEPT
TIME .ms                  : TIME
CALI .in                  : CALI
BS .in                    : BS
QTOT .rm3/d               : QTOT
QWAT .sm3/d               : QWAT
GeneralTime1 .ms          : General Time 1
~Parameter
#==================================================================
~Ascii
# ...
 1985.0099365
 1.0000000000 0.0000000000 0.0000000000 0.1433999985 0.1686999947 28.687999725
 7.5938000679 33.373001099 31.343000412  -999.250000 120.19000244 460.88259888
  -999.250000 2.1621000767 0.2578999996 0.2808000147 27.577999115 1985.0100098
  -999.250000 8.2187995911  -999.250000  -999.250000  -999.250000  -999.250000
 1985.1623365
 1.0000000000 0.0000000000 0.0000000000 0.1473000050 0.1741999984 27.312999725
 39.062999725 41.259998322 40.849998474  -999.250000 117.55999756 56.486598969
  -999.250000 2.2030999660 0.2418999970 0.2958999872 27.702999115 1985.1623535
  -999.250000 8.2578001022  -999.250000  -999.250000  -999.250000  -999.250000
 1985.3147365
 1.0000000000 0.0000000000 0.0000000000 0.1304000020 0.1580999941 24.777299881
 36.476699829 56.377101898 64.341796875  -999.250000 116.56040192 78.374900818
  -999.250000 2.1991999149 0.2351000011 0.2915000021 26.857700348 1985.3148193
  -999.250000 8.2656002045  -999.250000  -999.250000  -999.250000  -999.250000
 1985.4671365
 1.0000000000 0.0000000000 0.0000000000 0.0927999988 0.1154000014 19.237100601
 47.868598938 22.367000580 26.919900894  -999.250000 117.18959808 316.27481079
  -999.250000 2.1719000340 0.2518000007 0.2816999853 25.000999451 1985.4671631
  -999.250000 8.2656002045  -999.250000  -999.250000  -999.250000  -999.250000
 1985.6195365
 1.0000000000 0.0000000000 0.0000000000 0.1447000057 0.1324000061 12.437999725
 26.312999725 10.696999550 12.805999756  -999.250000 116.19000244 1493.4721680
  -999.250000 2.1445000172 0.2608999908 0.2621999979 27.562999725 1985.6196289
  -999.250000 8.2656002045  -999.250000  -999.250000  -999.250000  -999.250000
 1985.7719365
 1.0000000000 0.0000000000 0.0000000000 0.1409000009 0.1969999969 8.0468997955
 5.8046998978 5.8036999702 6.9762997627  -999.250000 117.00000000 1061.6091309
  -999.250000 2.1777000427 0.2469000071 0.2407000065 35.780998230 1985.7719727
  -999.250000 8.2656002045  -999.250000  -999.250000  -999.250000  -999.250000
 1985.9243365
 1.0000000000 0.0000000000 0.0000000000 0.1608999968 0.3325000107 5.5422000885
 4.2452998161 3.2792000771 3.9015998840  -999.250000 116.18910217 268.36880493
  -999.250000 2.2147998810 0.2375999987 0.2412000000 46.663398743 1985.9244385
  -999.250000 8.2656002045  -999.250000  -999.250000  -999.250000  -999.250000
 1986.0767364
 1.0000000000 0.0000000000 0.0000000000 0.2187000066 0.3783000112 4.0422000885
 2.8210000992 2.4065001011 2.8868000507  -999.250000 114.55860138 36.121799469
  -999.250000 2.2520000935 0.2181999981 0.2500000000 60.071399689 1986.0767822
  -999.250000 8.2895002365  -999.250000  -999.250000  -999.250000  -999.250000
 1986.2291364
 1.0000000000 0.0000000000 0.0000000000 0.3312000036 0.5580000281 3.1719000340
 1.4208999872 1.9916000366 2.4323000908  -999.250000 113.00000000 1.0203000307
  -999.250000 2.2871000767 0.1987999976 0.2856000066 69.250000000 1986.2292480
  -999.250000 8.6796998978  -999.250000  -999.250000  -999.250000  -999.250000
 1986.3815364
 0.0000000000 0.0000000000 0.0000000000 0.5192999840 0.6324999928 2.5645000935
 1.4833999872 1.6325000525 2.0192000866  -999.250000 115.55999756 0.0002000000
  -999.250000 2.3515999317 0.1650999933 0.3438000083 80.125000000 1986.3815918
  -999.250000 8.4921998978  -999.250000  -999.250000  -999.250000  -999.250000
 1986.5339364
 0.0000000000 0.0000000000 0.0000000000 0.7332999706 0.7300999761 2.0955998898
 1.6619000435 1.4638999701 1.8071999550  -999.250000 112.00029755 0.0000000000
  -999.250000 2.4042999744 0.1211000010 0.4043000042 82.311897278 1986.5340576
  -999.250000 8.6014995575  -999.250000  -999.250000  -999.250000  -999.250000
 1986.6863364
 0.0000000000 0.0000000000 0.0000000000 0.8962000012 0.8151999712 1.7537000179
 1.0780999660 1.3825999498 1.6863000393  -999.250000 112.75520325 0.0000000000
 0.0434999987 2.4491999149 0.0829999968 0.4458000064 79.807403564 1986.6864014
  -999.250000 8.4843997955  -999.250000  -999.250000  -999.250000  -999.250000
 1986.8387364
 0.0000000000 0.0000000000 0.0000000000 0.8791000247 0.7444999814 1.5304000378
 1.0595999956 1.3501000404 1.6137000322  -999.250000 119.36710358 0.0000000000
 0.0575999990 2.4121000767 0.1137999967 0.4683000147 72.691101074 1986.8387451
  -999.250000 8.4375000000  -999.250000  -999.250000  -999.250000  -999.250000
 1986.9911364
 0.0000000000 0.0000000000 0.0000000000 0.8590000272 0.6983000040 1.3739999533
 1.1201000214 1.4629000425 1.7683999538  -999.250000 120.55999756 0.0000000000
 0.0410000011 2.3652000427 0.1406999975 0.4853999913 66.125000000 1986.9912109
  -999.250000 8.3671998978  -999.250000  -999.250000  -999.250000  -999.250000
 1987.1435364
 0.0000000000 0.0000000000 0.0000000000 0.8123000264 0.6338999867 1.2939000130
 1.6064000130 1.6822999716 2.0727999210  -999.250000 122.00000000 0.0000000000
 0.0093000000 2.3301000595 0.1621000022 0.4839000106 61.344001770 1987.1435547
  -999.250000 8.4609003067  -999.250000  -999.250000  -999.250000  -999.250000
 1987.2959364
 0.0000000000 0.0000000000 0.0000000000 0.7771999836 0.6334000230 1.2851999998
 2.2249000072 1.9285000563 2.3750998974  -999.250000 118.55349731 0.0000000000
  -999.250000 2.3496000767 0.1448000073 0.4686999917 57.593101501 1987.2960205
  -999.250000 8.6171998978  -999.250000  -999.250000  -999.250000  -999.250000
 1987.4483364
 0.0000000000 0.0000000000 0.0000000000 0.7495999932 0.6506999731 1.2870999575
 2.6033999920 2.0706000328 2.5638999939  -999.250000 108.74420166 0.0000000000
 0.0029000000 2.3789000511 0.1256999969 0.4388999939 56.310699463 1987.4483643
  -999.250000 8.6015996933  -999.250000  -999.250000  -999.250000  -999.250000
 1987.6007364
 0.0000000000 0.0000000000 0.0000000000 0.7055000067 0.5587000251 1.3222999573
 2.5020000935 2.0977001190 2.6609001160  -999.250000 103.19000244 0.0000000000
 0.0015000000 2.4042999744 0.1132000014 0.4219000041 54.125000000 1987.6008301
  -999.250000 8.6171998978  -999.250000  -999.250000  -999.250000  -999.250000
 1987.7531364
 0.0000000000 0.0000000000 0.0000000000 0.6367999911 0.7088999748 1.3975000381
 2.6250000000 2.1001000404 2.7040998936  -999.250000 99.750000000 0.0000000000
  -999.250000 2.4198999405 0.1103999987 0.3916000128 50.780998230 1987.7531738
  -999.250000 8.6250000000  -999.250000  -999.250000  -999.250000  -999.250000
 1987.9055364
 0.0000000000 0.0000000000 0.0000000000 0.5705000162 0.6154000163 1.5118000507
 2.3845000267 2.0111999512 2.5806999207  -999.250000 99.750000000 0.0000000000
  -999.250000 2.4296998978 0.1093000025 0.3901000023 47.811199188 1987.9056396
  -999.250000 8.5390996933  -999.250000  -999.250000  -999.250000  -999.250000
 1988.0579364
 0.0000000000 0.0000000000 0.0000000000 0.5029000044 0.8036999702 1.6633000374
 1.8396999836 2.0506999493 2.6045000553  -999.250000 99.750701904 0.0000000000
  -999.250000 2.4433999062 0.1081999987 0.3955000043 44.526901245 1988.0579834
  -999.250000 8.5391998291  -999.250000  -999.250000  -999.250000  -999.250000
 1988.2103364
 0.0000000000 0.0000000000 0.0000000000 0.4144999981 0.8342999816 1.8681999445
 1.7236000299 2.5072000027 3.2797000408  -999.250000 100.55999756 0.0000000000
  -999.250000 2.4530999660 0.1130999997 0.4140999913 40.000000000 1988.2104492
  -999.250000 8.6406002045  -999.250000  -999.250000  -999.250000  -999.250000
 1988.3627364
 0.0000000000 0.0000000000 0.0000000000 0.3433000147 0.8217999935 2.1073999405
 1.7207000256 3.4467000961 4.7885999680  -999.250000 94.563003540 0.0000000000
  -999.250000 2.4804999828 0.1041999981 0.3935000002 36.655998230 1988.3627930
  -999.250000 8.5937995911  -999.250000  -999.250000  -999.250000  -999.250000
 1988.5151364
 0.0000000000 0.0000000000 0.0001000000 0.3233000040 0.7581999898 2.3907999992
 2.0578000546 4.5597000122 6.5479001999  -999.250000 89.995201111 0.0000000000
  -999.250000 2.5078001022 0.0903000012 0.3280999959 35.501201630 1988.5152588
  -999.250000 8.6873998642  -999.250000  -999.250000  -999.250000  -999.250000
 1988.6675364
 0.0000000000 0.0000000000 0.2000000030 0.3662999868 0.7771999836 2.7797000408
 9.4247999191 5.4296998978 7.7323999405  -999.250000 78.375503540 0.0000000000
  -999.250000 2.5409998894 0.0657000020 0.2460000068 38.343399048 1988.6676025
  -999.250000 8.3359003067  -999.250000  -999.250000  -999.250000  -999.250000
