# LAS format log file from PETREL
# Project units are specified as depth units
#==================================================================
~Version information
VERS.   2.0:
WRAP.   YES:
#==================================================================
~Well
STRT .m      800.09997440 :
STOP .m      2299.7159264 :
STEP .m     0.15240000 :
NULL .        -999.250000 :
COMP.           : COMPANY
WELL.  34/10-11   : WELL
FLD.            : FIELD
LOC.            : LOCATION
SRVC.           : SERVICE COMPANY
DATE.  Wednesday, March 31 2010 12:33:12   : DATE
PROV.           : PROVINCE
UWI.      : UNIQUE WELL ID
API.            : API NUMBER
#==================================================================
~Curve
DEPT .m                   : DEPTH
NETS .                    : NETS
COAL .                    : COAL
CARB .                    : CARB
VSH .                     : VSH
SW .                      : SW
ILD .ohm.m                : ILD
MSFL .ohm.m               : MSFL
LLS .ohm.m                : LLS
LLD .ohm.m                : LLD
ILM .ohm.m                : ILM
DT .us/ft                 : DT
KLOG .mD                  : KLOG
DRHO .g/cm3               : DRHO
RHOB .g/cm3               : RHOB
PHIF .m3/m3               : PHIF
NPHI .m3/m3               : NPHI
GR .gAPI                  : GR
DEPT .m                   : DEPT
TIME .ms                  : TIME
CALI .in                  : CALI
BS .in                    : BS
QTOT .rm3/d               : QTOT
QWAT .sm3/d               : QWAT
GeneralTime1 .ms          : General Time 1
~Parameter
#==================================================================
~Ascii
# ...
 2148.8399312
 0.0000000000 0.0000000000 0.0000000000 0.3366000056 1.0000000000 1.6670000553
 2.2727000713 1.8246999979 1.7597999573  -999.250000 108.37999725 0.0003000000
  -999.250000 2.4102001190 0.1288000047 0.3310000002 56.371200562 2148.8400879
  -999.250000 8.6015996933 8.5000000000  -999.250000  -999.250000  -999.250000
 2148.9923312
 0.0000000000 0.0000000000 0.0000000000 0.3021000028 1.0000000000 1.6641000509
 1.5960999727 1.7994999886 1.7261999846  -999.250000 108.38030243 0.0003000000
  -999.250000 2.4022998810 0.1360000074 0.3262000084 52.624599457 2148.9924316
  -999.250000 8.6097002029 8.5000000000  -999.250000  -999.250000  -999.250000
 2149.1447312
 0.0000000000 0.0000000000 0.0000000000 0.3057999909 0.9998999834 1.6660000086
 1.8676999807 1.7201000452 1.6143000126  -999.250000 108.55999756 0.0010000000
  -999.250000 2.3847999573 0.1464000046 0.3402999938 52.310501099 2149.1447754
  -999.250000 8.8513002396 8.5000000000  -999.250000  -999.250000  -999.250000
 2149.2971312
 1.0000000000 0.0000000000 0.0000000000 0.2874999940 0.9348999858 1.6826000214
 1.5671999454 1.8121999502 1.7236000299  -999.250000 108.55999756 0.0012000001
  -999.250000 2.3789000511 0.1512999982 0.3495999873 50.910099030 2149.2971191
  -999.250000 8.6562995911 8.5000000000  -999.250000  -999.250000  -999.250000
 2149.4495312
 0.0000000000 0.0000000000 0.0000000000 0.3057000041 0.9476000071 1.6992000341
 2.3938999176 1.9889999628 1.8869999647  -999.250000 108.55999756 0.0003000000
  -999.250000 2.3847999573 0.1464000046 0.3646999896 52.842601776 2149.4497070
  -999.250000 8.6640996933 8.5000000000  -999.250000  -999.250000  -999.250000
 2149.6019312
 0.0000000000 0.0000000000 0.0000000000 0.3391999900 1.0000000000 1.7138999701
 2.7460999489 1.9804999828 1.9047000408  -999.250000 108.37999725 0.0003000000
  -999.250000 2.4159998894 0.1250000000 0.3388999999 56.405998230 2149.6020508
  -999.250000 8.6796998978 8.5000000000  -999.250000  -999.250000  -999.250000
 2149.7543312
 0.0000000000 0.0000000000 0.1000000015 0.3589999974 1.0000000000 1.7167999744
 2.4179999828 1.9041999578 1.8360999823  -999.250000 108.37999725 0.0003000000
  -999.250000 2.4609000683 0.0962999985 0.3007999957 58.562999725 2149.7543945
  -999.250000 8.6718997955 8.5000000000  -999.250000  -999.250000  -999.250000
 2149.9067312
 0.0000000000 0.0000000000 0.1000000015 0.3485000134 1.0000000000 1.6708999872
 1.4882999659 1.6340999603 1.5492000580  -999.250000 108.37999725 0.0003000000
  -999.250000 2.4727001190 0.0898000002 0.2572999895 57.375099182 2149.9067383
  -999.250000 8.6875000000 8.5000000000  -999.250000  -999.250000  -999.250000
 2150.0591312
 0.0000000000 0.0000000000 0.0998999998 0.3499999940 1.0000000000 1.5976999998
 1.4385999441 1.3558000326 1.2747000456  -999.250000 108.37999725 0.0010000000
  -999.250000 2.4277000427 0.1172000021 0.2486000061 57.594100952 2150.0590820
  -999.250000 8.6717996597 8.5000000000  -999.250000  -999.250000  -999.250000
 2150.2115312
 0.0000000000 0.0000000000 0.0000000000 0.3481000066 1.0000000000 1.5369999409
 1.5812000036 1.3279999495 1.2542999983  -999.250000 108.38020325 0.0337999985
  -999.250000 2.3847999573 0.1435000002 0.2700000107 57.814998627 2150.2116699
  -999.250000 8.5390996933 8.5000000000  -999.250000  -999.250000  -999.250000
 2150.3639312
 1.0000000000 0.0000000000 0.0000000000 0.3644999862 0.9855999947 1.4862999916
 1.6878999472 1.4025000334 1.3349000216  -999.250000 108.55970001 0.3345000148
  -999.250000 2.3477001190 0.1649000049 0.2872000039 59.590999603 2150.3640137
  -999.250000 8.5390996933 8.5000000000  -999.250000  -999.250000  -999.250000
 2150.5163312
 1.0000000000 0.0000000000 0.0000000000 0.3472000062 0.9598000050 1.4716999531
 1.9261000156 1.5512000322 1.4955999851  -999.250000 108.37999725 0.0379000008
  -999.250000 2.3554999828 0.1614000052 0.3228000104 57.623100281 2150.5163574
  -999.250000 8.5704002380 8.5000000000  -999.250000  -999.250000  -999.250000
 2150.6687312
 1.0000000000 0.0000000000 0.0000000000 0.3397000134 0.9221000075 1.4745999575
 2.0761001110 1.7929999828 1.7474000454  -999.250000 108.37999725 0.0071000000
  -999.250000 2.3652000427 0.1560000032 0.3407999873 56.625999451 2150.6687012
  -999.250000 8.6248998642 8.5000000000  -999.250000  -999.250000  -999.250000
 2150.8211312
 1.0000000000 0.0000000000 0.0000000000 0.3332999945 0.9082999825 1.4570000172
 2.2460000515 1.8674000502 1.7900999784  -999.250000 108.37999725 0.0054000001
  -999.250000 2.3633000851 0.1576000005 0.3506000042 56.094299316 2150.8212891
  -999.250000 8.5781002045 8.5000000000  -999.250000  -999.250000  -999.250000
 2150.9735312
 1.0000000000 0.0000000000 0.0000000000 0.3072000146 0.9133999944 1.4463000298
 2.2167999744 1.8892999887 1.8228000402  -999.250000 108.37999725 0.0126999998
  -999.250000 2.3671998978 0.1570000052 0.3242000043 53.344001770 2150.9736328
  -999.250000 8.5546998978 8.5000000000  -999.250000  -999.250000  -999.250000
 2151.1259312
 1.0000000000 0.0000000000 0.0000000000 0.3088999987 0.8984000087 1.4600000381
 2.0859000683 1.9000999928 1.8459000587  -999.250000 108.37999725 0.0807999969
  -999.250000 2.3633000851 0.1592999995 0.2915000021 53.280998230 2151.1259766
  -999.250000 8.6328001022 8.5000000000  -999.250000  -999.250000  -999.250000
 2151.2783312
 1.0000000000 0.0000000000 0.0000000000 0.3224000037 0.9354000092 1.4989999533
 2.3499000072 1.9293999672 1.8840999603  -999.250000 108.38009644 0.0328000002
  -999.250000 2.3808999062 0.1475999951 0.2777999938 54.595600128 2151.2783203
  -999.250000 8.6796998978 8.5000000000  -999.250000  -999.250000  -999.250000
 2151.4307312
 0.0000000000 0.0000000000 0.0000000000 0.3503000140 0.9746999741 1.5664999485
 2.9249999523 1.8645000458 1.8451999426  -999.250000 108.55979919 0.0081000002
  -999.250000 2.3926000595 0.1385000050 0.2827000022 57.626300812 2151.4309082
  -999.250000 8.6718997955 8.5000000000  -999.250000  -999.250000  -999.250000
 2151.5831311
 0.0000000000 0.0000000000 0.0001000000 0.3632999957 1.0000000000 1.6455999613
 2.0782001019 1.8229999542 1.7749999762  -999.250000 108.37999725 0.0003000000
  -999.250000 2.4179999828 0.1221000031 0.2982999980 59.122398376 2151.5832520
  -999.250000 8.6405000687 8.5000000000  -999.250000  -999.250000  -999.250000
 2151.7355311
 0.0000000000 0.0000000000 0.1000000015 0.3429999948 1.0000000000 1.7071000338
 2.1735999584 1.7891999483 1.7546999454  -999.250000 108.37999725 0.0003000000
  -999.250000 2.4491999149 0.1045000032 0.3052000105 57.062099457 2151.7355957
  -999.250000 8.6015996933 8.5000000000  -999.250000  -999.250000  -999.250000
 2151.8879311
 0.0000000000 0.0000000000 0.1000000015 0.3382000029 1.0000000000 1.7480000257
 2.0589001179 1.8128999472 1.8062000275  -999.250000 108.37999725 0.0003000000
  -999.250000 2.4607999325 0.0978000015 0.3203000128 56.494899750 2151.8879395
  -999.250000 8.6169996262 8.5000000000  -999.250000  -999.250000  -999.250000
 2152.0403311
 0.0000000000 0.0000000000 0.1000000015 0.3115999997 1.0000000000 1.7577999830
 2.2011001110 1.7661000490 1.7432999611  -999.250000 108.37999725 0.0003000000
  -999.250000 2.4335999489 0.1162000000 0.3402999938 53.940101624 2152.0402832
  -999.250000 8.5157003403 8.5000000000  -999.250000  -999.250000  -999.250000
 2152.1927311
 0.0000000000 0.0000000000 0.0000000000 0.2962000072 1.0000000000 1.7519999743
 2.1933999062 1.7300000191 1.6929999590  -999.250000 108.37999725 0.0003000000
  -999.250000 2.4063000679 0.1340000033 0.3540000021 53.063400269 2152.1928711
  -999.250000 8.2579002380 8.5000000000  -999.250000  -999.250000  -999.250000
 2152.3451311
 0.0000000000 0.0000000000 0.0000000000 0.3036000133 1.0000000000 1.7304999828
 2.1405999660 1.7285000086 1.7008999586  -999.250000 108.37999725 0.0003000000
  -999.250000 2.4063000679 0.1333999932 0.3305999935 53.530998230 2152.3452148
  -999.250000 8.3671998978 8.5000000000  -999.250000  -999.250000  -999.250000
 2152.4975311
 0.0000000000 0.0000000000 0.0000000000 0.3039999902 1.0000000000 1.7001999617
 3.2030999660 1.7760000229 1.7769999504  -999.250000 108.55999756 0.0003000000
  -999.250000 2.4022998810 0.1359000057 0.3310000002 53.594001770 2152.4975586
  -999.250000 8.3593997955 8.5000000000  -999.250000  -999.250000  -999.250000
