# LAS format log file from PETREL
# Project units are specified as depth units
#==================================================================
~Version information
VERS.   2.0:
WRAP.   YES:
#==================================================================
~Well
STRT .m      800.09997440 :
STOP .m      2299.7159264 :
STEP .m     0.15240000 :
NULL .        -999.250000 :
COMP.           : COMPANY
WELL.  34/10-19   : WELL
FLD.            : FIELD
LOC.            : LOCATION
SRVC.           : SERVICE COMPANY
DATE.  Wednesday, March 31 2010 12:33:14   : DATE
PROV.           : PROVINCE
UWI.      : UNIQUE WELL ID
API.            : API NUMBER
#==================================================================
~Curve
DEPT .m                   : DEPTH
NETS .                    : NETS
COAL .                    : COAL
CARB .                    : CARB
VSH .                     : VSH
SW .                      : SW
ILD .ohm.m                : ILD
ILM .ohm.m                : ILM
DT .us/ft                 : DT
KLOG .mD                  : KLOG
DRHO .g/cm3               : DRHO
RHOB .g/cm3               : RHOB
PHIF .m3/m3               : PHIF
NPHI .m3/m3               : NPHI
GR .gAPI                  : GR
DEPT .m                   : DEPT
TIME .ms                  : TIME
CALI .in                  : CALI
BS .in                    : BS
QTOT .rm3/d               : QTOT
QWAT .sm3/d               : QWAT
GeneralTime1 .ms          : General Time 1
~Parameter
#==================================================================
~Ascii
# ...
 2152.8023311
 0.0000000000 0.0000000000 0.0000000000 0.6790999770 1.0000000000 1.1229000092
  -999.250000 108.24700165 0.0066999998 0.0015000000 2.4200000763 0.1022000015
 0.3869000077 64.743896484 2152.8024902  -999.250000 8.5778999329  -999.250000
  -999.250000  -999.250000  -999.250000
 2152.9547311
 0.0000000000 0.0000000000 0.0000000000 0.5845000148 1.0000000000 1.0701999664
  -999.250000 105.24829865 0.0130000003  -999.250000 2.4140000343 0.1123000011
 0.3309000134 58.743099213 2152.9548340  -999.250000 8.4139003754  -999.250000
  -999.250000  -999.250000  -999.250000
 2153.1071311
 0.0000000000 0.0000000000 0.0000000000 0.4381999969 1.0000000000 0.9851999879
  -999.250000 104.00150299 0.0696000010  -999.250000 2.3889999390 0.1377999932
 0.2770000100 53.703399658 2153.1071777  -999.250000 8.2812995911  -999.250000
  -999.250000  -999.250000  -999.250000
 2153.2595311
 0.0000000000 0.0000000000 0.0000000000 0.3697000146 1.0000000000 0.8957999945
  -999.250000 104.88050079 0.2815000117  -999.250000 2.3608999252 0.1589999944
 0.2649999857 44.799598694 2153.2595215  -999.250000 8.2890996933  -999.250000
  -999.250000  -999.250000  -999.250000
 2153.4119311
 1.0000000000 0.0000000000 0.0000000000 0.2910000086 1.0000000000 0.8173999786
  -999.250000 105.12979889 1.2755999565  -999.250000 2.3320000172 0.1819999963
 0.2590000033 38.473499298 2153.4121094  -999.250000 8.2890996933  -999.250000
  -999.250000  -999.250000  -999.250000
 2153.5643311
 1.0000000000 0.0000000000 0.0000000000 0.2162999958 1.0000000000 0.7451000214
  -999.250000 106.75000000 6.1616001129  -999.250000 2.3010001183 0.2058999985
 0.2549999952 33.219001770 2153.5644531  -999.250000 8.2812995911  -999.250000
  -999.250000  -999.250000  -999.250000
 2153.7167311
 1.0000000000 0.0000000000 0.0000000000 0.1726000011 1.0000000000 0.6776999831
  -999.250000 108.62999725 20.527799606  -999.250000 2.2750000954 0.2241999954
 0.2569999993 30.172000885 2153.7167969  -999.250000 8.2578001022  -999.250000
  -999.250000  -999.250000  -999.250000
 2153.8691311
 1.0000000000 0.0000000000 0.0000000000 0.1633999944 1.0000000000 0.6215999722
  -999.250000 110.00000000 49.992000580  -999.250000 2.2539999485 0.2377000004
 0.2489999980 29.358999252 2153.8691406  -999.250000 8.3515996933  -999.250000
  -999.250000  -999.250000  -999.250000
 2154.0215311
 1.0000000000 0.0000000000 0.0000000000 0.1571000069 1.0000000000 0.5849000216
  -999.250000 111.75019836 44.110900879  -999.250000 2.2579998970 0.2357999980
 0.2579999864 28.799200058 2154.0214844  -999.250000 8.4217996597  -999.250000
  -999.250000  -999.250000  -999.250000
 2154.1739311
 1.0000000000 0.0000000000 0.0000000000 0.1943999976 1.0000000000 0.5619999766
  -999.250000 111.99859619 23.411800385  -999.250000 2.2690000534 0.2261999995
 0.2509999871 31.656000137 2154.1740723  -999.250000 8.2890996933  -999.250000
  -999.250000  -999.250000  -999.250000
 2154.3263311
 1.0000000000 0.0000000000 0.0000000000 0.1938000023 1.0000000000 0.5479000211
  -999.250000 110.74310303 12.645099640  -999.250000 2.2850000858 0.2169000059
 0.2599999905 31.690599442 2154.3264160  -999.250000 8.2501001358  -999.250000
  -999.250000  -999.250000  -999.250000
 2154.4787311
 1.0000000000 0.0000000000 0.0000000000 0.2178000063 1.0000000000 0.5576999784
  -999.250000 106.12190247 11.325799942  -999.250000 2.2850000858 0.2152000070
 0.2469999939 33.436000824 2154.4787598  -999.250000 8.2891998291  -999.250000
  -999.250000  -999.250000  -999.250000
 2154.6311311
 1.0000000000 0.0000000000 0.0000000000 0.2058999985 1.0000000000 0.5859000087
  -999.250000 101.75420380 13.949000359  -999.250000 2.2809998989 0.2182999998
 0.2479999959 32.345001221 2154.6311035  -999.250000 8.3514995575  -999.250000
  -999.250000  -999.250000  -999.250000
 2154.7835310
 1.0000000000 0.0000000000 0.0000000000 0.1767999977 1.0000000000 0.6410999894
  -999.250000 98.002296448 11.732799530  -999.250000 2.2890000343 0.2157000005
 0.2269999981 32.280998230 2154.7836914  -999.250000 8.3046998978  -999.250000
  -999.250000  -999.250000  -999.250000
 2154.9359310
 1.0000000000 0.0000000000 0.0000000000 0.1888000071 1.0000000000 0.7167999744
  -999.250000 92.500000000 10.295700073  -999.250000 2.2909998894 0.2136999965
 0.2310000062 32.812999725 2154.9360352  -999.250000 8.2343997955  -999.250000
  -999.250000  -999.250000  -999.250000
 2155.0883310
 1.0000000000 0.0000000000 0.0000000000 0.2046000063 1.0000000000 0.7954000235
  -999.250000 90.625000000 4.4363999367  -999.250000 2.3099999428 0.2009000033
 0.2409999967 32.469001770 2155.0883789  -999.250000 8.2421998978  -999.250000
  -999.250000  -999.250000  -999.250000
 2155.2407310
 1.0000000000 0.0000000000 0.0001000000 0.2091999948 1.0000000000 0.8657000065
  -999.250000 86.121803284 1.8594000340  -999.250000 2.3320000172 0.1877000034
 0.2419999987 32.718601227 2155.2407227  -999.250000 8.2812995911  -999.250000
  -999.250000  -999.250000  -999.250000
 2155.3931310
 0.0000000000 0.0000000000 0.2000000030 0.1979999989 1.0000000000 0.8896999955
  -999.250000 79.749603271 0.1428000033  -999.250000 2.3980000019 0.1488000005
 0.2020000070 31.984699249 2155.3933105  -999.250000 8.2500000000  -999.250000
  -999.250000  -999.250000  -999.250000
 2155.5455310
 0.0000000000 0.0000000000 0.2000000030 0.1859000027 1.0000000000 0.9215000272
  -999.250000 79.252502441 0.0478999987  -999.250000 2.4279000759 0.1321000010
 0.1480000019 32.749099731 2155.5456543  -999.250000 8.2265996933  -999.250000
  -999.250000  -999.250000  -999.250000
 2155.6979310
 0.0000000000 0.0000000000 0.1996999979 0.0947000012 1.0000000000 0.9918000102
  -999.250000 81.256301880 0.3736000061  -999.250000 2.3868999481 0.1631000042
 0.1341000050 31.999599457 2155.6979980  -999.250000 8.2579002380  -999.250000
  -999.250000  -999.250000  -999.250000
 2155.8503310
 1.0000000000 0.0000000000 0.0000000000 0.0788000003 1.0000000000 1.0460000038
  -999.250000 85.125701904 5.8090000153  -999.250000 2.3180000782 0.2049999982
 0.1680999994 31.752500534 2155.8503418  -999.250000 8.3125000000  -999.250000
  -999.250000  -999.250000  -999.250000
 2156.0027310
 1.0000000000 0.0000000000 0.0000000000 0.1511999965 0.9805999994 1.0731999874
  -999.250000 85.499702454 7.1318998337  -999.250000 2.3050000668 0.2081999928
 0.2070000023 33.029899597 2156.0026855  -999.250000 8.2890996933  -999.250000
  -999.250000  -999.250000  -999.250000
 2156.1551310
 0.0000000000 0.0000000000 0.1999000013 0.2131000012 1.0000000000 1.0654000044
  -999.250000 78.128601074 0.6233000159  -999.250000 2.3589999676 0.1711000055
 0.2000000030 34.030498505 2156.1552734  -999.250000 8.2656002045  -999.250000
  -999.250000  -999.250000  -999.250000
 2156.3075310
 0.0000000000 0.0000000000 0.2000000030 0.2032999992 1.0000000000 1.0605000257
  -999.250000 72.375000000 0.0377000012  -999.250000 2.4319999218 0.1284999996
 0.1529999971 33.030998230 2156.3076172  -999.250000 8.2656002045  -999.250000
  -999.250000  -999.250000  -999.250000
 2156.4599310
 0.0000000000 0.0000000000 0.2000000030 0.1385000050 1.0000000000 1.0722999573
  -999.250000 72.000000000 0.0469000004  -999.250000 2.4340000153 0.1318999976
 0.1250000000 28.406000137 2156.4599609  -999.250000 8.2578001022  -999.250000
  -999.250000  -999.250000  -999.250000
 2156.6123310
 0.0000000000 0.0000000000 0.2000000030 0.1172999963 1.0000000000 1.1953999996
  -999.250000 79.749000549 0.2073999941  -999.250000 2.3980000019 0.1544000059
 0.1369999945 26.672199249 2156.6123047  -999.250000 8.2265996933  -999.250000
  -999.250000  -999.250000  -999.250000
 2156.7647310
 0.0000000000 0.0000000000 0.1997999996 0.1271000057 1.0000000000 1.2969000340
  -999.250000 78.133499146 0.4271999896  -999.250000 2.3789999485 0.1653999984
 0.1640000045 26.988199234 2156.7648926  -999.250000 8.2421998978  -999.250000
  -999.250000  -999.250000  -999.250000
 2156.9171310
 0.0000000000 0.0000000000 0.0000000000 0.1720000058 1.0000000000 1.2616000175
  -999.250000 86.625701904 0.2022999972  -999.250000 2.3929998875 0.1541000009
 0.1630000025 31.222799301 2156.9172363  -999.250000 8.2889995575  -999.250000
  -999.250000  -999.250000  -999.250000
