# LAS format log file from PETREL
# Project units are specified as depth units
#==================================================================
~Version information
VERS.   2.0:
WRAP.   YES:
#==================================================================
~Well
STRT .m      800.09997440 :
STOP .m      2299.7159264 :
STEP .m     0.15240000 :
NULL .        -999.250000 :
COMP.           : COMPANY
WELL.  34/10-19   : WELL
FLD.            : FIELD
LOC.            : LOCATION
SRVC.           : SERVICE COMPANY
DATE.  Wednesday, March 31 2010 12:33:14   : DATE
PROV.           : PROVINCE
UWI.      : UNIQUE WELL ID
API.            : API NUMBER
#==================================================================
~Curve
DEPT .m                   : DEPTH
NETS .                    : NETS
COAL .                    : COAL
CARB .                    : CARB
VSH .                     : VSH
SW .                      : SW
ILD .ohm.m                : ILD
ILM .ohm.m                : ILM
DT .us/ft                 : DT
KLOG .mD                  : KLOG
DRHO .g/cm3               : DRHO
RHOB .g/cm3               : RHOB
PHIF .m3/m3               : PHIF
NPHI .m3/m3               : NPHI
GR .gAPI                  : GR
DEPT .m                   : DEPT
TIME .ms                  : TIME
CALI .in                  : CALI
BS .in                    : BS
QTOT .rm3/d               : QTOT
QWAT .sm3/d               : QWAT
GeneralTime1 .ms          : General Time 1
~Parameter
#==================================================================
~Ascii
# ...
 2054.6567343
 1.0000000000 0.0000000000 0.0000000000 0.2524000108 1.0000000000 0.5156999826
  -999.250000 104.99939728 75.593803406  -999.250000 2.2323999405 0.2440000027
 0.3120000064 35.530799866 2054.6567383  -999.250000 8.3906002045  -999.250000
  -999.250000  -999.250000  -999.250000
 2054.8091342
 1.0000000000 0.0000000000 0.0000000000 0.2009000033 1.0000000000 0.5738000274
  -999.250000 103.63069916 112.24420166  -999.250000 2.2284998894 0.2500000000
 0.2734000087 35.127700806 2054.8090820  -999.250000 8.3671998978  -999.250000
  -999.250000  -999.250000  -999.250000
 2054.9615342
 1.0000000000 0.0000000000 0.0000000000 0.1897000074 0.9998999834 0.6534000039
  -999.250000 104.50099945 167.19200134  -999.250000 2.2207000256 0.2560000122
 0.2734000087 38.634700775 2054.9616699  -999.250000 8.3670997620  -999.250000
  -999.250000  -999.250000  -999.250000
 2055.1139342
 1.0000000000 0.0008000000 0.0000000000 0.1427000016 0.9520000219 0.7275999784
  -999.250000 105.39340210 708.27899170  -999.250000 2.1893000603 0.2779000103
 0.2725000083 47.102798462 2055.1140137  -999.250000 8.3125000000  -999.250000
  -999.250000  -999.250000  -999.250000
 2055.2663342
 1.0000000000 0.5000000000 0.0000000000 0.0929000005 1.0000000000 0.7950999737
  -999.250000 114.26760101 66.127998352  -999.250000 2.0876998901 0.2417999953
 0.3125999868 52.940399170 2055.2663574  -999.250000 8.2969999313  -999.250000
  -999.250000  -999.250000  -999.250000
 2055.4187342
 0.0000000000 0.5000000000 0.0000000000 0.0318000019 1.0000000000 0.8719999790
  -999.250000 123.61109924 0.0874999985  -999.250000 1.9620000124 0.1221000031
 0.3623000085 54.248798370 2055.4187012  -999.250000 8.3670997620  -999.250000
  -999.250000  -999.250000  -999.250000
 2055.5711342
 0.0000000000 0.9997000098 0.0000000000 0.5383999944 1.0000000000 0.9686999917
  -999.250000 132.24499512 0.0000000000  -999.250000 1.9189000130 0.0100999996
 0.4149999917 58.528499603 2055.5712891  -999.250000 8.3671998978  -999.250000
  -999.250000  -999.250000  -999.250000
 2055.7235342
 0.0000000000 1.0000000000 0.0000000000 0.6019999981 1.0000000000 1.1054999828
  -999.250000 136.00000000 0.0000000000  -999.250000 1.9414000511 0.0099999998
 0.4740999937 63.219001770 2055.7236328  -999.250000 8.3906002045  -999.250000
  -999.250000  -999.250000  -999.250000
 2055.8759342
 0.0000000000 0.5000000000 0.0000000000 0.4616999924 1.0000000000 1.2402000427
  -999.250000 139.00000000 0.0007000000  -999.250000 2.0039000511 0.0670000017
 0.5170999765 67.688003540 2055.8759766  -999.250000 8.4218997955  -999.250000
  -999.250000  -999.250000  -999.250000
 2056.0283342
 0.0000000000 0.5002999902 0.0000000000 0.4623000026 1.0000000000 1.3535000086
  -999.250000 141.50210571 0.0027999999  -999.250000 1.9667999744 0.0890000015
 0.5396000147 62.872200012 2056.0283203  -999.250000 8.4375000000  -999.250000
  -999.250000  -999.250000  -999.250000
 2056.1807342
 0.0000000000 1.0000000000 0.0000000000 0.5285000205 1.0000000000 1.4239000082
  -999.250000 145.50070190 0.0000000000 -0.0000000000 1.8777999878 0.0099999998
 0.5468000174 57.523601532 2056.1809082  -999.250000 8.4375000000  -999.250000
  -999.250000  -999.250000  -999.250000
 2056.3331342
 0.0000000000 1.0000000000 0.0000000000 0.4187999964 1.0000000000 1.4795999527
  -999.250000 146.24719238 0.0000000000  -999.250000 1.8056000471 0.0099999998
 0.5092999935 49.276100159 2056.3332520  -999.250000 8.4373998642  -999.250000
  -999.250000  -999.250000  -999.250000
 2056.4855342
 0.0000000000 1.0000000000 0.0000000000 0.3641999960 1.0000000000 1.5342999697
  -999.250000 143.99839783 0.0000000000  -999.250000 1.7137999535 0.0099999998
 0.5131999850 45.398700714 2056.4855957  -999.250000 8.3516998291  -999.250000
  -999.250000  -999.250000  -999.250000
 2056.6379342
 0.0000000000 1.0000000000 0.0000000000 0.3059999943 1.0000000000 1.5908999443
  -999.250000 142.99949646 0.0000000000  -999.250000 1.6355999708 0.0099999998
 0.5152999759 40.907398224 2056.6379395  -999.250000 8.3902997971  -999.250000
  -999.250000  -999.250000  -999.250000
 2056.7903342
 0.0000000000 1.0000000000 0.0000000000 0.3111999929 1.0000000000 1.6356999874
  -999.250000 142.75019836 0.0000000000  -999.250000 1.5685000420 0.0099999998
 0.5809999704 41.624401093 2056.7902832  -999.250000 8.2579002380  -999.250000
  -999.250000  -999.250000  -999.250000
 2056.9427342
 0.0000000000 1.0000000000 0.0000000000 0.3582000136 1.0000000000 1.6708999872
  -999.250000 141.75050354 0.0000000000  -999.250000 1.5771000385 0.0099999998
 0.5967000127 44.842498779 2056.9428711  -999.250000 8.3905000687  -999.250000
  -999.250000  -999.250000  -999.250000
 2057.0951342
 0.0000000000 1.0000000000 0.0000000000 0.5199000239 1.0000000000 1.6864999533
  -999.250000 138.86999512 0.0000000000  -999.250000 1.6601999998 0.0099999998
 0.6294000149 56.875000000 2057.0952148  -999.250000 8.4375000000  -999.250000
  -999.250000  -999.250000  -999.250000
 2057.2475342
 0.0000000000 1.0000000000 0.0000000000 0.6230000257 1.0000000000 1.6894999743
  -999.250000 132.25000000 0.0000000000  -999.250000 1.8105000257 0.0099999998
 0.5922999978 64.188003540 2057.2475586  -999.250000 8.5546998978  -999.250000
  -999.250000  -999.250000  -999.250000
 2057.3999342
 0.0000000000 0.5000000000 0.0000000000 0.6431000233 0.8489999771 1.6492999792
  -999.250000 125.61409760 0.0993999988  -999.250000 2.0255000591 0.1411000043
 0.5800999999 69.749702454 2057.3999023  -999.250000 8.6484003067  -999.250000
  -999.250000  -999.250000  -999.250000
 2057.5523342
 0.0000000000 0.4995000064 0.0000000000 0.7502999902 0.6132000089 1.5613000393
  -999.250000 116.49410248 21.605800629  -999.250000 2.2070999146 0.2249000072
 0.5687999725 69.251296997 2057.5524902  -999.250000 8.6875000000  -999.250000
  -999.250000  -999.250000  -999.250000
 2057.7047342
 0.0000000000 0.0000000000 0.0000000000 0.7666000128 0.7714999914 1.4118000269
  -999.250000 110.62840271 0.4154999852  -999.250000 2.3046998978 0.1650000066
 0.5522000194 70.501098633 2057.7048340  -999.250000 8.6561002731  -999.250000
  -999.250000  -999.250000  -999.250000
 2057.8571341
 0.0000000000 0.0000000000 0.0000000000 0.7718999982 0.8932999969 1.2174999714
  -999.250000 109.49299622 0.1042999998  -999.250000 2.3397998810 0.1439999938
 0.5188999772 71.304100037 2057.8571777  -999.250000 8.5466995239  -999.250000
  -999.250000  -999.250000  -999.250000
 2058.0095341
 0.0000000000 0.0000000000 0.0000000000 0.6933000088 1.0000000000 1.0281000137
  -999.250000 105.49890137 0.0807999969  -999.250000 2.3554000854 0.1401000023
 0.4564999938 66.231903076 2058.0095215  -999.250000 8.4449996948  -999.250000
  -999.250000  -999.250000  -999.250000
 2058.1619341
 0.0000000000 0.0000000000 0.0000000000 0.5634999871 1.0000000000 0.9316999912
  -999.250000 105.00039673 0.3892000020  -999.250000 2.3301000595 0.1640000045
 0.4194999933 57.694099426 2058.1621094  -999.250000 8.2891998291  -999.250000
  -999.250000  -999.250000  -999.250000
 2058.3143341
 0.0000000000 0.0000000000 0.0000000000 0.4043999910 1.0000000000 0.8734999895
  -999.250000 107.62999725 4.7555999756  -999.250000 2.2852001190 0.2020000070
 0.3598999977 46.062999725 2058.3144531  -999.250000 8.4375000000  -999.250000
  -999.250000  -999.250000  -999.250000
 2058.4667341
 1.0000000000 0.0000000000 0.0000000000 0.2987000048 1.0000000000 0.8134999871
  -999.250000 107.25000000 28.144899368  -999.250000 2.2520000935 0.2290000021
 0.3003000021 40.750000000 2058.4667969  -999.250000 8.5000000000  -999.250000
  -999.250000  -999.250000  -999.250000
 2058.6191341
 1.0000000000 0.0000000000 0.0000000000 0.2073999941 1.0000000000 0.7461000085
  -999.250000 106.00000000 36.626899719  -999.250000 2.2558999062 0.2329999954
 0.2597999871 40.312999725 2058.6191406  -999.250000 8.3203001022  -999.250000
  -999.250000  -999.250000  -999.250000
 2058.7715341
 1.0000000000 0.0000000000 0.0000000000 0.2700999975 1.0000000000 0.6859999895
  -999.250000 109.25060272 16.616600037  -999.250000 2.2695000172 0.2210000008
 0.2777999938 45.750900269 2058.7714844  -999.250000 8.3125000000  -999.250000
  -999.250000  -999.250000  -999.250000
