# LAS format log file from PETREL
# Project units are specified as depth units
#==================================================================
~Version information
VERS.   2.0:
WRAP.   YES:
#==================================================================
~Well
STRT .m      800.09997440 :
STOP .m      2449.8299216 :
STEP .m     0.15240000 :
NULL .        -999.250000 :
COMP.           : COMPANY
WELL.  34/10-15   : WELL
FLD.            : FIELD
LOC.            : LOCATION
SRVC.           : SERVICE COMPANY
DATE.  Wednesday, March 31 2010 12:33:14   : DATE
PROV.           : PROVINCE
UWI.      : UNIQUE WELL ID
API.            : API NUMBER
#==================================================================
~Curve
DEPT .m                   : DEPTH
NETS .                    : NETS
COAL .                    : COAL
CARB .                    : CARB
VSH .                     : VSH
SW .                      : SW
ILD .ohm.m                : ILD
MSFL .ohm.m               : MSFL
LLS .ohm.m                : LLS
LLD .ohm.m                : LLD
ILM .ohm.m                : ILM
DT .us/ft                 : DT
KLOG .mD                  : KLOG
DRHO .g/cm3               : DRHO
RHOB .g/cm3               : RHOB
PHIF .m3/m3               : PHIF
NPHI .m3/m3               : NPHI
GR .gAPI                  : GR
DEPT .m                   : DEPT
TIME .ms                  : TIME
CALI .in                  : CALI
BS .in                    : BS
QTOT .rm3/d               : QTOT
QWAT .sm3/d               : QWAT
GeneralTime1 .ms          : General Time 1
~Parameter
#==================================================================
~Ascii
# ...
 1802.1299423
  -999.250000  -999.250000 0.0000000000 1.0000000000  -999.250000 0.7821999788
 1.2597999573 0.9405999780 0.8234999776  -999.250000 136.74940491  -999.250000
  -999.250000 2.2090001106 0.0000000000 0.4907000065 60.437400818 1802.1300049
  -999.250000 9.0156002045 8.5000000000  -999.250000  -999.250000  -999.250000
 1802.2823423
  -999.250000  -999.250000 0.0000000000 1.0000000000  -999.250000 0.7846999764
 1.2100000381 0.9265000224 0.8140000105  -999.250000 136.00030518  -999.250000
  -999.250000 2.2070000172 0.0000000000 0.5175999999 59.688301086 1802.2823486
  -999.250000 9.0156002045 8.5000000000  -999.250000  -999.250000  -999.250000
 1802.4347423
  -999.250000  -999.250000 0.0000000000 1.0000000000  -999.250000 0.7919999957
 1.1845999956 0.9068999887 0.8148000240  -999.250000 134.50000000  -999.250000
  -999.250000 2.2090001106 0.0000000000 0.4902000129 58.344001770 1802.4348145
  -999.250000 9.0078001022 8.5000000000  -999.250000  -999.250000  -999.250000
 1802.5871423
  -999.250000  -999.250000 0.0000000000 1.0000000000  -999.250000 0.7993000150
 1.1435999870 0.9294000268 0.8093000054  -999.250000 133.75000000  -999.250000
  -999.250000 2.2090001106 0.0000000000 0.4731000066 59.312999725 1802.5871582
  -999.250000 8.9687995911 8.5000000000  -999.250000  -999.250000  -999.250000
 1802.7395423
  -999.250000  -999.250000 0.0000000000 1.0000000000  -999.250000 0.8051999807
 1.1523000002 0.9404000044 0.8159000278  -999.250000 131.99969482  -999.250000
  -999.250000 2.2207000256 0.0000000000 0.4688000083 58.626201630 1802.7396240
  -999.250000 8.9687995911 8.5000000000  -999.250000  -999.250000  -999.250000
 1802.8919423
  -999.250000  -999.250000 0.0000000000 1.0000000000  -999.250000 0.8065999746
 1.1493999958 0.9476000071 0.8205000162  -999.250000 131.50030518  -999.250000
  -999.250000 2.2304999828 0.0000000000 0.4711999893 60.498298645 1802.8919678
  -999.250000 8.9453001022 8.5000000000  -999.250000  -999.250000  -999.250000
 1803.0443423
  -999.250000  -999.250000 0.0000000000 1.0000000000  -999.250000 0.8076000214
 1.1260000467 0.9639999866 0.8470000029  -999.250000 131.75000000  -999.250000
  -999.250000 2.2362999916 0.0000000000 0.4769999981 58.812999725 1803.0444336
  -999.250000 8.9296998978 8.5000000000  -999.250000  -999.250000  -999.250000
 1803.1967423
  -999.250000  -999.250000 0.0000000000 1.0000000000  -999.250000 0.8061000109
 1.2118999958 1.0267000198 0.8579000235  -999.250000 132.00000000  -999.250000
  -999.250000 2.2284998894 0.0000000000 0.4697000086 58.280998230 1803.1967773
  -999.250000 8.9296998978 8.5000000000  -999.250000  -999.250000  -999.250000
 1803.3491423
  -999.250000  -999.250000 0.0000000000 1.0000000000  -999.250000 0.8051999807
 1.3036999702 0.9951000214 0.8855000138  -999.250000 134.25050354  -999.250000
  -999.250000 2.2167999744 0.0000000000 0.4867999852 57.875400543 1803.3492432
  -999.250000 8.9296998978 8.5000000000  -999.250000  -999.250000  -999.250000
 1803.5015423
  -999.250000  -999.250000 0.0000000000 1.0000000000  -999.250000 0.8026999831
 1.3193000555 1.0111999512 0.8768000007  -999.250000 135.25039673  -999.250000
  -999.250000 2.2167999744 0.0000000000 0.4623999894 58.722400665 1803.5015869
  -999.250000 8.9296998978 8.5000000000  -999.250000  -999.250000  -999.250000
 1803.6539423
  -999.250000  -999.250000 0.0000000000 1.0000000000  -999.250000 0.7979000211
 1.2958999872 0.9944999814 0.8562999964  -999.250000 135.75000000  -999.250000
  -999.250000 2.2167999744 0.0000000000 0.4311000109 62.625000000 1803.6540527
  -999.250000 8.9140996933 8.5000000000  -999.250000  -999.250000  -999.250000
 1803.8063423
  -999.250000  -999.250000 0.0000000000 1.0000000000  -999.250000 0.7914999723
 1.2910000086 0.9611999989 0.8335000277  -999.250000 135.50000000  -999.250000
  -999.250000 2.2207000256 0.0000000000 0.4291999936 65.375000000 1803.8063965
  -999.250000 8.9062995911 8.5000000000  -999.250000  -999.250000  -999.250000
 1803.9587423
  -999.250000  -999.250000 0.0000000000 1.0000000000  -999.250000 0.7856000066
 1.3018000126 0.9707999825 0.8173999786  -999.250000 135.00000000  -999.250000
  -999.250000 2.2090001106 0.0000000000 0.4521000087 64.688003540 1803.9587402
  -999.250000 8.8906002045 8.5000000000  -999.250000  -999.250000  -999.250000
 1804.1111423
  -999.250000  -999.250000 0.0000000000 1.0000000000  -999.250000 0.7817000151
 1.2529000044 0.9567000270 0.8098000288  -999.250000 135.25039673  -999.250000
  -999.250000 2.2030999660 0.0000000000 0.4731000066 60.497798920 1804.1112061
  -999.250000 8.8906002045 8.5000000000  -999.250000  -999.250000  -999.250000
 1804.2635423
  -999.250000  -999.250000 0.0000000000 1.0000000000  -999.250000 0.7817000151
 1.2821999788 0.9390000105 0.8201000094  -999.250000 135.74980164  -999.250000
  -999.250000 2.1895000935 0.0000000000 0.4623999894 57.595298767 1804.2635498
  -999.250000 8.8984003067 8.5000000000  -999.250000  -999.250000  -999.250000
 1804.4159423
  -999.250000  -999.250000 0.0000000000 1.0000000000  -999.250000 0.7871000171
 1.3095999956 0.9394999743 0.8260999918  -999.250000 136.25000000  -999.250000
  -999.250000 2.1875000000 0.0000000000 0.4819000065 58.375000000 1804.4160156
  -999.250000 8.8828001022 8.5000000000  -999.250000  -999.250000  -999.250000
 1804.5683423
  -999.250000  -999.250000 0.0000000000 1.0000000000  -999.250000 0.7973999977
 1.2196999788 0.9672999978 0.8345999718  -999.250000 135.75000000  -999.250000
  -999.250000 2.1854999065 0.0000000000 0.4794999957 61.344001770 1804.5683594
  -999.250000 8.8828001022 8.5000000000  -999.250000  -999.250000  -999.250000
 1804.7207422
  -999.250000  -999.250000 0.0000000000 1.0000000000  -999.250000 0.8130000234
 1.2646000385 0.9696999788 0.8324999809  -999.250000 135.74940491  -999.250000
  -999.250000 2.1953001022 0.0000000000 0.4925999939 62.063598633 1804.7208252
  -999.250000 8.8828001022 8.5000000000  -999.250000  -999.250000  -999.250000
 1804.8731422
  -999.250000  -999.250000 0.0000000000 1.0000000000  -999.250000 0.8330000043
 1.2480000257 0.9548000097 0.8307999969  -999.250000 134.74850464  -999.250000
  -999.250000 2.2051000595 0.0000000000 0.4408999979 63.031898499 1804.8731689
  -999.250000 8.8828001022 8.5000000000  -999.250000  -999.250000  -999.250000
 1805.0255422
  -999.250000  -999.250000 0.0000000000 1.0000000000  -999.250000 0.8506000042
 1.2733999491 0.9541000128 0.8173000216  -999.250000 133.25000000  -999.250000
  -999.250000 2.2090001106 0.0000000000 0.4433999956 63.937999725 1805.0256348
  -999.250000 8.8828001022 8.5000000000  -999.250000  -999.250000  -999.250000
 1805.1779422
  -999.250000  -999.250000 0.0000000000 1.0000000000  -999.250000 0.8593999743
 1.2393000126 0.9714999795 0.8252000213  -999.250000 131.75000000  -999.250000
  -999.250000 2.2246000767 0.0000000000 0.4169999957 61.344001770 1805.1779785
  -999.250000 8.8828001022 8.5000000000  -999.250000  -999.250000  -999.250000
 1805.3303422
  -999.250000  -999.250000 0.0000000000 1.0000000000  -999.250000 0.8647999763
 1.2626999617 0.9733999968 0.8532000184  -999.250000 130.50010681  -999.250000
  -999.250000 2.2284998894 0.0000000000 0.4384999871 61.187198639 1805.3304443
  -999.250000 8.8750000000 8.5000000000  -999.250000  -999.250000  -999.250000
 1805.4827422
  -999.250000  -999.250000 0.0000000000 1.0000000000  -999.250000 0.8682000041
 1.2540999651 1.0061000586 0.8773000240  -999.250000 130.75000000  -999.250000
  -999.250000 2.2323999405 0.0000000000 0.4228000045 59.565101624 1805.4827881
  -999.250000 8.8828001022 8.5000000000  -999.250000  -999.250000  -999.250000
 1805.6351422
  -999.250000  -999.250000 0.0000000000 1.0000000000  -999.250000 0.8695999980
 1.4570000172 1.0419000387 0.8941000104  -999.250000 130.75000000  -999.250000
  -999.250000 2.2284998894 0.0000000000 0.4185000062 61.969001770 1805.6352539
  -999.250000 8.8828001022 8.5000000000  -999.250000  -999.250000  -999.250000
 1805.7875422
  -999.250000  -999.250000 0.0000000000 1.0000000000  -999.250000 0.8686000109
 1.3368999958 1.0441999435 0.8935999870  -999.250000 132.75000000  -999.250000
  -999.250000 2.2147998810 0.0000000000 0.4063000083 60.187999725 1805.7875977
  -999.250000 8.8828001022 8.5000000000  -999.250000  -999.250000  -999.250000
