# LAS format log file from PETREL
# Project units are specified as depth units
#==================================================================
~Version information
VERS.   2.0:
WRAP.   YES:
#==================================================================
~Well
STRT .m      800.09997440 :
STOP .m      2299.7159264 :
STEP .m     0.15240000 :
NULL .        -999.250000 :
COMP.           : COMPANY
WELL.  34/10-11   : WELL
FLD.            : FIELD
LOC.            : LOCATION
SRVC.           : SERVICE COMPANY
DATE.  Wednesday, March 31 2010 12:33:12   : DATE
PROV.           : PROVINCE
UWI.      : UNIQUE WELL ID
API.            : API NUMBER
#==================================================================
~Curve
DEPT .m                   : DEPTH
NETS .                    : NETS
COAL .                    : COAL
CARB .                    : CARB
VSH .                     : VSH
SW .                      : SW
ILD .ohm.m                : ILD
MSFL .ohm.m               : MSFL
LLS .ohm.m                : LLS
LLD .ohm.m                : LLD
ILM .ohm.m                : ILM
DT .us/ft                 : DT
KLOG .mD                  : KLOG
DRHO .g/cm3               : DRHO
RHOB .g/cm3               : RHOB
PHIF .m3/m3               : PHIF
NPHI .m3/m3               : NPHI
GR .gAPI                  : GR
DEPT .m                   : DEPT
TIME .ms                  : TIME
CALI .in                  : CALI
BS .in                    : BS
QTOT .rm3/d               : QTOT
QWAT .sm3/d               : QWAT
GeneralTime1 .ms          : General Time 1
~Parameter
#==================================================================
~Ascii
# ...
 2106.9299326
 0.0000000000 0.0000000000 0.0000000000 0.3727999926 0.9854000211 1.7616000175
 1.8286000490 1.8071999550 1.7101999521  -999.250000 107.99909973 0.0004000000
  -999.250000 2.3847000599 0.1418000013 0.4036999941 60.741199493 2106.9299316
  -999.250000 8.4687004089 8.5000000000  -999.250000  -999.250000  -999.250000
 2107.0823326
 1.0000000000 0.0000000000 0.0000000000 0.3316999972 0.8758000135 1.7138999701
 2.0817999840 1.8487999439 1.7668000460  -999.250000 107.56030273 0.0086000003
  -999.250000 2.3496000767 0.1659999937 0.3682000041 56.472301483 2107.0825195
  -999.250000 8.4062995911 8.5000000000  -999.250000  -999.250000  -999.250000
 2107.2347326
 1.0000000000 0.0000000000 0.0000000000 0.2711000144 0.7893999815 1.6504000425
 2.3046000004 1.9384000301 1.8540999889  -999.250000 106.38050079 0.5497000217
  -999.250000 2.3183999062 0.1893000007 0.3246999979 49.877700806 2107.2348633
  -999.250000 8.3984003067 8.5000000000  -999.250000  -999.250000  -999.250000
 2107.3871326
 1.0000000000 0.0000000000 0.0000000000 0.2820999920 0.7897999883 1.5722999573
 2.2304999828 1.8897999525 1.7898000479  -999.250000 105.75000000 1.7948999405
  -999.250000 2.3125000000 0.1921000034 0.3037000000 51.030998230 2107.3872070
  -999.250000 8.4140996933 8.5000000000  -999.250000  -999.250000  -999.250000
 2107.5395326
 1.0000000000 0.0000000000 0.0000000000 0.2795000076 0.8528000116 1.4951000214
 2.4316000938 1.7022999525 1.5908000469  -999.250000 107.37999725 1.3661999702
  -999.250000 2.3203001022 0.1876000017 0.2982999980 50.937999725 2107.5395508
  -999.250000 8.3515996933 8.5000000000  -999.250000  -999.250000  -999.250000
 2107.6919326
 1.0000000000 0.0000000000 0.0000000000 0.2881000042 0.8558999896 1.4148999453
 1.9795000553 1.5228999853 1.4327000380  -999.250000 108.00160217 2.6201999187
  -999.250000 2.3027000427 0.1976999938 0.3091000021 52.217601776 2107.6918945
  -999.250000 8.2421998978 8.5000000000  -999.250000  -999.250000  -999.250000
 2107.8443325
 1.0000000000 0.0000000000 0.0000000000 0.2694000006 0.8381999731 1.3201999664
 1.9107999802 1.3629000187 1.3063000441  -999.250000 110.38130188 11.503700256
  -999.250000 2.2753999233 0.2155999988 0.3080999851 50.157001495 2107.8444824
  -999.250000 8.2421998978 8.5000000000  -999.250000  -999.250000  -999.250000
 2107.9967325
 1.0000000000 0.0000000000 0.0000000000 0.2786999941 0.8406999707 1.2206000090
 1.6153000593 1.3423000574 1.2964999676  -999.250000 111.56030273 12.919099808
  -999.250000 2.2753999233 0.2150000036 0.3046999872 51.061401367 2107.9968262
  -999.250000 8.2812004089 8.5000000000  -999.250000  -999.250000  -999.250000
 2108.1491325
 1.0000000000 0.0000000000 0.0000000000 0.2673999965 0.8400999904 1.1541999578
 1.7002999783 1.3694000244 1.3516000509  -999.250000 111.74970245 8.4813995361
  -999.250000 2.2832000256 0.2109999955 0.3057000041 49.937500000 2108.1491699
  -999.250000 8.2421998978 8.5000000000  -999.250000  -999.250000  -999.250000
 2108.3015325
 1.0000000000 0.0000000000 0.0000000000 0.2648000121 0.8518000245 1.1190999746
 1.7537000179 1.3430000544 1.3258999586  -999.250000 111.56169891 5.5630998611
  -999.250000 2.2850999832 0.2099999934 0.3149999976 49.648498535 2108.3015137
  -999.250000 8.2420997620 8.5000000000  -999.250000  -999.250000  -999.250000
 2108.4539325
 1.0000000000 0.0000000000 0.0000000000 0.2326000035 0.8382999897 1.1327999830
 1.6603000164 1.1857999563 1.1613999605  -999.250000 112.36940002 20.593700409
  -999.250000 2.2500000000 0.2337000072 0.3262000084 46.190299988 2108.4541016
  -999.250000 8.2109003067 8.5000000000  -999.250000  -999.250000  -999.250000
 2108.6063325
 1.0000000000 0.0000000000 0.0000000000 0.2070000023 0.8582999706 1.1963000298
 1.6464999914 1.0631999969 0.9804999828  -999.250000 113.37000275 34.205398560
  -999.250000 2.2207000256 0.2520999908 0.3495999873 43.405998230 2108.6064453
  -999.250000 8.1953001022 8.5000000000  -999.250000  -999.250000  -999.250000
 2108.7587325
 1.0000000000 0.0000000000 0.0000000000 0.1815000027 0.8202999830 1.2870999575
 1.3085999489 1.1196000576 1.0338000059  -999.250000 113.55999756 42.555301666
  -999.250000 2.2128999233 0.2599000037 0.3524999917 40.405998230 2108.7587891
  -999.250000 8.2656002045 8.5000000000  -999.250000  -999.250000  -999.250000
 2108.9111325
 1.0000000000 0.0000000000 0.0000000000 0.1411000043 0.7623000145 1.3681999445
 1.3193000555 1.5274000168 1.5092999935  -999.250000 101.55290222 22.783000946
  -999.250000 2.2792999744 0.2222000062 0.2827000022 35.843601227 2108.9111328
  -999.250000 8.3203001022 8.5000000000  -999.250000  -999.250000  -999.250000
 2109.0635325
 0.0000000000 0.0000000000 0.0000000000 0.1334999949 0.9172999859 1.3777999878
 5.6233000755 1.9318000078 2.0915000439  -999.250000 85.366699219 1.5537999868
  -999.250000 2.3808999062 0.1562999934 0.1992000043 34.968898773 2109.0637207
  -999.250000 8.3358001709 8.5000000000  -999.250000  -999.250000  -999.250000
 2109.2159325
 0.0000000000 0.0000000000 0.0000000000 0.1305000037 0.9998000264 1.2694000006
 22.772899628 1.9615000486 2.1779999733  -999.250000 75.184700012 1.2888000011
  -999.250000 2.4042000771 0.1354999989 0.1669999957 34.845401764 2109.2160645
  -999.250000 8.2423000336 8.5000000000  -999.250000  -999.250000  -999.250000
 2109.3683325
 1.0000000000 0.0000000000 0.0000000000 0.1436000019 0.8260999918 1.1678999662
 2.3633000851 1.5192999840 1.6001000404  -999.250000 72.389900208 58.769699097
  -999.250000 2.3083999157 0.2043000013 0.2178999931 36.031398773 2109.3684082
  -999.250000 8.3591995239 8.5000000000  -999.250000  -999.250000  -999.250000
 2109.5207325
 1.0000000000 0.0000000000 0.0000000000 0.1439000070 0.8734999895 1.0966000557
 1.1512000561 0.9067000151 0.8751999736  -999.250000 82.019096375 393.58859253
  -999.250000 2.2049999237 0.2673999965 0.2842000127 36.280300140 2109.5207520
  -999.250000 8.2578001022 8.5000000000  -999.250000  -999.250000  -999.250000
 2109.6731325
 1.0000000000 0.0000000000 0.0000000000 0.1402000040 0.8722000122 1.0264999866
 1.0566999912 0.7235000134 0.7304000258  -999.250000 91.990798950 705.57360840
  -999.250000 2.1582000256 0.2960999906 0.3143999875 35.906299591 2109.6730957
  -999.250000 8.2421998978 8.5000000000  -999.250000  -999.250000  -999.250000
 2109.8255325
 1.0000000000 0.0000000000 0.0000000000 0.1474000067 0.8393999934 0.9409999847
 1.1454999447 0.7322999835 0.7692999840  -999.250000 104.99289703 584.23059082
  -999.250000 2.1503999233 0.3003999889 0.3305999935 36.562599182 2109.8256836
  -999.250000 8.3046998978 8.5000000000  -999.250000  -999.250000  -999.250000
 2109.9779325
 1.0000000000 0.0000000000 0.0000000000 0.1640000045 0.8266000152 0.8457000256
 1.1582000256 0.7619000077 0.8302999735  -999.250000 111.19000244 331.39889526
  -999.250000 2.1621000767 0.2921000123 0.3398000002 38.280998230 2109.9780273
  -999.250000 8.3515996933 8.5000000000  -999.250000  -999.250000  -999.250000
 2110.1303325
 1.0000000000 0.0000000000 0.0000000000 0.1569000036 0.8374999762 0.7461000085
 1.1309000254 0.7587000132 0.8197000027  -999.250000 112.19000244 207.51719666
  -999.250000 2.1659998894 0.2901999950 0.3535000086 37.469001770 2110.1303711
  -999.250000 8.3671998978 8.5000000000  -999.250000  -999.250000  -999.250000
 2110.2827325
 1.0000000000 0.0000000000 0.0000000000 0.1759999990 0.8640999794 0.6639999747
 1.0595999956 0.7501999736 0.8032000065  -999.250000 113.75070190 148.98280334
  -999.250000 2.1777000427 0.2818000019 0.3521000147 39.468498230 2110.2827148
  -999.250000 8.4062995911 8.5000000000  -999.250000  -999.250000  -999.250000
 2110.4351325
 1.0000000000 0.0000000000 0.0000000000 0.1678999960 0.8784000278 0.6118000150
 1.0702999830 0.7325999737 0.8000000119  -999.250000 115.00019836 110.77040100
  -999.250000 2.1854999065 0.2775999904 0.3535000086 38.562999725 2110.4353027
  -999.250000 8.4140996933 8.5000000000  -999.250000  -999.250000  -999.250000
 2110.5875325
 1.0000000000 0.0000000000 0.0000000000 0.1678999960 0.8741999865 0.5824999809
 1.0830999613 0.7221999764 0.8019999862  -999.250000 115.19200134 141.77400208
  -999.250000 2.1835999489 0.2786999941 0.3467000127 38.562900543 2110.5876465
  -999.250000 8.4140996933 8.5000000000  -999.250000  -999.250000  -999.250000
