# LAS format log file from PETREL
# Project units are specified as depth units
#==================================================================
~Version information
VERS.   2.0:
WRAP.   YES:
#==================================================================
~Well
STRT .m      800.09997440 :
STOP .m      2449.8299216 :
STEP .m     0.15240000 :
NULL .        -999.250000 :
COMP.           : COMPANY
WELL.  34/10-15   : WELL
FLD.            : FIELD
LOC.            : LOCATION
SRVC.           : SERVICE COMPANY
DATE.  Wednesday, March 31 2010 12:33:14   : DATE
PROV.           : PROVINCE
UWI.      : UNIQUE WELL ID
API.            : API NUMBER
#==================================================================
~Curve
DEPT .m                   : DEPTH
NETS .                    : NETS
COAL .                    : COAL
CARB .                    : CARB
VSH .                     : VSH
SW .                      : SW
ILD .ohm.m                : ILD
MSFL .ohm.m               : MSFL
LLS .ohm.m                : LLS
LLD .ohm.m                : LLD
ILM .ohm.m                : ILM
DT .us/ft                 : DT
KLOG .mD                  : KLOG
DRHO .g/cm3               : DRHO
RHOB .g/cm3               : RHOB
PHIF .m3/m3               : PHIF
NPHI .m3/m3               : NPHI
GR .gAPI                  : GR
DEPT .m                   : DEPT
TIME .ms                  : TIME
CALI .in                  : CALI
BS .in                    : BS
QTOT .rm3/d               : QTOT
QWAT .sm3/d               : QWAT
GeneralTime1 .ms          : General Time 1
~Parameter
#==================================================================
~Ascii
# ...
 2358.3899245
 0.0000000000 0.0000000000 0.1997999996 0.4298999906 1.0000000000 1.7001999617
 4.5102000237  -999.250000  -999.250000  -999.250000 82.373901367 0.0003000000
  -999.250000 2.5078001022 0.0649999976 0.2094999999 54.062698364 2358.3898926
  -999.250000 8.5783004761 8.5000000000  -999.250000  -999.250000  -999.250000
 2358.5423245
 0.0000000000 0.0000000000 0.0001000000 0.4562000036 1.0000000000 1.6914000511
 2.8603000641  -999.250000  -999.250000  -999.250000 89.184402466 0.0003000000
  -999.250000 2.4804999828 0.0802000016 0.2368000001 54.718601227 2358.5424805
  -999.250000 8.5546998978 8.5000000000  -999.250000  -999.250000  -999.250000
 2358.6947245
 0.0000000000 0.0000000000 0.0000000000 0.4638000131 1.0000000000 1.6777000427
 2.4003999233  -999.250000  -999.250000  -999.250000 94.375000000 0.0003000000
  -999.250000 2.4688000679 0.0869999975 0.2754000127 54.719001770 2358.6948242
  -999.250000 8.5546998978 8.5000000000  -999.250000  -999.250000  -999.250000
 2358.8471245
 0.0000000000 0.0000000000 0.0000000000 0.4530000091 1.0000000000 1.6464999914
 1.9512000084  -999.250000  -999.250000  -999.250000 96.375000000 0.0003000000
  -999.250000 2.4354999065 0.1085999981 0.3115000129 53.875000000 2358.8471680
  -999.250000 8.5390996933 8.5000000000  -999.250000  -999.250000  -999.250000
 2358.9995245
 0.0000000000 0.0000000000 0.0000000000 0.4573999941 1.0000000000 1.6054999828
 1.7998000383  -999.250000  -999.250000  -999.250000 97.374397278 0.0003000000
  -999.250000 2.4258000851 0.1143999994 0.3061000109 54.409999847 2358.9995117
  -999.250000 8.4843997955 8.5000000000  -999.250000  -999.250000  -999.250000
 2359.1519245
 0.0000000000 0.0000000000 0.0000000000 0.5389000177 1.0000000000 1.5693000555
 1.8320000172  -999.250000  -999.250000  -999.250000 96.373298645 0.0003000000
  -999.250000 2.4198999405 0.1123000011 0.3041999936 61.284099579 2359.1520996
  -999.250000 8.4610004425 8.5000000000  -999.250000  -999.250000  -999.250000
 2359.3043245
 0.0000000000 0.0000000000 0.0000000000 0.5023000240 1.0000000000 1.5536999702
 1.8789000511  -999.250000  -999.250000  -999.250000 94.562202454 0.0003000000
  -999.250000 2.4258000851 0.1111999974 0.2894999981 64.501502991 2359.3044434
  -999.250000 8.5156002045 8.5000000000  -999.250000  -999.250000  -999.250000
 2359.4567245
 0.0000000000 0.0000000000 0.0000000000 0.4968000054 1.0000000000 1.5498000383
 1.9062999487  -999.250000  -999.250000  -999.250000 93.998596191 0.0003000000
  -999.250000 2.4354999065 0.1054999977 0.2808000147 65.621597290 2359.4567871
  -999.250000 8.5471000671 8.5000000000  -999.250000  -999.250000  -999.250000
 2359.6091245
 0.0000000000 0.0000000000 0.0000000000 0.5037000179 1.0000000000 1.5626000166
 1.9227000475  -999.250000  -999.250000  -999.250000 93.186302185 0.0003000000
  -999.250000 2.4433999062 0.1001000032 0.2773999870 63.594600677 2359.6091309
  -999.250000 8.6406002045 8.5000000000  -999.250000  -999.250000  -999.250000
 2359.7615245
 0.0000000000 0.0000000000 0.0000000000 0.5774000287 1.0000000000 1.5937999487
 2.3101999760  -999.250000  -999.250000  -999.250000 92.375602722 0.0003000000
  -999.250000 2.4647998810 0.0816000029 0.2944000065 63.874801636 2359.7617188
  -999.250000 8.6562995911 8.5000000000  -999.250000  -999.250000  -999.250000
 2359.9139245
 0.0000000000 0.0000000000 0.0000000000 0.5637000203 1.0000000000 1.6318000555
 3.1442000866  -999.250000  -999.250000  -999.250000 92.749801636 0.0003000000
  -999.250000 2.4765999317 0.0751999989 0.3143999875 62.469600677 2359.9140625
  -999.250000 8.7109003067 8.5000000000  -999.250000  -999.250000  -999.250000
 2360.0663245
 0.0000000000 0.0000000000 0.0000000000 0.5447999835 1.0000000000 1.6571999788
 2.0585999489  -999.250000  -999.250000  -999.250000 92.750000000 0.0003000000
  -999.250000 2.4804999828 0.0741000026 0.3140000105 60.780998230 2360.0664063
  -999.250000 8.7500000000 8.5000000000  -999.250000  -999.250000  -999.250000
 2360.2187245
 0.0000000000 0.0000000000 0.0000000000 0.5748000145 1.0000000000 1.6826000214
 2.1659998894  -999.250000  -999.250000  -999.250000 93.563003540 0.0003000000
  -999.250000 2.4727001190 0.0768000036 0.2953999937 63.437999725 2360.2187500
  -999.250000 8.6953001022 8.5000000000  -999.250000  -999.250000  -999.250000
 2360.3711245
 0.0000000000 0.0000000000 0.0000000000 0.5855000019 1.0000000000 1.6963000298
 2.2012999058  -999.250000  -999.250000  -999.250000 94.374702454 0.0003000000
  -999.250000 2.4688000679 0.0785000026 0.2944000065 66.438301086 2360.3710938
  -999.250000 8.7109003067 8.5000000000  -999.250000  -999.250000  -999.250000
 2360.5235245
 0.0000000000 0.0000000000 0.0000000000 0.5720000267 1.0000000000 1.6981999874
 2.3029999733  -999.250000  -999.250000  -999.250000 94.000000000 0.0003000000
  -999.250000 2.4707000256 0.0782999992 0.2870999873 66.872398376 2360.5236816
  -999.250000 8.7500000000 8.5000000000  -999.250000  -999.250000  -999.250000
 2360.6759245
 0.0000000000 0.0000000000 0.0000000000 0.5749999881 1.0000000000 1.6992000341
 2.5936000347  -999.250000  -999.250000  -999.250000 94.001403809 0.0003000000
  -999.250000 2.4590001106 0.0854000002 0.2958999872 64.436401367 2360.6760254
  -999.250000 8.7264995575 8.5000000000  -999.250000  -999.250000  -999.250000
 2360.8283245
 0.0000000000 0.0000000000 0.0000000000 0.5516999960 1.0000000000 1.7030999660
 2.4765999317  -999.250000  -999.250000  -999.250000 95.005401611 0.0003000000
  -999.250000 2.4628999233 0.0846000016 0.2847000062 63.353298187 2360.8283691
  -999.250000 8.6719999313 8.5000000000  -999.250000  -999.250000  -999.250000
 2360.9807244
 0.0000000000 0.0000000000 0.0000000000 0.5771999955 1.0000000000 1.7100000381
 2.4723000526  -999.250000  -999.250000  -999.250000 98.001197815 0.0003000000
  -999.250000 2.4530999660 0.0888999999 0.3007999957 68.501098633 2360.9807129
  -999.250000 8.7031002045 8.5000000000  -999.250000  -999.250000  -999.250000
 2361.1331244
 0.0000000000 0.0000000000 0.0000000000 0.5720999837 1.0000000000 1.7108999491
 2.3106000423  -999.250000  -999.250000  -999.250000 98.562599182 0.0003000000
  -999.250000 2.4472999573 0.0929000005 0.3021999896 68.999702454 2361.1333008
  -999.250000 8.7031002045 8.5000000000  -999.250000  -999.250000  -999.250000
 2361.2855244
 0.0000000000 0.0000000000 0.0000000000 0.6618000269 1.0000000000 1.7100000381
 1.8164000511  -999.250000  -999.250000  -999.250000 99.188003540 0.0003000000
  -999.250000 2.4453001022 0.0878999978 0.3441999853 70.813003540 2361.2856445
  -999.250000 8.6406002045 8.5000000000  -999.250000  -999.250000  -999.250000
 2361.4379244
 0.0000000000 0.0000000000 0.0000000000 0.5841000080 1.0000000000 1.7079999447
 1.8896000385  -999.250000  -999.250000  -999.250000 98.375000000 0.0003000000
  -999.250000 2.4453001022 0.0932999998 0.3330000043 64.625000000 2361.4379883
  -999.250000 8.5781002045 8.5000000000  -999.250000  -999.250000  -999.250000
 2361.5903244
 0.0000000000 0.0000000000 0.0000000000 0.5873000026 1.0000000000 1.7245999575
 2.2987999916  -999.250000  -999.250000  -999.250000 95.563102722 0.0003000000
  -999.250000 2.4491999149 0.0905999988 0.3310000002 64.436096191 2361.5903320
  -999.250000 8.7031002045 8.5000000000  -999.250000  -999.250000  -999.250000
 2361.7427244
 0.0000000000 0.0000000000 0.0000000000 0.5388000011 1.0000000000 1.7812999487
 2.2734999657  -999.250000  -999.250000  -999.250000 95.750701904 0.0003000000
  -999.250000 2.4395000935 0.1001000032 0.3163999915 60.189201355 2361.7429199
  -999.250000 8.7812995911 8.5000000000  -999.250000  -999.250000  -999.250000
 2361.8951244
 0.0000000000 0.0000000000 0.0000000000 0.5569999814 1.0000000000 1.8135000467
 2.3359999657  -999.250000  -999.250000  -999.250000 96.558799744 0.0003000000
  -999.250000 2.4414000511 0.0975999981 0.3163999915 61.653999329 2361.8952637
  -999.250000 8.7890996933 8.5000000000  -999.250000  -999.250000  -999.250000
 2362.0475244
 0.0000000000 0.0000000000 0.0000000000 0.5372999907 1.0000000000 1.8280999660
 2.4605000019  -999.250000  -999.250000  -999.250000 92.990997314 0.0003000000
  -999.250000 2.4395000935 0.1001999974 0.3143999875 59.935398102 2362.0476074
  -999.250000 8.8203001022 8.5000000000  -999.250000  -999.250000  -999.250000
