# LAS format log file from PETREL
# Project units are specified as depth units
#==================================================================
~Version information
VERS.   2.0:
WRAP.   YES:
#==================================================================
~Well
STRT .m      800.09997440 :
STOP .m      2449.8299216 :
STEP .m     0.15240000 :
NULL .        -999.250000 :
COMP.           : COMPANY
WELL.  34/10-15   : WELL
FLD.            : FIELD
LOC.            : LOCATION
SRVC.           : SERVICE COMPANY
DATE.  Wednesday, March 31 2010 12:33:14   : DATE
PROV.           : PROVINCE
UWI.      : UNIQUE WELL ID
API.            : API NUMBER
#==================================================================
~Curve
DEPT .m                   : DEPTH
NETS .                    : NETS
COAL .                    : COAL
CARB .                    : CARB
VSH .                     : VSH
SW .                      : SW
ILD .ohm.m                : ILD
MSFL .ohm.m               : MSFL
LLS .ohm.m                : LLS
LLD .ohm.m                : LLD
ILM .ohm.m                : ILM
DT .us/ft                 : DT
KLOG .mD                  : KLOG
DRHO .g/cm3               : DRHO
RHOB .g/cm3               : RHOB
PHIF .m3/m3               : PHIF
NPHI .m3/m3               : NPHI
GR .gAPI                  : GR
DEPT .m                   : DEPT
TIME .ms                  : TIME
CALI .in                  : CALI
BS .in                    : BS
QTOT .rm3/d               : QTOT
QWAT .sm3/d               : QWAT
GeneralTime1 .ms          : General Time 1
~Parameter
#==================================================================
~Ascii
# ...
 1729.7399446
  -999.250000  -999.250000 0.0000000000 1.0000000000  -999.250000 30.312999725
 0.1216000021 0.2529000044 60.433998108  -999.250000 56.750000000  -999.250000
  -999.250000 2.4844000340 0.0000000000 0.4799999893 31.672000885 1729.7399902
  -999.250000 8.6093997955  -999.250000  -999.250000  -999.250000  -999.250000
 1729.8923446
  -999.250000  -999.250000 0.0000000000 1.0000000000  -999.250000 29.828100204
 0.1216000021 0.2558999956 88.984703064  -999.250000 56.500000000  -999.250000
  -999.250000 2.4844000340 0.0000000000 0.5063999891 31.780099869 1729.8924561
  -999.250000 8.6093997955  -999.250000  -999.250000  -999.250000  -999.250000
 1730.0447446
  -999.250000  -999.250000 0.0000000000 1.0000000000  -999.250000 30.016599655
 0.1216000021 0.2554000020 53.601501465  -999.250000 56.500000000  -999.250000
  -999.250000 2.5116999149 0.0000000000 0.5580999851 29.623100281 1730.0447998
  -999.250000 8.6015996933  -999.250000  -999.250000  -999.250000  -999.250000
 1730.1971446
  -999.250000  -999.250000 0.0000000000 1.0000000000  -999.250000 30.780700684
 0.1216000021 0.2558000088 65.429901123  -999.250000 56.500000000  -999.250000
  -999.250000 2.4862999916 0.0000000000 0.5698000193 27.313999176 1730.1971436
  -999.250000 8.6015996933  -999.250000  -999.250000  -999.250000  -999.250000
 1730.3495446
  -999.250000  -999.250000 0.0000000000 1.0000000000  -999.250000 30.781000137
 0.1216000021 0.2556000054 55.063999176  -999.250000 56.750000000  -999.250000
  -999.250000 2.4784998894 0.0000000000 0.5907999873 24.047000885 1730.3496094
  -999.250000 8.6015996933  -999.250000  -999.250000  -999.250000  -999.250000
 1730.5019446
  -999.250000  -999.250000 0.0000000000 1.0000000000  -999.250000 30.750000000
 0.1216000021 0.2551999986 51.275001526  -999.250000 56.250000000  -999.250000
  -999.250000 2.4530999660 0.0000000000 0.5634999871 23.031000137 1730.5019531
  -999.250000 8.6093997955  -999.250000  -999.250000  -999.250000  -999.250000
 1730.6543446
  -999.250000  -999.250000 0.0000000000 1.0000000000  -999.250000 31.406499863
 0.1216000021 0.2576000094 51.114898682  -999.250000 56.375099182  -999.250000
  -999.250000 2.5000000000 0.0000000000 0.5752000213 23.189800262 1730.6544189
  -999.250000 8.6093997955  -999.250000  -999.250000  -999.250000  -999.250000
 1730.8067446
  -999.250000  -999.250000 0.0000000000 1.0000000000  -999.250000 32.063098907
 0.1216000021 0.2565999925 48.038799286  -999.250000 56.499599457  -999.250000
  -999.250000 2.5155999660 0.0000000000 0.5791000128 25.845899582 1730.8067627
  -999.250000 8.6015996933  -999.250000  -999.250000  -999.250000  -999.250000
 1730.9591446
  -999.250000  -999.250000 0.0000000000 1.0000000000  -999.250000 32.155998230
 0.1216000021 0.2551999986 89.000000000  -999.250000 56.125000000  -999.250000
  -999.250000 2.5116999149 0.0000000000 0.5903000236 27.672000885 1730.9592285
  -999.250000 8.6015996933  -999.250000  -999.250000  -999.250000  -999.250000
 1731.1115446
  -999.250000  -999.250000 0.0000000000 1.0000000000  -999.250000 32.344001770
 0.1216000021 0.2554999888 89.000000000  -999.250000 56.500000000  -999.250000
  -999.250000 2.4823999405 0.0000000000 0.5741999745 27.391000748 1731.1115723
  -999.250000 8.6015996933  -999.250000  -999.250000  -999.250000  -999.250000
 1731.2639446
  -999.250000  -999.250000 0.0000000000 1.0000000000  -999.250000 31.500400543
 0.1216000021 0.2552999854 10.789999962  -999.250000 56.499900818  -999.250000
  -999.250000 2.4570000172 0.0000000000 0.5497999787 28.968099594 1731.2640381
  -999.250000 8.6093997955  -999.250000  -999.250000  -999.250000  -999.250000
 1731.4163446
  -999.250000  -999.250000 0.0000000000 1.0000000000  -999.250000 32.188499451
 0.1216000021 0.2570999861 50.725200653  -999.250000 56.249801636  -999.250000
  -999.250000 2.4453999996 0.0000000000 0.5435000062 27.357299805 1731.4163818
  -999.250000 8.6015996933  -999.250000  -999.250000  -999.250000  -999.250000
 1731.5687446
  -999.250000  -999.250000 0.0000000000 1.0000000000  -999.250000 32.780998230
 0.1216000021 0.2558000088 89.000000000  -999.250000 56.000000000  -999.250000
  -999.250000 2.5097999573 0.0000000000 0.5889000297 25.483999252 1731.5688477
  -999.250000 8.6093997955  -999.250000  -999.250000  -999.250000  -999.250000
 1731.7211446
  -999.250000  -999.250000 0.0000000000 1.0000000000  -999.250000 32.500000000
 0.1216000021 0.2558999956 24.499000549  -999.250000 56.000000000  -999.250000
  -999.250000 2.5292999744 0.0000000000 0.5702999830 23.875000000 1731.7211914
  -999.250000 8.6015996933  -999.250000  -999.250000  -999.250000  -999.250000
 1731.8735446
  -999.250000  -999.250000 0.0000000000 1.0000000000  -999.250000 32.030899048
 0.1216000021 0.2560000122 48.949001312  -999.250000 55.749900818  -999.250000
  -999.250000 2.5253999233 0.0000000000 0.5961999893 23.985399246 1731.8736572
  -999.250000 8.6015996933  -999.250000  -999.250000  -999.250000  -999.250000
 1732.0259446
  -999.250000  -999.250000 0.0000000000 1.0000000000  -999.250000 31.719299316
 0.1216000021 0.2552999854 46.618698120  -999.250000 55.625198364  -999.250000
  -999.250000 2.5000000000 0.0000000000 0.5508000255 27.264999390 1732.0260010
  -999.250000 8.6093997955  -999.250000  -999.250000  -999.250000  -999.250000
 1732.1783446
  -999.250000  -999.250000 0.0000000000 1.0000000000  -999.250000 32.124801636
 0.1216000021 0.2558000088 88.981399536  -999.250000 55.874900818  -999.250000
  -999.250000 2.4491999149 0.0000000000 0.5619999766 25.938600540 1732.1783447
  -999.250000 8.6093997955  -999.250000  -999.250000  -999.250000  -999.250000
 1732.3307446
  -999.250000  -999.250000 0.0000000000 1.0000000000  -999.250000 32.344001770
 0.1216000021 0.2549000084 81.431999207  -999.250000 56.250000000  -999.250000
  -999.250000 2.4296998978 0.0000000000 0.5967000127 26.593999863 1732.3308105
  -999.250000 8.6093997955  -999.250000  -999.250000  -999.250000  -999.250000
 1732.4831446
  -999.250000  -999.250000 0.0000000000 1.0000000000  -999.250000 32.750000000
 0.1216000021 0.2554999888 66.732002258  -999.250000 55.875000000  -999.250000
  -999.250000 2.4179999828 0.0000000000 0.5917999744 24.922000885 1732.4831543
  -999.250000 8.6015996933  -999.250000  -999.250000  -999.250000  -999.250000
 1732.6355446
  -999.250000  -999.250000 0.0000000000 1.0000000000  -999.250000 32.843799591
 0.1216000021 0.2572999895 89.000000000  -999.250000 56.125198364  -999.250000
  -999.250000 2.4707000256 0.0000000000 0.5917999744 28.655500412 1732.6356201
  -999.250000 8.6093997955  -999.250000  -999.250000  -999.250000  -999.250000
 1732.7879446
  -999.250000  -999.250000 0.0000000000 1.0000000000  -999.250000 32.592998505
 0.1216000021 0.2567999959 88.983398438  -999.250000 56.374599457  -999.250000
  -999.250000 2.5253999233 0.0000000000 0.5576000214 27.937500000 1732.7879639
  -999.250000 8.6015996933  -999.250000  -999.250000  -999.250000  -999.250000
 1732.9403445
  -999.250000  -999.250000 0.0000000000 1.0000000000  -999.250000 31.672000885
 0.1216000021 0.2565999925 72.974998474  -999.250000 56.000000000  -999.250000
  -999.250000 2.5253999233 0.0000000000 0.5663999915 27.437999725 1732.9404297
  -999.250000 8.6093997955  -999.250000  -999.250000  -999.250000  -999.250000
 1733.0927445
  -999.250000  -999.250000 0.0000000000 1.0000000000  -999.250000 31.952999115
 0.1216000021 0.2560000122 35.555000305  -999.250000 56.125000000  -999.250000
  -999.250000 2.4979999065 0.0000000000 0.5878999829 27.172000885 1733.0927734
  -999.250000 8.6015996933  -999.250000  -999.250000  -999.250000  -999.250000
 1733.2451445
  -999.250000  -999.250000 0.0000000000 1.0000000000  -999.250000 32.405998230
 0.1216000021 0.2556999922 88.980598450  -999.250000 56.000099182  -999.250000
  -999.250000 2.4960999489 0.0000000000 0.5522999763 29.531999588 1733.2452393
  -999.250000 8.6093997955  -999.250000  -999.250000  -999.250000  -999.250000
 1733.3975445
  -999.250000  -999.250000 0.0000000000 1.0000000000  -999.250000 32.375301361
 0.1216000021 0.2567999959 53.254199982  -999.250000 56.125000000  -999.250000
  -999.250000 2.4784998894 0.0000000000 0.5741999745 31.404600143 1733.3975830
  -999.250000 8.6093997955  -999.250000  -999.250000  -999.250000  -999.250000
