# LAS format log file from PETREL
# Project units are specified as depth units
#==================================================================
~Version information
VERS.   2.0:
WRAP.   YES:
#==================================================================
~Well
STRT .m      800.09997440 :
STOP .m      2299.7159264 :
STEP .m     0.15240000 :
NULL .        -999.250000 :
COMP.           : COMPANY
WELL.  34/10-19   : WELL
FLD.            : FIELD
LOC.            : LOCATION
SRVC.           : SERVICE COMPANY
DATE.  Wednesday, March 31 2010 12:33:14   : DATE
PROV.           : PROVINCE
UWI.      : UNIQUE WELL ID
API.            : API NUMBER
#==================================================================
~Curve
DEPT .m                   : DEPTH
NETS .                    : NETS
COAL .                    : COAL
CARB .                    : CARB
VSH .                     : VSH
SW .                      : SW
ILD .ohm.m                : ILD
ILM .ohm.m                : ILM
DT .us/ft                 : DT
KLOG .mD                  : KLOG
DRHO .g/cm3               : DRHO
RHOB .g/cm3               : RHOB
PHIF .m3/m3               : PHIF
NPHI .m3/m3               : NPHI
GR .gAPI                  : GR
DEPT .m                   : DEPT
TIME .ms                  : TIME
CALI .in                  : CALI
BS .in                    : BS
QTOT .rm3/d               : QTOT
QWAT .sm3/d               : QWAT
GeneralTime1 .ms          : General Time 1
~Parameter
#==================================================================
~Ascii
# ...
 1999.1831360
  -999.250000  -999.250000 0.0000000000 1.0000000000  -999.250000 1.5001000166
  -999.250000 99.747497559  -999.250000  -999.250000 2.3594000340 0.0000000000
 0.3472000062 58.156799316 1999.1832275  -999.250000 8.6406002045  -999.250000
  -999.250000  -999.250000  -999.250000
 1999.3355360
  -999.250000  -999.250000 0.0000000000 1.0000000000  -999.250000 1.5830999613
  -999.250000 95.744903564  -999.250000  -999.250000 2.3770999908 0.0000000000
 0.3740000129 59.408100128 1999.3355713  -999.250000 8.6325998306  -999.250000
  -999.250000  -999.250000  -999.250000
 1999.4879360
  -999.250000  -999.250000 0.0000000000 1.0000000000  -999.250000 1.6513999701
  -999.250000 90.625000000  -999.250000  -999.250000 2.4433999062 0.0000000000
 0.3671999872 61.562999725 1999.4880371  -999.250000 8.4375000000  -999.250000
  -999.250000  -999.250000  -999.250000
 1999.6403360
  -999.250000  -999.250000 0.0000000000 1.0000000000  -999.250000 1.7041000128
  -999.250000 88.875000000  -999.250000  -999.250000 2.4979999065 0.0000000000
 0.3257000148 60.375000000 1999.6403809  -999.250000 8.4453001022  -999.250000
  -999.250000  -999.250000  -999.250000
 1999.7927360
  -999.250000  -999.250000 0.0000000000 1.0000000000  -999.250000 1.7606999874
  -999.250000 89.626998901  -999.250000  -999.250000 2.5116999149 0.0000000000
 0.2793000042 60.686000824 1999.7928467  -999.250000 8.4375000000  -999.250000
  -999.250000  -999.250000  -999.250000
 1999.9451360
  -999.250000  -999.250000 0.0000000000 0.9995999932  -999.250000 1.7929999828
  -999.250000 93.629898071  -999.250000  -999.250000 2.4590001106 0.0001000000
 0.2655999959 56.719001770 1999.9451904  -999.250000 8.4376001358  -999.250000
  -999.250000  -999.250000  -999.250000
 2000.0975360
 0.0000000000 0.0000000000 0.0000000000 0.4972000122 1.0000000000 1.7803000212
  -999.250000 99.250000000 0.0179999992  -999.250000 2.4159998894 0.1172999963
 0.2851999998 56.750000000 2000.0976563  -999.250000 8.5000000000  -999.250000
  -999.250000  -999.250000  -999.250000
 2000.2499360
 0.0000000000 0.0000000000 0.0000000000 0.5112000108 0.9390000105 1.7304999828
  -999.250000 101.87999725 0.0535000004  -999.250000 2.3866999149 0.1339000016
 0.3086000085 56.937999725 2000.2500000  -999.250000 8.4843997955  -999.250000
  -999.250000  -999.250000  -999.250000
 2000.4023360
 0.0000000000 0.0000000000 0.0000000000 0.5498999953 0.8942999840 1.6670000553
  -999.250000 105.12999725 0.0966000035  -999.250000 2.3671998978 0.1428000033
 0.3364000022 63.187999725 2000.4023438  -999.250000 8.4765996933  -999.250000
  -999.250000  -999.250000  -999.250000
 2000.5547360
 0.0000000000 0.0000000000 0.0000000000 0.6201000214 0.8848000169 1.5917999744
  -999.250000 107.38050079 0.0813999996  -999.250000 2.3633000851 0.1402000040
 0.3682000041 62.501399994 2000.5548096  -999.250000 8.5782003403  -999.250000
  -999.250000  -999.250000  -999.250000
 2000.7071360
 0.0000000000 0.0000000000 0.0000000000 0.6552000046 0.9291999936 1.5292999744
  -999.250000 107.99970245 0.0375000015  -999.250000 2.3789000511 0.1283999979
 0.3734999895 64.436996460 2000.7071533  -999.250000 8.7030000687  -999.250000
  -999.250000  -999.250000  -999.250000
 2000.8595360
 0.0000000000 0.0000000000 0.0000000000 0.6366000175 0.9969000220 1.4882999659
  -999.250000 109.25000000 0.0204000007  -999.250000 2.3965001106 0.1191999987
 0.3632999957 61.687999725 2000.8596191  -999.250000 8.6093997955  -999.250000
  -999.250000  -999.250000  -999.250000
 2001.0119360
 0.0000000000 0.0000000000 0.0000000000 0.6279000044 1.0000000000 1.4560999870
  -999.250000 110.25000000 0.0211999994  -999.250000 2.3965001106 0.1198000014
 0.3515999913 64.875000000 2001.0119629  -999.250000 8.2031002045  -999.250000
  -999.250000  -999.250000  -999.250000
 2001.1643360
 0.0000000000 0.0000000000 0.0000000000 0.6299999952 1.0000000000 1.4452999830
  -999.250000 109.12950134 0.0179999992  -999.250000 2.4003999233 0.1172999963
 0.3501000106 65.313903809 2001.1644287  -999.250000 8.0782003403  -999.250000
  -999.250000  -999.250000  -999.250000
 2001.3167360
 0.0000000000 0.0000000000 0.0000000000 0.6304000020 1.0000000000 1.4521000385
  -999.250000 108.24909973 0.0166999996  -999.250000 2.4022998810 0.1162000000
 0.3490999937 66.747703552 2001.3167725  -999.250000 8.1640996933  -999.250000
  -999.250000  -999.250000  -999.250000
 2001.4691360
 0.0000000000 0.0000000000 0.0000000000 0.6444000006 1.0000000000 1.4608999491
  -999.250000 107.37999725 0.0105999997  -999.250000 2.4121000767 0.1093000025
 0.3490999937 64.375000000 2001.4692383  -999.250000 8.1640996933  -999.250000
  -999.250000  -999.250000  -999.250000
 2001.6215359
 0.0000000000 0.0000000000 0.0000000000 0.6349999905 1.0000000000 1.4707000256
  -999.250000 106.62999725 0.0110999998  -999.250000 2.4121000767 0.1099999994
 0.3476999998 63.000000000 2001.6215820  -999.250000 8.2187995911  -999.250000
  -999.250000  -999.250000  -999.250000
 2001.7739359
 0.0000000000 0.0000000000 0.0000000000 0.6158000231 1.0000000000 1.4911999702
  -999.250000 106.38009644 0.0120999999  -999.250000 2.4121000767 0.1112999991
 0.3373999894 61.500701904 2001.7740479  -999.250000 8.2578001022  -999.250000
  -999.250000  -999.250000  -999.250000
 2001.9263359
 0.0000000000 0.0000000000 0.0000000000 0.5731999874 1.0000000000 1.5204999447
  -999.250000 106.50029755 0.0217000004  -999.250000 2.4022998810 0.1202000007
 0.3251999915 62.905498505 2001.9263916  -999.250000 8.2578001022  -999.250000
  -999.250000  -999.250000  -999.250000
 2002.0787359
 0.0000000000 0.0000000000 0.0000000000 0.5627999902 0.9886999726 1.5595999956
  -999.250000 106.87999725 0.0333999991  -999.250000 2.3926000595 0.1266999990
 0.3267000020 62.312999725 2002.0788574  -999.250000 8.2578001022  -999.250000
  -999.250000  -999.250000  -999.250000
 2002.2311359
 0.0000000000 0.0000000000 0.0000000000 0.5426999927 0.9613999724 1.6152000427
  -999.250000 102.62999725 0.0463000014  -999.250000 2.3866999149 0.1316000074
 0.3217999935 65.500000000 2002.2312012  -999.250000 8.2578001022  -999.250000
  -999.250000  -999.250000  -999.250000
 2002.3835359
 0.0000000000 0.0000000000 0.0000000000 0.5766999722 1.0000000000 1.6533000469
  -999.250000 99.375000000 0.0144999996  -999.250000 2.4121000767 0.1141000018
 0.3208000064 60.719001770 2002.3835449  -999.250000 8.2265996933  -999.250000
  -999.250000  -999.250000  -999.250000
 2002.5359359
 0.0000000000 0.0000000000 0.0000000000 0.5950000286 1.0000000000 1.6748000383
  -999.250000 97.750000000 0.0029000000  -999.250000 2.4512000084 0.0894000009
 0.3100999892 59.716598511 2002.5360107  -999.250000 8.3438997269  -999.250000
  -999.250000  -999.250000  -999.250000
 2002.6883359
 0.0000000000 0.0000000000 0.0000000000 0.5523999929 1.0000000000 1.7118999958
  -999.250000 97.750000000 0.0015000000  -999.250000 2.4727001190 0.0794999972
 0.3208000064 56.439601898 2002.6883545  -999.250000 8.4296998978  -999.250000
  -999.250000  -999.250000  -999.250000
 2002.8407359
 0.0000000000 0.0000000000 0.0000000000 0.6373000145 1.0000000000 1.7539000511
  -999.250000 101.50000000 0.0010000000  -999.250000 2.4727001190 0.0734999999
 0.3319999874 61.405998230 2002.8408203  -999.250000 8.7031002045  -999.250000
  -999.250000  -999.250000  -999.250000
 2002.9931359
 0.0000000000 0.0000000000 0.0000000000 0.6273000240 1.0000000000 1.7987999916
  -999.250000 105.37999725 0.0018000000  -999.250000 2.4590001106 0.0824000016
 0.3501000106 60.719001770 2002.9931641  -999.250000 8.7031002045  -999.250000
  -999.250000  -999.250000  -999.250000
 2003.1455359
 0.0000000000 0.0000000000 0.0000000000 0.6707999706 1.0000000000 1.8184000254
  -999.250000 103.75050354 0.0016000000  -999.250000 2.4570000172 0.0806000009
 0.3607999980 64.250396729 2003.1456299  -999.250000 8.5546998978  -999.250000
  -999.250000  -999.250000  -999.250000
 2003.2979359
 0.0000000000 0.0000000000 0.0000000000 0.6797999740 1.0000000000 1.7939000130
  -999.250000 104.50060272 0.0012000001  -999.250000 2.4628999233 0.0763999969
 0.3486000001 64.941596985 2003.2979736  -999.250000 8.5390996933  -999.250000
  -999.250000  -999.250000  -999.250000
