# LAS format log file from PETREL
# Project units are specified as depth units
#==================================================================
~Version information
VERS.   2.0:
WRAP.   YES:
#==================================================================
~Well
STRT .m      800.09997440 :
STOP .m      2299.7159264 :
STEP .m     0.15240000 :
NULL .        -999.250000 :
COMP.           : COMPANY
WELL.  34/10-19   : WELL
FLD.            : FIELD
LOC.            : LOCATION
SRVC.           : SERVICE COMPANY
DATE.  Wednesday, March 31 2010 12:33:14   : DATE
PROV.           : PROVINCE
UWI.      : UNIQUE WELL ID
API.            : API NUMBER
#==================================================================
~Curve
DEPT .m                   : DEPTH
NETS .                    : NETS
COAL .                    : COAL
CARB .                    : CARB
VSH .                     : VSH
SW .                      : SW
ILD .ohm.m                : ILD
ILM .ohm.m                : ILM
DT .us/ft                 : DT
KLOG .mD                  : KLOG
DRHO .g/cm3               : DRHO
RHOB .g/cm3               : RHOB
PHIF .m3/m3               : PHIF
NPHI .m3/m3               : NPHI
GR .gAPI                  : GR
DEPT .m                   : DEPT
TIME .ms                  : TIME
CALI .in                  : CALI
BS .in                    : BS
QTOT .rm3/d               : QTOT
QWAT .sm3/d               : QWAT
GeneralTime1 .ms          : General Time 1
~Parameter
#==================================================================
~Ascii
# ...
 2067.4583338
 1.0000000000 0.0000000000 0.0000000000 0.1353999972 1.0000000000 0.5741999745
  -999.250000 101.24720001 286.41870117  -999.250000 2.2128999233 0.2642000020
 0.2554000020 28.815900803 2067.4584961  -999.250000 8.3671998978  -999.250000
  -999.250000  -999.250000  -999.250000
 2067.6107338
 1.0000000000 0.0000000000 0.0000000000 0.0988999978 1.0000000000 0.5605000257
  -999.250000 99.125000000 427.70309448  -999.250000 2.2070000172 0.2703000009
 0.2435999960 26.531000137 2067.6108398  -999.250000 8.3671998978  -999.250000
  -999.250000  -999.250000  -999.250000
 2067.7631338
 1.0000000000 0.0000000000 0.0000000000 0.1019999981 1.0000000000 0.5503000021
  -999.250000 98.750000000 210.69779968  -999.250000 2.2246000767 0.2596000135
 0.2344000041 27.297000885 2067.7631836  -999.250000 8.2812995911  -999.250000
  -999.250000  -999.250000  -999.250000
 2067.9155338
 1.0000000000 0.0000000000 0.0000000000 0.1269000024 1.0000000000 0.5508000255
  -999.250000 99.750000000 118.40609741  -999.250000 2.2362999916 0.2508000135
 0.2378000021 28.797500610 2067.9155273  -999.250000 8.2812995911  -999.250000
  -999.250000  -999.250000  -999.250000
 2068.0679338
 1.0000000000 0.0000000000 0.0000000000 0.1544000059 1.0000000000 0.5557000041
  -999.250000 99.751899719 76.702400208  -999.250000 2.2441000938 0.2442000061
 0.2445999980 29.826499939 2068.0681152  -999.250000 8.2578001022  -999.250000
  -999.250000  -999.250000  -999.250000
 2068.2203338
 1.0000000000 0.0000000000 0.0000000000 0.1432999969 1.0000000000 0.5659000278
  -999.250000 102.00000000 74.563598633  -999.250000 2.2460999489 0.2437999994
 0.2538999915 28.107500076 2068.2204590  -999.250000 8.2578001022  -999.250000
  -999.250000  -999.250000  -999.250000
 2068.3727338
 1.0000000000 0.0000000000 0.0000000000 0.1261000037 1.0000000000 0.5839999914
  -999.250000 101.99900055 69.234001160  -999.250000 2.2500000000 0.2426999956
 0.2549000084 26.926599503 2068.3728027  -999.250000 8.2344999313  -999.250000
  -999.250000  -999.250000  -999.250000
 2068.5251338
 1.0000000000 0.0000000000 0.0000000000 0.1680999994 1.0000000000 0.6025999784
  -999.250000 101.38050079 52.709999084  -999.250000 2.2520000935 0.2384999990
 0.2572999895 29.830999374 2068.5251465  -999.250000 8.2734003067  -999.250000
  -999.250000  -999.250000  -999.250000
 2068.6775338
 1.0000000000 0.0000000000 0.0000000000 0.1599999964 1.0000000000 0.6250000000
  -999.250000 101.62979889 43.556800842  -999.250000 2.2578001022 0.2355999947
 0.2388000041 31.357599258 2068.6774902  -999.250000 8.2500000000  -999.250000
  -999.250000  -999.250000  -999.250000
 2068.8299338
 1.0000000000 0.0000000000 0.0000000000 0.1363999993 1.0000000000 0.6478999853
  -999.250000 103.99880219 41.633499146  -999.250000 2.2616999149 0.2348999977
 0.2266000062 32.812198639 2068.8300781  -999.250000 8.2578001022  -999.250000
  -999.250000  -999.250000  -999.250000
 2068.9823338
 1.0000000000 0.0000000000 0.0000000000 0.1338000000 1.0000000000 0.6615999937
  -999.250000 102.37999725 36.125900269  -999.250000 2.2655999660 0.2328000069
 0.2231000066 32.219001770 2068.9824219  -999.250000 8.2812995911  -999.250000
  -999.250000  -999.250000  -999.250000
 2069.1347338
 1.0000000000 0.0000000000 0.0000000000 0.1984000057 1.0000000000 0.6660000086
  -999.250000 99.125000000 16.910999298  -999.250000 2.2772998810 0.2213000059
 0.2432000041 32.905998230 2069.1347656  -999.250000 8.2812995911  -999.250000
  -999.250000  -999.250000  -999.250000
 2069.2871338
 1.0000000000 0.0000000000 0.0000000000 0.2307000011 1.0000000000 0.6557000279
  -999.250000 98.750099182 4.9422998428  -999.250000 2.3046998978 0.2026000023
 0.2470999956 34.219600677 2069.2871094  -999.250000 8.2890996933  -999.250000
  -999.250000  -999.250000  -999.250000
 2069.4395338
 1.0000000000 0.0000000000 0.0000000000 0.2446999997 1.0000000000 0.6240000129
  -999.250000 98.999900818 1.8427000046  -999.250000 2.3280999660 0.1876000017
 0.2480999976 35.219299316 2069.4396973  -999.250000 8.2812004089  -999.250000
  -999.250000  -999.250000  -999.250000
 2069.5919338
 1.0000000000 0.0000000000 0.0000000000 0.2467000037 1.0000000000 0.5971000195
  -999.250000 98.878501892 1.9855999947  -999.250000 2.3261001110 0.1886000037
 0.2524999976 35.530998230 2069.5920410  -999.250000 8.2032003403  -999.250000
  -999.250000  -999.250000  -999.250000
 2069.7443338
 1.0000000000 0.0000000000 0.0000000000 0.2492000014 1.0000000000 0.5795999765
  -999.250000 101.50039673 15.755000114  -999.250000 2.2732999325 0.2201000005
 0.2671000063 35.556900024 2069.7443848  -999.250000 8.2735004425  -999.250000
  -999.250000  -999.250000  -999.250000
 2069.8967338
 1.0000000000 0.0000000000 0.0000000000 0.1907999963 1.0000000000 0.5576000214
  -999.250000 101.75180054 111.26940155  -999.250000 2.2304999828 0.2497999966
 0.2680999935 32.001899719 2069.8967285  -999.250000 8.3359003067  -999.250000
  -999.250000  -999.250000  -999.250000
 2070.0491338
 1.0000000000 0.0000000000 0.0000000000 0.1502999961 1.0000000000 0.5321999788
  -999.250000 102.62930298 337.37948608  -999.250000 2.2070000172 0.2666999996
 0.2651000023 32.937301636 2070.0493164  -999.250000 8.3359003067  -999.250000
  -999.250000  -999.250000  -999.250000
 2070.2015338
 1.0000000000 0.0000000000 0.0000000000 0.1515000015 1.0000000000 0.5059000254
  -999.250000 103.37969971 335.73611450  -999.250000 2.2070000172 0.2666000128
 0.2655999959 29.532400131 2070.2016602  -999.250000 8.3203001022  -999.250000
  -999.250000  -999.250000  -999.250000
 2070.3539337
 1.0000000000 0.0000000000 0.0000000000 0.1595000029 1.0000000000 0.4765999913
  -999.250000 104.00000000 406.69900513  -999.250000 2.2012000084 0.2696000040
 0.2725000083 29.250000000 2070.3540039  -999.250000 8.3125000000  -999.250000
  -999.250000  -999.250000  -999.250000
 2070.5063337
 1.0000000000 0.0000000000 0.0000000000 0.1477999985 1.0000000000 0.4575000107
  -999.250000 105.75000000 398.27081299  -999.250000 2.2030999660 0.2691999972
 0.2861000001 28.312999725 2070.5063477  -999.250000 8.3203001022  -999.250000
  -999.250000  -999.250000  -999.250000
 2070.6587337
 1.0000000000 0.0000000000 0.0000000000 0.1649000049 1.0000000000 0.4546000063
  -999.250000 106.99990082 429.18771362  -999.250000 2.1991999149 0.2703999877
 0.2881000042 29.394100189 2070.6586914  -999.250000 8.3906002045  -999.250000
  -999.250000  -999.250000  -999.250000
 2070.8111337
 1.0000000000 0.0000000000 0.0000000000 0.2272000015 1.0000000000 0.4618999958
  -999.250000 106.87879944 174.09159851  -999.250000 2.2147998810 0.2567000091
 0.2998000085 33.783401489 2070.8112793  -999.250000 8.3828001022  -999.250000
  -999.250000  -999.250000  -999.250000
 2070.9635337
 1.0000000000 0.0000000000 0.0000000000 0.2356999964 1.0000000000 0.4776000082
  -999.250000 105.74980164 180.25830078  -999.250000 2.2128999233 0.2572000027
 0.2973999977 36.030498505 2070.9636230  -999.250000 8.3828001022  -999.250000
  -999.250000  -999.250000  -999.250000
 2071.1159337
 1.0000000000 0.0000000000 0.0000000000 0.2538000047 1.0000000000 0.4927000105
  -999.250000 105.62860107 76.807502747  -999.250000 2.2323999405 0.2442000061
 0.3037000000 35.682399750 2071.1159668  -999.250000 8.3669996262  -999.250000
  -999.250000  -999.250000  -999.250000
 2071.2683337
 1.0000000000 0.0000000000 0.0000000000 0.2073999941 1.0000000000 0.5059000254
  -999.250000 104.87539673 32.282001495  -999.250000 2.2599000931 0.2310999930
 0.2856000066 32.619499207 2071.2683105  -999.250000 8.2657003403  -999.250000
  -999.250000  -999.250000  -999.250000
 2071.4207337
 1.0000000000 0.0000000000 0.0000000000 0.1735000014 1.0000000000 0.5288000107
  -999.250000 102.75140381 11.063500404  -999.250000 2.2909998894 0.2148000002
 0.2705000043 30.110599518 2071.4208984  -999.250000 8.3281002045  -999.250000
  -999.250000  -999.250000  -999.250000
 2071.5731337
 1.0000000000 0.0000000000 0.0000000000 0.2120999992 1.0000000000 0.5644999743
  -999.250000 101.62999725 9.2482004166  -999.250000 2.2909998894 0.2120999992
 0.2509999871 32.750000000 2071.5732422  -999.250000 8.3671998978  -999.250000
  -999.250000  -999.250000  -999.250000
