# LAS format log file from PETREL
# Project units are specified as depth units
#==================================================================
~Version information
VERS.   2.0:
WRAP.   YES:
#==================================================================
~Well
STRT .m      800.09997440 :
STOP .m      2449.8299216 :
STEP .m     0.15240000 :
NULL .        -999.250000 :
COMP.           : COMPANY
WELL.  34/10-15   : WELL
FLD.            : FIELD
LOC.            : LOCATION
SRVC.           : SERVICE COMPANY
DATE.  Wednesday, March 31 2010 12:33:14   : DATE
PROV.           : PROVINCE
UWI.      : UNIQUE WELL ID
API.            : API NUMBER
#==================================================================
~Curve
DEPT .m                   : DEPTH
NETS .                    : NETS
COAL .                    : COAL
CARB .                    : CARB
VSH .                     : VSH
SW .                      : SW
ILD .ohm.m                : ILD
MSFL .ohm.m               : MSFL
LLS .ohm.m                : LLS
LLD .ohm.m                : LLD
ILM .ohm.m                : ILM
DT .us/ft                 : DT
KLOG .mD                  : KLOG
DRHO .g/cm3               : DRHO
RHOB .g/cm3               : RHOB
PHIF .m3/m3               : PHIF
NPHI .m3/m3               : NPHI
GR .gAPI                  : GR
DEPT .m                   : DEPT
TIME .ms                  : TIME
CALI .in                  : CALI
BS .in                    : BS
QTOT .rm3/d               : QTOT
QWAT .sm3/d               : QWAT
GeneralTime1 .ms          : General Time 1
~Parameter
#==================================================================
~Ascii
# ...
 2396.4899233
 0.0000000000 0.0000000000 0.0000000000 0.6625999808 1.0000000000 1.5635000467
 1.8809000254  -999.250000  -999.250000  -999.250000 95.188003540 0.0003000000
  -999.250000 2.4707000256 0.0719000027 0.3242000043 69.812301636 2396.4899902
  -999.250000 8.9217996597 8.5000000000  -999.250000  -999.250000  -999.250000
 2396.6423233
 0.0000000000 0.0000000000 0.0000000000 0.6552000046 1.0000000000 1.5664000511
 1.8809000254  -999.250000  -999.250000  -999.250000 95.188003540 0.0003000000
  -999.250000 2.4746000767 0.0700000003 0.3305999935 69.383796692 2396.6423340
  -999.250000 8.8745002747 8.5000000000  -999.250000  -999.250000  -999.250000
 2396.7947233
 0.0000000000 0.0000000000 0.0000000000 0.6768000126 1.0000000000 1.5722999573
 1.8809000254  -999.250000  -999.250000  -999.250000 95.188003540 0.0003000000
  -999.250000 2.4609000683 0.0771000013 0.3373999894 73.684501648 2396.7949219
  -999.250000 8.6408004761 8.5000000000  -999.250000  -999.250000  -999.250000
 2396.9471233
 0.0000000000 0.0000000000 0.0000000000 0.6445999742 1.0000000000 1.5829999447
 1.8809000254  -999.250000  -999.250000  -999.250000 95.188003540 0.0003000000
  -999.250000 2.4609000683 0.0793000013 0.3251999915 78.810798645 2396.9472656
  -999.250000 8.5781002045 8.5000000000  -999.250000  -999.250000  -999.250000
 2397.0995233
 0.0000000000 0.0000000000 0.0000000000 0.6175000072 1.0000000000 1.6054999828
 1.8809000254  -999.250000  -999.250000  -999.250000 95.188003540 0.0003000000
  -999.250000 2.4647998810 0.0788000003 0.3120000064 80.438003540 2397.0996094
  -999.250000 8.5546998978 8.5000000000  -999.250000  -999.250000  -999.250000
 2397.2519233
 0.0000000000 0.0000000000 0.0000000000 0.5963000059 1.0000000000 1.6327999830
 1.8809000254  -999.250000  -999.250000  -999.250000 95.188003540 0.0003000000
  -999.250000 2.4647998810 0.0803000033 0.3023000062 79.188003540 2397.2519531
  -999.250000 8.6171998978 8.5000000000  -999.250000  -999.250000  -999.250000
 2397.4043233
 0.0000000000 0.0000000000 0.0000000000 0.6155999899 1.0000000000 1.6641000509
 1.8809000254  -999.250000  -999.250000  -999.250000 95.188003540 0.0003000000
  -999.250000 2.4570000172 0.0838000029 0.3134999871 76.937599182 2397.4042969
  -999.250000 8.7109003067 8.5000000000  -999.250000  -999.250000  -999.250000
 2397.5567233
 0.0000000000 0.0000000000 0.0000000000 0.6104000211 1.0000000000 1.6923999786
 1.8809000254  -999.250000  -999.250000  -999.250000 95.188003540 0.0003000000
  -999.250000 2.4472999573 0.0901999995 0.3163999915 76.376296997 2397.5568848
  -999.250000 8.7656002045 8.5000000000  -999.250000  -999.250000  -999.250000
 2397.7091233
 0.0000000000 0.0000000000 0.0000000000 0.5921000242 1.0000000000 1.7041000128
 1.8809000254  -999.250000  -999.250000  -999.250000 95.188003540 0.0003000000
  -999.250000 2.4491999149 0.0903000012 0.3080999851 77.625000000 2397.7092285
  -999.250000 8.7419996262 8.5000000000  -999.250000  -999.250000  -999.250000
 2397.8615233
 0.0000000000 0.0000000000 0.0000000000 0.5922999978 1.0000000000 1.7108999491
 1.8809000254  -999.250000  -999.250000  -999.250000 95.188003540 0.0003000000
  -999.250000 2.4628999233 0.0816999972 0.3016999960 77.625000000 2397.8615723
  -999.250000 8.6171998978 8.5000000000  -999.250000  -999.250000  -999.250000
 2398.0139233
 0.0000000000 0.0000000000 0.0000000000 0.5838999748 1.0000000000 1.7060999870
 1.8809000254  -999.250000  -999.250000  -999.250000 95.188003540 0.0003000000
  -999.250000 2.4844000340 0.0688999966 0.2847000062 77.625000000 2398.0139160
  -999.250000 8.6407003403 8.5000000000  -999.250000  -999.250000  -999.250000
 2398.1663233
 0.0000000000 0.0000000000 0.0000000000 0.5767999887 1.0000000000 1.7060999870
 1.8809000254  -999.250000  -999.250000  -999.250000 95.188003540 0.0003000000
  -999.250000 2.4883000851 0.0669000000 0.2782999873 77.625000000 2398.1665039
  -999.250000 8.7031002045 8.5000000000  -999.250000  -999.250000  -999.250000
 2398.3187233
 0.0000000000 0.0000000000 0.0000000000 0.5756000280 1.0000000000 1.6972999573
 1.8809000254  -999.250000  -999.250000  -999.250000 95.188003540 0.0003000000
  -999.250000 2.4823999405 0.0706999972 0.2739000022 77.625000000 2398.3188477
  -999.250000 8.4921998978 8.5000000000  -999.250000  -999.250000  -999.250000
 2398.4711232
 0.0000000000 0.0000000000 0.0000000000 0.5493999720 1.0000000000 1.6582000256
 1.8809000254  -999.250000  -999.250000  -999.250000 95.188003540 0.0003000000
  -999.250000 2.4667999744 0.0822999999 0.2813000083 77.625000000 2398.4711914
  -999.250000 8.6406002045 8.5000000000  -999.250000  -999.250000  -999.250000
 2398.6235232
 0.0000000000 0.0000000000 0.0000000000 0.5766999722 1.0000000000 1.6220999956
 1.8809000254  -999.250000  -999.250000  -999.250000 95.188003540 0.0003000000
  -999.250000 2.4667999744 0.0803999975 0.2910000086 77.625000000 2398.6235352
  -999.250000 8.7421998978 8.5000000000  -999.250000  -999.250000  -999.250000
 2398.7759232
 0.0000000000 0.0000000000 0.0000000000 0.5432999730 1.0000000000 1.5654000044
 1.8809000254  -999.250000  -999.250000  -999.250000 95.188003540 0.0003000000
  -999.250000 2.4628999233 0.0851999968 0.2813000083 77.625000000 2398.7758789
  -999.250000 8.6329002380 8.5000000000  -999.250000  -999.250000  -999.250000
 2398.9283232
 0.0000000000 0.0000000000 0.0000000000 0.5372999907 1.0000000000 1.5283000469
 1.8809000254  -999.250000  -999.250000  -999.250000 95.188003540 0.0003000000
  -999.250000 2.4530999660 0.0917000026 0.2831999958 77.625000000 2398.9284668
  -999.250000 8.7421998978 8.5000000000  -999.250000  -999.250000  -999.250000
 2399.0807232
 0.0000000000 0.0000000000 0.0000000000 0.5105000138 1.0000000000 1.5059000254
 1.8809000254  -999.250000  -999.250000  -999.250000 95.188003540 0.0003000000
  -999.250000 2.4530999660 0.0935999975 0.2730000019 77.625000000 2399.0808105
  -999.250000 8.7265996933 8.5000000000  -999.250000  -999.250000  -999.250000
 2399.2331232
 0.0000000000 0.0000000000 0.0000000000 0.5066999793 1.0000000000 1.4989999533
 1.8809000254  -999.250000  -999.250000  -999.250000 95.188003540 0.0003000000
  -999.250000 2.4491999149 0.0962999985 0.2734000087 77.625000000 2399.2331543
  -999.250000 8.7498998642 8.5000000000  -999.250000  -999.250000  -999.250000
 2399.3855232
 0.0000000000 0.0000000000 0.0000000000 0.5173000097 1.0000000000 1.5176000595
 1.8809000254  -999.250000  -999.250000  -999.250000 95.188003540 0.0003000000
  -999.250000 2.4530999660 0.0930999964 0.2759000063 77.625000000 2399.3854980
  -999.250000 8.6954002380 8.5000000000  -999.250000  -999.250000  -999.250000
 2399.5379232
 0.0000000000 0.0000000000 0.0000000000 0.5149999857 1.0000000000 1.5850000381
 1.8809000254  -999.250000  -999.250000  -999.250000 95.188003540 0.0003000000
  -999.250000 2.4512000084 0.0944999978 0.2759000063 77.625000000 2399.5380859
  -999.250000 8.7109003067 8.5000000000  -999.250000  -999.250000  -999.250000
 2399.6903232
 0.0000000000 0.0000000000 0.0000000000 0.5465999842 1.0000000000 1.6670000553
 1.8809000254  -999.250000  -999.250000  -999.250000 95.188003540 0.0003000000
  -999.250000 2.4707000256 0.0800999999 0.2763999999 77.625000000 2399.6904297
  -999.250000 8.7421998978 8.5000000000  -999.250000  -999.250000  -999.250000
 2399.8427232
 0.0000000000 0.0000000000 0.0000000000 0.5672000051 1.0000000000 1.7274999619
 1.8809000254  -999.250000  -999.250000  -999.250000 95.188003540 0.0003000000
  -999.250000 2.4921998978 0.0652000010 0.2734000087 77.625000000 2399.8427734
  -999.250000 8.6406002045 8.5000000000  -999.250000  -999.250000  -999.250000
 2399.9951232
  -999.250000  -999.250000  -999.250000  -999.250000  -999.250000  -999.250000
  -999.250000  -999.250000  -999.250000  -999.250000  -999.250000 -543.5855103
  -999.250000 -541.0695801  -999.250000 -543.3198853  -999.250000 2399.9951172
  -999.250000  -999.250000  -999.250000  -999.250000  -999.250000  -999.250000
 2400.1475232
  -999.250000  -999.250000  -999.250000  -999.250000  -999.250000  -999.250000
  -999.250000  -999.250000  -999.250000  -999.250000  -999.250000  -999.250000
  -999.250000  -999.250000  -999.250000  -999.250000  -999.250000 2400.1477051
  -999.250000  -999.250000  -999.250000  -999.250000  -999.250000  -999.250000
