# LAS format log file from PETREL
# Project units are specified as depth units
#==================================================================
~Version information
VERS.   2.0:
WRAP.   YES:
#==================================================================
~Well
STRT .m      800.09997440 :
STOP .m      2299.7159264 :
STEP .m     0.15240000 :
NULL .        -999.250000 :
COMP.           : COMPANY
WELL.  34/10-19   : WELL
FLD.            : FIELD
LOC.            : LOCATION
SRVC.           : SERVICE COMPANY
DATE.  Wednesday, March 31 2010 12:33:14   : DATE
PROV.           : PROVINCE
UWI.      : UNIQUE WELL ID
API.            : API NUMBER
#==================================================================
~Curve
DEPT .m                   : DEPTH
NETS .                    : NETS
COAL .                    : COAL
CARB .                    : CARB
VSH .                     : VSH
SW .                      : SW
ILD .ohm.m                : ILD
ILM .ohm.m                : ILM
DT .us/ft                 : DT
KLOG .mD                  : KLOG
DRHO .g/cm3               : DRHO
RHOB .g/cm3               : RHOB
PHIF .m3/m3               : PHIF
NPHI .m3/m3               : NPHI
GR .gAPI                  : GR
DEPT .m                   : DEPT
TIME .ms                  : TIME
CALI .in                  : CALI
BS .in                    : BS
QTOT .rm3/d               : QTOT
QWAT .sm3/d               : QWAT
GeneralTime1 .ms          : General Time 1
~Parameter
#==================================================================
~Ascii
# ...
 2195.4743297
 0.0000000000 0.0000000000 0.0000000000 0.5389999747 1.0000000000 1.3944000006
  -999.250000 103.12770081 0.0000000000  -999.250000 2.4488999844 0.0910999998
 0.3698999882 56.718399048 2195.4743652  -999.250000 8.7341995239  -999.250000
  -999.250000  -999.250000  -999.250000
 2195.6267297
 0.0000000000 0.0000000000 0.0000000000 0.5307000279 1.0000000000 1.3594000340
  -999.250000 101.87529755 0.0013000000  -999.250000 2.3998999596 0.1211000010
 0.3138999939 56.396099091 2195.6267090  -999.250000 8.6469001770  -999.250000
  -999.250000  -999.250000  -999.250000
 2195.7791297
 1.0000000000 0.0000000000 0.0000000000 0.3980999887 1.0000000000 1.3428000212
  -999.250000 99.751403809 0.1259000003  -999.250000 2.3670001030 0.1509999931
 0.2750000060 51.908901215 2195.7792969  -999.250000 7.9847998619  -999.250000
  -999.250000  -999.250000  -999.250000
 2195.9315297
 1.0000000000 0.0000000000 0.0000000000 0.3569999933 0.9419000149 1.3339999914
  -999.250000 96.875000000 1.3159999847  -999.250000 2.3340001106 0.1739999950
 0.2770000100 50.094001770 2195.9316406  -999.250000 8.0156002045  -999.250000
  -999.250000  -999.250000  -999.250000
 2196.0839297
 1.0000000000 0.0000000000 0.0000000000 0.3540000021 0.8912000060 1.3437999487
  -999.250000 97.125000000 3.0690000057  -999.250000 2.3139998913 0.1860000044
 0.2870000005 48.000000000 2196.0839844  -999.250000 7.9843997955  -999.250000
  -999.250000  -999.250000  -999.250000
 2196.2363297
 1.0000000000 0.0000000000 0.0000000000 0.3179999888 0.8769999743 1.3710999489
  -999.250000 99.499496460 5.7210001945  -999.250000 2.3099999428 0.1909999996
 0.2759999931 48.438201904 2196.2363281  -999.250000 7.9531002045  -999.250000
  -999.250000  -999.250000  -999.250000
 2196.3887297
 1.0000000000 0.0000000000 0.0001000000 0.3129999936 0.9539999962 1.4062999487
  -999.250000 98.495697021 1.4499000311  -999.250000 2.3459999561 0.1700000018
 0.2560000122 48.879398346 2196.3889160  -999.250000 7.9376997948  -999.250000
  -999.250000  -999.250000  -999.250000
 2196.5411297
 0.0000000000 0.0000000000 0.1000000015 0.2921000123 1.0000000000 1.4434000254
  -999.250000 93.375198364 0.0939000025  -999.250000 2.4021000862 0.1369999945
 0.2179999948 54.166301727 2196.5412598  -999.250000 8.1173000336  -999.250000
  -999.250000  -999.250000  -999.250000
 2196.6935297
 0.0000000000 0.0000000000 0.1000000015 0.3752000034 1.0000000000 1.4589999914
  -999.250000 93.509101868 0.0000000000  -999.250000 2.4470000267 0.1030000001
 0.2231000066 62.644298553 2196.6936035  -999.250000 8.1723003387  -999.250000
  -999.250000  -999.250000  -999.250000
 2196.8459297
 0.0000000000 0.0000000000 0.1000000015 0.4722000062 1.0000000000 1.4451999664
  -999.250000 99.265998840 0.0000000000  -999.250000 2.4409000874 0.1000000015
 0.2570999861 74.818298340 2196.8459473  -999.250000 8.4224004745  -999.250000
  -999.250000  -999.250000  -999.250000
 2196.9983297
 0.0000000000 0.0000000000 0.1000000015 0.5978999734 1.0000000000 1.4091999531
  -999.250000 107.49269867 0.0000000000  -999.250000 2.4119999409 0.1089999974
 0.3309000134 77.560600281 2196.9982910  -999.250000 8.6639003754  -999.250000
  -999.250000  -999.250000  -999.250000
 2197.1507297
 0.0000000000 0.0000000000 0.0001000000 0.6420000196 0.9894000292 1.3769999743
  -999.250000 113.36689758 0.0000000000  -999.250000 2.3789999485 0.1260000020
 0.3680000007 77.749900818 2197.1508789  -999.250000 8.7187995911  -999.250000
  -999.250000  -999.250000  -999.250000
 2197.3031297
 0.0000000000 0.0000000000 0.0000000000 0.7210000157 0.9120000005 1.3271000385
  -999.250000 119.87000275 0.0010000000  -999.250000 2.3540000916 0.1360000074
 0.4050000012 71.938003540 2197.3032227  -999.250000 9.1562995911  -999.250000
  -999.250000  -999.250000  -999.250000
 2197.4555297
 0.0000000000 0.0000000000 0.0000000000 0.7379999757 0.8960999846 1.2597999573
  -999.250000 124.25000000 0.0020000001  -999.250000 2.3399999142 0.1439999938
 0.4180000126 69.250000000 2197.4555664  -999.250000 9.1953001022  -999.250000
  -999.250000  -999.250000  -999.250000
 2197.6079297
 0.0000000000 0.0000000000 0.0000000000 0.6560000181 0.9269000292 1.1885000467
  -999.250000 125.87290192 0.0010000000  -999.250000 2.3320000172 0.1539999992
 0.4499999881 63.561100006 2197.6079102  -999.250000 9.0471000671  -999.250000
  -999.250000  -999.250000  -999.250000
 2197.7603297
 0.0000000000 0.0000000000 0.0000000000 0.6259999871 0.9548000097 1.1250000000
  -999.250000 130.74740601 0.0030000000  -999.250000 2.3299999237 0.1570000052
 0.4359999895 60.343700409 2197.7604980  -999.250000 9.4604997635  -999.250000
  -999.250000  -999.250000  -999.250000
 2197.9127297
 0.0000000000 0.0000000000 0.0000000000 0.6050000191 0.9574000239 1.0858999491
  -999.250000 127.99949646 0.0040000002  -999.250000 2.3220000267 0.1640000045
 0.4410000145 60.034500122 2197.9128418  -999.250000 9.0931997299  -999.250000
  -999.250000  -999.250000  -999.250000
 2198.0651297
 0.0000000000 0.0000000000 0.0000000000 0.6220999956 0.9358000159 1.0820000172
  -999.250000 127.61979675 0.0109999999  -999.250000 2.3139998913 0.1669999957
 0.4320000112 62.690399170 2198.0651855  -999.250000 8.6408996582  -999.250000
  -999.250000  -999.250000  -999.250000
 2198.2175297
 0.0000000000 0.0000000000 0.0000000000 0.6518999934 0.9330000281 1.1036000252
  -999.250000 127.49659729 0.0040000002  -999.250000 2.3199999332 0.1609999985
 0.4478999972 64.113899231 2198.2175293  -999.250000 8.8052997589  -999.250000
  -999.250000  -999.250000  -999.250000
 2198.3699297
 0.0000000000 0.0000000000 0.0000000000 0.5860999823 0.9933999777 1.1309000254
  -999.250000 125.87120056 0.0020000001  -999.250000 2.3420000076 0.1529999971
 0.4199999869 58.723098755 2198.3701172  -999.250000 9.1169996262  -999.250000
  -999.250000  -999.250000  -999.250000
 2198.5223296
 0.0000000000 0.0000000000 0.0000000000 0.4740000069 1.0000000000 1.1601999998
  -999.250000 120.62210083 0.0000000000  -999.250000 2.3670001030 0.1449999958
 0.4149999917 51.721801758 2198.5224609  -999.250000 8.9454002380  -999.250000
  -999.250000  -999.250000  -999.250000
 2198.6747296
 0.0000000000 0.0000000000 0.0000000000 0.4050000012 1.0000000000 1.1885000467
  -999.250000 112.25000000 0.0000000000  -999.250000 2.3729999065 0.1469999999
 0.3889999986 47.719001770 2198.6748047  -999.250000 8.5703001022  -999.250000
  -999.250000  -999.250000  -999.250000
 2198.8271296
 0.0000000000 0.0000000000 0.0000000000 0.4420000017 1.0000000000 1.2167999744
  -999.250000 111.75000000 0.0010000000  -999.250000 2.3729999065 0.1439999938
 0.3750000000 50.062999725 2198.8271484  -999.250000 8.7734003067  -999.250000
  -999.250000  -999.250000  -999.250000
 2198.9795296
 0.0000000000 0.0000000000 0.0000000000 0.4420000017 1.0000000000 1.2500000000
  -999.250000 116.99929810 0.0010000000  -999.250000 2.3670001030 0.1480000019
 0.3740000129 49.531501770 2198.9794922  -999.250000 8.9767999649  -999.250000
  -999.250000  -999.250000  -999.250000
 2199.1319296
 0.0000000000 0.0000000000 0.0000000000 0.4620000124 1.0000000000 1.2911000252
  -999.250000 116.00150299 0.0010000000  -999.250000 2.3710000515 0.1439999938
 0.3619999886 50.279399872 2199.1320801  -999.250000 9.2028999329  -999.250000
  -999.250000  -999.250000  -999.250000
 2199.2843296
 0.0000000000 0.0000000000 0.0000000000 0.4330999851 1.0000000000 1.3399000168
  -999.250000 117.36979675 0.0000000000  -999.250000 2.3750000000 0.1430000067
 0.3849999905 48.756500244 2199.2844238  -999.250000 9.0459003448  -999.250000
  -999.250000  -999.250000  -999.250000
 2199.4367296
 0.0000000000 0.0000000000 0.0000000000 0.4709999859 1.0000000000 1.3897000551
  -999.250000 117.24089813 0.0000000000  -999.250000 2.3870000839 0.1340000033
 0.3899999857 53.247001648 2199.4367676  -999.250000 8.3515996933  -999.250000
  -999.250000  -999.250000  -999.250000
 2199.5891296
 0.0000000000 0.0000000000 0.0000000000 0.4469999969 1.0000000000 1.4385999441
  -999.250000 112.23529816 0.0000000000  -999.250000 2.4140000343 0.1190000027
 0.3908999860 51.596199036 2199.5891113  -999.250000 8.3437995911  -999.250000
  -999.250000  -999.250000  -999.250000
