# LAS format log file from PETREL
# Project units are specified as depth units
#==================================================================
~Version information
VERS.   2.0:
WRAP.   YES:
#==================================================================
~Well
STRT .m      800.09997440 :
STOP .m      2299.7159264 :
STEP .m     0.15240000 :
NULL .        -999.250000 :
COMP.           : COMPANY
WELL.  34/10-19   : WELL
FLD.            : FIELD
LOC.            : LOCATION
SRVC.           : SERVICE COMPANY
DATE.  Wednesday, March 31 2010 12:33:14   : DATE
PROV.           : PROVINCE
UWI.      : UNIQUE WELL ID
API.            : API NUMBER
#==================================================================
~Curve
DEPT .m                   : DEPTH
NETS .                    : NETS
COAL .                    : COAL
CARB .                    : CARB
VSH .                     : VSH
SW .                      : SW
ILD .ohm.m                : ILD
ILM .ohm.m                : ILM
DT .us/ft                 : DT
KLOG .mD                  : KLOG
DRHO .g/cm3               : DRHO
RHOB .g/cm3               : RHOB
PHIF .m3/m3               : PHIF
NPHI .m3/m3               : NPHI
GR .gAPI                  : GR
DEPT .m                   : DEPT
TIME .ms                  : TIME
CALI .in                  : CALI
BS .in                    : BS
QTOT .rm3/d               : QTOT
QWAT .sm3/d               : QWAT
GeneralTime1 .ms          : General Time 1
~Parameter
#==================================================================
~Ascii
# ...
 2110.1303325
 1.0000000000 0.0000000000 0.0000000000 0.1255999953 0.8960000277 1.3105000257
  -999.250000 99.750000000 8.0286998749  -999.250000 2.3046998978 0.2099999934
 0.1963000000 32.344001770 2110.1303711  -999.250000 8.1875000000  -999.250000
  -999.250000  -999.250000  -999.250000
 2110.2827325
 1.0000000000 0.0000000000 0.0000000000 0.1755000055 0.9735999703 1.0750999451
  -999.250000 102.99900055 8.0488996506  -999.250000 2.2987999916 0.2099999934
 0.2206999958 31.296899796 2110.2827148  -999.250000 8.1953001022  -999.250000
  -999.250000  -999.250000  -999.250000
 2110.4351325
 1.0000000000 0.0000000000 0.0000000000 0.1838999987 1.0000000000 0.8963999748
  -999.250000 101.12840271 5.6940999031  -999.250000 2.3066000938 0.2046999931
 0.2280000001 31.045999527 2110.4353027  -999.250000 8.2187995911  -999.250000
  -999.250000  -999.250000  -999.250000
 2110.5875325
 1.0000000000 0.0000000000 0.0000000000 0.1686999947 1.0000000000 0.7757999897
  -999.250000 99.374702454 7.1213002205  -999.250000 2.3027000427 0.2081000060
 0.2284999937 29.970699310 2110.5876465  -999.250000 8.2187995911  -999.250000
  -999.250000  -999.250000  -999.250000
 2110.7399325
 1.0000000000 0.0000000000 0.0000000000 0.1878000051 1.0000000000 0.7261000276
  -999.250000 99.128097534 7.0471000671  -999.250000 2.3008000851 0.2080000043
 0.2310000062 31.269100189 2110.7399902  -999.250000 8.2500000000  -999.250000
  -999.250000  -999.250000  -999.250000
 2110.8923325
 1.0000000000 0.0000000000 0.0000000000 0.1728000045 1.0000000000 0.7340000272
  -999.250000 101.00150299 19.022699356  -999.250000 2.2772998810 0.2230000049
 0.2325000018 33.133098602 2110.8923340  -999.250000 8.2578001022  -999.250000
  -999.250000  -999.250000  -999.250000
 2111.0447324
 1.0000000000 0.0000000000 0.0000000000 0.2192000002 1.0000000000 0.7660999894
  -999.250000 101.74939728 13.121700287  -999.250000 2.2813000679 0.2173999995
 0.2495000064 37.090801239 2111.0449219  -999.250000 8.2656002045  -999.250000
  -999.250000  -999.250000  -999.250000
 2111.1971324
 1.0000000000 0.0000000000 0.0000000000 0.2569000125 1.0000000000 0.8134999871
  -999.250000 103.74909973 3.2263998985  -999.250000 2.3125000000 0.1960999966
 0.2466000021 45.996200562 2111.1972656  -999.250000 8.3593997955  -999.250000
  -999.250000  -999.250000  -999.250000
 2111.3495324
 0.0000000000 0.0000000000 0.0000000000 0.3702000082 1.0000000000 0.8608000278
  -999.250000 105.62999725 0.2211000025  -999.250000 2.3671998978 0.1553999931
 0.2612000108 55.250000000 2111.3496094  -999.250000 8.3906002045  -999.250000
  -999.250000  -999.250000  -999.250000
 2111.5019324
 0.0000000000 0.0000000000 0.0000000000 0.4799000025 1.0000000000 0.9199000001
  -999.250000 105.87999725 0.0227000006  -999.250000 2.4121000767 0.1208000034
 0.2802999914 64.938003540 2111.5019531  -999.250000 8.4375000000  -999.250000
  -999.250000  -999.250000  -999.250000
 2111.6543324
 0.0000000000 0.0000000000 0.0000000000 0.6919999719 1.0000000000 1.0068999529
  -999.250000 107.63059998 0.0073000002  -999.250000 2.4159998894 0.1036999971
 0.3666999936 70.315101624 2111.6542969  -999.250000 8.5390996933  -999.250000
  -999.250000  -999.250000  -999.250000
 2111.8067324
 0.0000000000 0.0000000000 0.0000000000 0.7540000081 0.9998999834 1.1318999529
  -999.250000 108.50160217 0.0094999997  -999.250000 2.4022998810 0.1075000018
 0.4009000063 73.437500000 2111.8068848  -999.250000 8.5390996933  -999.250000
  -999.250000  -999.250000  -999.250000
 2111.9591324
 0.0000000000 0.0000000000 0.0000000000 0.7238000035 0.9452999830 1.2539999485
  -999.250000 110.00090027 0.0505999997  -999.250000 2.3633000851 0.1330000013
 0.4115999937 72.994499207 2111.9592285  -999.250000 8.5075998306  -999.250000
  -999.250000  -999.250000  -999.250000
 2112.1115324
 0.0000000000 0.0000000000 0.0000000000 0.6528000236 0.8919000030 1.3447999954
  -999.250000 110.63649750 0.1512999982  -999.250000 2.3438000679 0.1495999992
 0.3935000002 69.121902466 2112.1115723  -999.250000 8.3438997269  -999.250000
  -999.250000  -999.250000  -999.250000
 2112.2639324
 0.0000000000 0.0000000000 0.0000000000 0.6190999746 0.8661999702 1.3905999660
  -999.250000 114.25270081 0.2596000135  -999.250000 2.3340001106 0.1578000039
 0.3853000104 67.369903564 2112.2639160  -999.250000 8.3908996582  -999.250000
  -999.250000  -999.250000  -999.250000
 2112.4163324
 0.0000000000 0.0000000000 0.0000000000 0.6797999740 0.9025999904 1.3818000555
  -999.250000 115.49919891 0.0781999975  -999.250000 2.3573999405 0.1395999938
 0.4214000106 65.001602173 2112.4165039  -999.250000 8.5233001709  -999.250000
  -999.250000  -999.250000  -999.250000
 2112.5687324
 0.0000000000 0.0000000000 0.0000000000 0.6460000277 0.9330999851 1.3495999575
  -999.250000 116.37000275 0.0781999975 0.0000000000 2.3612999916 0.1395999938
 0.4273000062 62.530998230 2112.5688477  -999.250000 8.5546998978  -999.250000
  -999.250000  -999.250000  -999.250000
 2112.7211324
 0.0000000000 0.0000000000 0.0000000000 0.6028000116 0.9513999820 1.3213000298
  -999.250000 118.00000000 0.1028999984 0.0044000000 2.3594000340 0.1438000053
 0.4683000147 59.530998230 2112.7211914  -999.250000 8.5546998978  -999.250000
  -999.250000  -999.250000  -999.250000
 2112.8735324
 0.0000000000 0.0000000000 0.0000000000 0.6292999983 0.8984000087 1.2929999828
  -999.250000 119.12000275 0.2301000059 0.0034000000 2.3359000683 0.1560000032
 0.4535999894 61.313800812 2112.8735352  -999.250000 8.5703001022  -999.250000
  -999.250000  -999.250000  -999.250000
 2113.0259324
 0.0000000000 0.0000000000 0.0000000000 0.6575000286 0.8737000227 1.2695000172
  -999.250000 119.12069702 0.3203999996  -999.250000 2.3241999149 0.1609999985
 0.4603999853 63.218498230 2113.0258789  -999.250000 8.5859003067  -999.250000
  -999.250000  -999.250000  -999.250000
 2113.1783324
 0.0000000000 0.0000000000 0.0000000000 0.6467999816 0.8784000278 1.2529000044
  -999.250000 120.00000000 0.3626999855 0.0000000000 2.3222999573 0.1629000008
 0.4605000019 62.557498932 2113.1784668  -999.250000 8.5625000000  -999.250000
  -999.250000  -999.250000  -999.250000
 2113.3307324
 0.0000000000 0.0000000000 0.0000000000 0.5784999728 0.9207000136 1.2440999746
  -999.250000 120.00039673 0.3389999866 0.0015000000 2.3320000172 0.1618999988
 0.4702000022 57.841701508 2113.3308105  -999.250000 8.5546998978  -999.250000
  -999.250000  -999.250000  -999.250000
 2113.4831324
 0.0000000000 0.0000000000 0.0000000000 0.5583999753 0.9474999905 1.2344000340
  -999.250000 120.24949646 0.2736000121 0.0059000002 2.3397998810 0.1586000025
 0.4419000149 56.373901367 2113.4831543  -999.250000 8.5781002045  -999.250000
  -999.250000  -999.250000  -999.250000
 2113.6355324
 0.0000000000 0.0000000000 0.0000000000 0.5493000150 0.9429000020 1.2167999744
  -999.250000 120.00019836 0.3585000038 0.0015000000 2.3340001106 0.1626999974
 0.4384999871 55.813499451 2113.6354980  -999.250000 8.5546998978  -999.250000
  -999.250000  -999.250000  -999.250000
 2113.7879324
 0.0000000000 0.0000000000 0.0000000000 0.6108999848 0.9277999997 1.2001999617
  -999.250000 119.75009918 0.2919999957  -999.250000 2.3320000172 0.1596000046
 0.4393999875 60.122600555 2113.7880859  -999.250000 8.5468997955  -999.250000
  -999.250000  -999.250000  -999.250000
 2113.9403324
 0.0000000000 0.0000000000 0.0000000000 0.6165000200 0.9293000102 1.1806999445
  -999.250000 118.12000275 0.3066999912 0.0000000000 2.3301000595 0.1604000032
 0.4550999999 60.562999725 2113.9404297  -999.250000 8.5312995911  -999.250000
  -999.250000  -999.250000  -999.250000
 2114.0927323
 0.0000000000 0.0000000000 0.0000000000 0.6517000198 0.9308000207 1.1611000299
  -999.250000 118.00000000 0.2419999987 0.0049000001 2.3320000172 0.1568000019
 0.4399000108 63.125000000 2114.0927734  -999.250000 8.5000000000  -999.250000
  -999.250000  -999.250000  -999.250000
 2114.2451323
 0.0000000000 0.0000000000 0.0000000000 0.6190000176 0.9481999874 1.1416000128
  -999.250000 118.25119781 0.2813999951 0.0073000002 2.3320000172 0.1590999961
 0.4501999915 60.844100952 2114.2451172  -999.250000 8.5000000000  -999.250000
  -999.250000  -999.250000  -999.250000
