# LAS format log file from PETREL
# Project units are specified as depth units
#==================================================================
~Version information
VERS.   2.0:
WRAP.   YES:
#==================================================================
~Well
STRT .m      800.09997440 :
STOP .m      2299.7159264 :
STEP .m     0.15240000 :
NULL .        -999.250000 :
COMP.           : COMPANY
WELL.  34/10-19   : WELL
FLD.            : FIELD
LOC.            : LOCATION
SRVC.           : SERVICE COMPANY
DATE.  Wednesday, March 31 2010 12:33:14   : DATE
PROV.           : PROVINCE
UWI.      : UNIQUE WELL ID
API.            : API NUMBER
#==================================================================
~Curve
DEPT .m                   : DEPTH
NETS .                    : NETS
COAL .                    : COAL
CARB .                    : CARB
VSH .                     : VSH
SW .                      : SW
ILD .ohm.m                : ILD
ILM .ohm.m                : ILM
DT .us/ft                 : DT
KLOG .mD                  : KLOG
DRHO .g/cm3               : DRHO
RHOB .g/cm3               : RHOB
PHIF .m3/m3               : PHIF
NPHI .m3/m3               : NPHI
GR .gAPI                  : GR
DEPT .m                   : DEPT
TIME .ms                  : TIME
CALI .in                  : CALI
BS .in                    : BS
QTOT .rm3/d               : QTOT
QWAT .sm3/d               : QWAT
GeneralTime1 .ms          : General Time 1
~Parameter
#==================================================================
~Ascii
# ...
 2011.9847356
 1.0000000000 0.0000000000 0.0000000000 0.1922000051 1.0000000000 0.4302000105
  -999.250000 115.99739838 1295.2142334  -999.250000 2.1679999828 0.2870999873
 0.3305999935 31.517000198 2011.9847412  -999.250000 8.2812995911  -999.250000
  -999.250000  -999.250000  -999.250000
 2012.1371356
 1.0000000000 0.0000000000 0.0000000000 0.2440000027 1.0000000000 0.4287000000
  -999.250000 115.12000275 551.46002197  -999.250000 2.1835999489 0.2741999924
 0.3276000023 35.219001770 2012.1372070  -999.250000 8.2578001022  -999.250000
  -999.250000  -999.250000  -999.250000
 2012.2895356
 1.0000000000 0.0000000000 0.0000000000 0.2293999940 1.0000000000 0.4359999895
  -999.250000 112.00000000 318.83889771  -999.250000 2.1991999149 0.2658999860
 0.3447000086 34.187999725 2012.2895508  -999.250000 8.2578001022  -999.250000
  -999.250000  -999.250000  -999.250000
 2012.4419356
 1.0000000000 0.0000000000 0.0000000000 0.2374999970 1.0000000000 0.4496999979
  -999.250000 110.87999725 193.53909302  -999.250000 2.2109000683 0.2583000064
 0.3402999938 34.779598236 2012.4420166  -999.250000 8.2500000000  -999.250000
  -999.250000  -999.250000  -999.250000
 2012.5943356
 1.0000000000 0.0000000000 0.0000000000 0.2088000029 1.0000000000 0.4618999958
  -999.250000 110.87999725 138.79479980  -999.250000 2.2227001190 0.2531999946
 0.3285999894 32.751098633 2012.5943604  -999.250000 8.2500000000  -999.250000
  -999.250000  -999.250000  -999.250000
 2012.7467356
 1.0000000000 0.0000000000 0.0000000000 0.2808000147 1.0000000000 0.4603999853
  -999.250000 112.75000000 67.930603027  -999.250000 2.2323999405 0.2424000055
 0.3086000085 37.875000000 2012.7468262  -999.250000 8.2343997955  -999.250000
  -999.250000  -999.250000  -999.250000
 2012.8991356
 1.0000000000 0.0000000000 0.0000000000 0.2547000051 1.0000000000 0.4589999914
  -999.250000 113.25000000 89.345298767  -999.250000 2.2284998894 0.2465000004
 0.3115000129 36.062999725 2012.8991699  -999.250000 8.2187995911  -999.250000
  -999.250000  -999.250000  -999.250000
 2013.0515356
 1.0000000000 0.0000000000 0.0000000000 0.2406000048 1.0000000000 0.4589999914
  -999.250000 113.74919891 280.05068970  -999.250000 2.2012000084 0.2639000118
 0.3192999959 35.060501099 2013.0516357  -999.250000 8.2187995911  -999.250000
  -999.250000  -999.250000  -999.250000
 2013.2039356
 1.0000000000 0.0000000000 0.0000000000 0.1812999994 1.0000000000 0.4560000002
  -999.250000 112.37129974 683.65911865  -999.250000 2.1854999065 0.2773999870
 0.3291000128 30.718299866 2013.2039795  -999.250000 8.2969999313  -999.250000
  -999.250000  -999.250000  -999.250000
 2013.3563356
 1.0000000000 0.0000000000 0.0000000000 0.1724999994 1.0000000000 0.4501999915
  -999.250000 113.75000000 1418.1804199  -999.250000 2.1679999828 0.2885000110
 0.3203000128 30.000000000 2013.3564453  -999.250000 8.3515996933  -999.250000
  -999.250000  -999.250000  -999.250000
 2013.5087356
 1.0000000000 0.0000000000 0.0000000000 0.1615000069 1.0000000000 0.4375000000
  -999.250000 110.50000000 1384.1459961  -999.250000 2.1698999405 0.2881999910
 0.3456999958 29.093999863 2013.5087891  -999.250000 8.4296998978  -999.250000
  -999.250000  -999.250000  -999.250000
 2013.6611356
 1.0000000000 0.0000000000 0.0000000000 0.1230000034 1.0000000000 0.4287000000
  -999.250000 109.49960327 1527.6042480  -999.250000 2.1719000340 0.2897000015
 0.3490999937 26.484100342 2013.6612549  -999.250000 8.3750000000  -999.250000
  -999.250000  -999.250000  -999.250000
 2013.8135356
 1.0000000000 0.0000000000 0.0000000000 0.1252000034 1.0000000000 0.4316000044
  -999.250000 108.50219727 1111.6094971  -999.250000 2.1796998978 0.2847999930
 0.3535000086 26.689100266 2013.8135986  -999.250000 8.3437995911  -999.250000
  -999.250000  -999.250000  -999.250000
 2013.9659356
 1.0000000000 0.0000000000 0.0000000000 0.1453000009 1.0000000000 0.4390000105
  -999.250000 111.24880219 745.17077637  -999.250000 2.1875000000 0.2786999941
 0.3267000020 28.077400208 2013.9659424  -999.250000 8.3593997955  -999.250000
  -999.250000  -999.250000  -999.250000
 2014.1183355
 1.0000000000 0.0000000000 0.0000000000 0.1805000007 1.0000000000 0.4496999979
  -999.250000 111.12999725 799.59521484  -999.250000 2.1816000938 0.2797999978
 0.3203000128 30.406000137 2014.1184082  -999.250000 8.4375000000  -999.250000
  -999.250000  -999.250000  -999.250000
 2014.2707355
 1.0000000000 0.0000000000 0.0000000000 0.2176000029 1.0000000000 0.4677999914
  -999.250000 110.25000000 493.51708984  -999.250000 2.1895000935 0.2725000083
 0.3271000087 33.000000000 2014.2707520  -999.250000 8.4375000000  -999.250000
  -999.250000  -999.250000  -999.250000
 2014.4231355
 1.0000000000 0.0000000000 0.0000000000 0.2248000056 1.0000000000 0.4853999913
  -999.250000 112.75319672 257.98400879  -999.250000 2.2051000595 0.2626000047
 0.3339999914 33.751598358 2014.4232178  -999.250000 8.3125000000  -999.250000
  -999.250000  -999.250000  -999.250000
 2014.5755355
 1.0000000000 0.0000000000 0.0000000000 0.2583000064 1.0000000000 0.5062999725
  -999.250000 117.36740112 94.792999268  -999.250000 2.2265999317 0.2474000007
 0.3251999915 36.029800415 2014.5755615  -999.250000 8.3515996933  -999.250000
  -999.250000  -999.250000  -999.250000
 2014.7279355
 1.0000000000 0.0000000000 0.0000000000 0.2730000019 1.0000000000 0.5360999703
  -999.250000 108.50000000 82.130203247  -999.250000 2.2284998894 0.2452999949
 0.3310000002 37.375000000 2014.7280273  -999.250000 8.2109003067  -999.250000
  -999.250000  -999.250000  -999.250000
 2014.8803355
 1.0000000000 0.0000000000 0.0000000000 0.3125000000 1.0000000000 0.5654000044
  -999.250000 109.00000000 68.441802979  -999.250000 2.2284998894 0.2425000072
 0.3345000148 40.469001770 2014.8803711  -999.250000 8.0937995911  -999.250000
  -999.250000  -999.250000  -999.250000
 2015.0327355
 1.0000000000 0.0000000000 0.0000000000 0.3125999868 1.0000000000 0.5824999809
  -999.250000 109.99859619 85.966903687  -999.250000 2.2227001190 0.2460000068
 0.3447000086 40.436798096 2015.0328369  -999.250000 8.1093997955  -999.250000
  -999.250000  -999.250000  -999.250000
 2015.1851355
 1.0000000000 0.0000000000 0.0000000000 0.2842000127 1.0000000000 0.5982000232
  -999.250000 107.49929810 52.971698761  -999.250000 2.2383000851 0.2386000007
 0.3418000042 38.279800415 2015.1851807  -999.250000 8.1640996933  -999.250000
  -999.250000  -999.250000  -999.250000
 2015.3375355
 1.0000000000 0.0000000000 0.0000000000 0.2664000094 1.0000000000 0.6137999892
  -999.250000 106.75000000 36.267101288  -999.250000 2.2500000000 0.2328999937
 0.3384000063 37.030998230 2015.3376465  -999.250000 8.1562995911  -999.250000
  -999.250000  -999.250000  -999.250000
 2015.4899355
 1.0000000000 0.0000000000 0.0000000000 0.2836000025 1.0000000000 0.6240000129
  -999.250000 107.50000000 24.626100540  -999.250000 2.2578001022 0.2269999981
 0.3280999959 38.405998230 2015.4899902  -999.250000 8.0937995911  -999.250000
  -999.250000  -999.250000  -999.250000
 2015.6423355
 1.0000000000 0.0000000000 0.0000000000 0.3149000108 1.0000000000 0.6226000190
  -999.250000 109.50000000 16.893400192  -999.250000 2.2637000084 0.2212000042
 0.3197999895 40.501899719 2015.6424561  -999.250000 8.1484003067  -999.250000
  -999.250000  -999.250000  -999.250000
 2015.7947355
 1.0000000000 0.0000000000 0.0000000000 0.3743000031 1.0000000000 0.6079000235
  -999.250000 109.50140381 10.221500397  -999.250000 2.2695000172 0.2135999948
 0.3305999935 44.876201630 2015.7947998  -999.250000 8.0937995911  -999.250000
  -999.250000  -999.250000  -999.250000
 2015.9471355
 1.0000000000 0.0000000000 0.0000000000 0.3961000144 1.0000000000 0.5752000213
  -999.250000 111.24919891 7.3269000053  -999.250000 2.2753999233 0.2085999995
 0.3368999958 46.343299866 2015.9471436  -999.250000 8.1250000000  -999.250000
  -999.250000  -999.250000  -999.250000
 2016.0995355
 1.0000000000 0.0000000000 0.0000000000 0.3952000141 1.0000000000 0.5228999853
  -999.250000 111.00000000 23.351499557  -999.250000 2.2460999489 0.2261999995
 0.3441999853 49.219001770 2016.0996094  -999.250000 8.1562995911  -999.250000
  -999.250000  -999.250000  -999.250000
