# LAS format log file from PETREL
# Project units are specified as depth units
#==================================================================
~Version information
VERS.   2.0:
WRAP.   YES:
#==================================================================
~Well
STRT .m      800.09997440 :
STOP .m      2299.7159264 :
STEP .m     0.15240000 :
NULL .        -999.250000 :
COMP.           : COMPANY
WELL.  34/10-11   : WELL
FLD.            : FIELD
LOC.            : LOCATION
SRVC.           : SERVICE COMPANY
DATE.  Wednesday, March 31 2010 12:33:12   : DATE
PROV.           : PROVINCE
UWI.      : UNIQUE WELL ID
API.            : API NUMBER
#==================================================================
~Curve
DEPT .m                   : DEPTH
NETS .                    : NETS
COAL .                    : COAL
CARB .                    : CARB
VSH .                     : VSH
SW .                      : SW
ILD .ohm.m                : ILD
MSFL .ohm.m               : MSFL
LLS .ohm.m                : LLS
LLD .ohm.m                : LLD
ILM .ohm.m                : ILM
DT .us/ft                 : DT
KLOG .mD                  : KLOG
DRHO .g/cm3               : DRHO
RHOB .g/cm3               : RHOB
PHIF .m3/m3               : PHIF
NPHI .m3/m3               : NPHI
GR .gAPI                  : GR
DEPT .m                   : DEPT
TIME .ms                  : TIME
CALI .in                  : CALI
BS .in                    : BS
QTOT .rm3/d               : QTOT
QWAT .sm3/d               : QWAT
GeneralTime1 .ms          : General Time 1
~Parameter
#==================================================================
~Ascii
# ...
 2026.9199351
 1.0000000000 0.0000000000 0.0000000000 0.2727999985 0.1788000017 25.171199799
 10.007699966 31.940099716 33.173099518  -999.250000 118.36560059 53.519100189
  -999.250000 2.2030999660 0.2390999943 0.2973999977 34.187698364 2026.9200439
  -999.250000 8.2578001022  -999.250000  -999.250000  -999.250000  -999.250000
 2027.0723351
 1.0000000000 0.0000000000 0.0000000000 0.2653000057 0.1728000045 23.608999252
 9.4420003891 37.997699738 39.293800354  -999.250000 109.74929810 30.764400482
  -999.250000 2.2246000767 0.2203000039 0.2865999937 33.562099457 2027.0723877
  -999.250000 8.2421998978  -999.250000  -999.250000  -999.250000  -999.250000
 2027.2247351
 1.0000000000 0.0000000000 0.0000000000 0.2450000048 0.1606000066 23.641000748
 5.6563000679 35.388999939 35.683998108  -999.250000 109.00000000 24.990499496
  -999.250000 2.2265999317 0.2212000042 0.2894999981 32.530998230 2027.2248535
  -999.250000 8.2578001022  -999.250000  -999.250000  -999.250000  -999.250000
 2027.3771351
 1.0000000000 0.0000000000 0.0000000000 0.1741999984 0.1529999971 24.108999252
 5.0078001022 28.594999313 29.261999130  -999.250000 109.75000000 159.61489868
  -999.250000 2.1719000340 0.2585999966 0.3018000126 29.031000137 2027.3771973
  -999.250000 8.2578001022  -999.250000  -999.250000  -999.250000  -999.250000
 2027.5295351
 1.0000000000 0.0000000000 0.0000000000 0.1715999991 0.1597999930 24.250000000
 4.6171998978 24.087999344 25.142000198  -999.250000 117.19000244 218.05250549
  -999.250000 2.1484000683 0.2721999884 0.3179000020 28.891000748 2027.5295410
  -999.250000 8.2656002045  -999.250000  -999.250000  -999.250000  -999.250000
 2027.6819351
 1.0000000000 0.0000000000 0.0000000000 0.2102999985 0.1613000035 23.621900558
 4.6325998306 19.369499207 20.565200806  -999.250000 125.99980164 457.28118896
  -999.250000 2.1152000427 0.2872999907 0.3291000128 30.813499451 2027.6820068
  -999.250000 8.2578001022  -999.250000  -999.250000  -999.250000  -999.250000
 2027.8343351
 1.0000000000 0.0000000000 0.0000000000 0.2249999940 0.1764000058 19.564899445
 4.4102997780 13.394800186 14.213000298  -999.250000 125.75009918 392.91329956
  -999.250000 2.1191000938 0.2842999995 0.3300999999 31.499700546 2027.8343506
  -999.250000 8.2812995911  -999.250000  -999.250000  -999.250000  -999.250000
 2027.9867351
 1.0000000000 0.0000000000 0.0000000000 0.2424000055 0.2097000033 12.765999794
 4.3828001022 8.0381002426 8.2440996170  -999.250000 126.00000000 415.54959106
  -999.250000 2.1210999489 0.2827000022 0.3262000084 36.530998230 2027.9868164
  -999.250000 8.3046998978  -999.250000  -999.250000  -999.250000  -999.250000
 2028.1391351
 1.0000000000 0.0000000000 0.0000000000 0.2784999907 0.3061999977 7.6563000679
 5.2539000511 5.2322001457 5.2097001076  -999.250000 122.75000000 64.762603760
  -999.250000 2.1914000511 0.2445999980 0.3057000041 37.125000000 2028.1391602
  -999.250000 8.3359003067 8.5000000000  -999.250000  -999.250000  -999.250000
 2028.2915351
 0.0000000000 0.0000000000 0.0000000000 0.3720999956 0.4616000056 5.4328999519
 4.0735001564 3.7844998837 3.7311000824  -999.250000 116.36609650 0.6212000251
  -999.250000 2.2892000675 0.1867000014 0.2935000062 45.691898346 2028.2916260
  -999.250000 8.6096000671 8.5000000000  -999.250000  -999.250000  -999.250000
 2028.4439351
 0.0000000000 0.0000000000 0.0000000000 0.5202000141 0.6618999839 4.3783001900
 2.9914999008 2.9263999462 2.8478999138  -999.250000 110.18440247 0.0000000000
  -999.250000 2.3965001106 0.1240999997 0.3032999933 51.908798218 2028.4439697
  -999.250000 8.9144001007 8.5000000000  -999.250000  -999.250000  -999.250000
 2028.5963351
 0.0000000000 0.0000000000 0.0000000000 0.6376000047 0.7419000268 3.7695000172
 2.2909998894 2.5132000446 2.4716000557  -999.250000 104.55999756 0.0000000000
  -999.250000 2.4140999317 0.1106999964 0.3472000062 54.719001770 2028.5964355
  -999.250000 9.2421998978 8.5000000000  -999.250000  -999.250000  -999.250000
 2028.7487351
 0.0000000000 0.0000000000 0.0000000000 0.6808999777 0.7875999808 3.3145000935
 2.1250000000 2.5027999878 2.4795999527  -999.250000 100.37999725 0.0000000000
  -999.250000 2.4237999916 0.1063999981 0.3851999938 51.280998230 2028.7487793
  -999.250000 9.2109003067 8.5000000000  -999.250000  -999.250000  -999.250000
 2028.9011351
 0.0000000000 0.0000000000 0.0000000000 0.6273000240 0.8450999856 2.9432001114
 2.8329000473 2.5481998920 2.5320999622  -999.250000 98.563102722 0.0000000000
  -999.250000 2.4414000511 0.1019999981 0.3921000063 50.188899994 2028.9012451
  -999.250000 8.6719999313 8.5000000000  -999.250000  -999.250000  -999.250000
 2029.0535351
 0.0000000000 0.0000000000 0.0000000000 0.6797000170 0.9815999866 2.6384999752
 4.5145001411 2.6182000637 2.6033999920  -999.250000 98.746002197 0.0000000000
  -999.250000 2.4902000427 0.0684999973 0.3729999959 52.063400269 2029.0535889
  -999.250000 8.8985004425 8.5000000000  -999.250000  -999.250000  -999.250000
 2029.2059351
 0.0000000000 0.0000000000 0.0000000000 0.6966000199 1.0000000000 2.4237999916
 3.2500000000 2.6566998959 2.6403999329  -999.250000 94.188003540 0.0000000000
  -999.250000 2.4960999489 0.0590000004 0.3467000127 52.500000000 2029.2060547
  -999.250000 9.0312995911 8.5000000000  -999.250000  -999.250000  -999.250000
 2029.3583351
 0.0000000000 0.0000000000 0.0000000000 0.6755999923 0.9251000285 2.2715001106
 3.0078001022 2.6282000542 2.6105999947  -999.250000 91.375000000 0.0000000000
  -999.250000 2.4746000767 0.0754000023 0.3461999893 52.844001770 2029.3583984
  -999.250000 8.5625000000 8.5000000000  -999.250000  -999.250000  -999.250000
 2029.5107351
 0.0000000000 0.0000000000 0.0000000000 0.6838999987 0.8483999968 2.1816000938
 2.3691000938 2.6681001186 2.6633000374  -999.250000 88.000000000 0.0000000000
  -999.250000 2.4491999149 0.0891000032 0.3481000066 55.469001770 2029.5107422
  -999.250000 8.5390996933 8.5000000000  -999.250000  -999.250000  -999.250000
 2029.6631351
 0.0000000000 0.0000000000 0.0000000000 0.6758999825 0.7774999738 2.1737999916
 2.4044001102 2.6501998901 2.6254999638  -999.250000 88.751701355 0.0000000000
  -999.250000 2.4277000427 0.1041999981 0.3594000041 59.190898895 2029.6632080
  -999.250000 8.5390996933 8.5000000000  -999.250000  -999.250000  -999.250000
 2029.8155350
 0.0000000000 0.0000000000 0.0000000000 0.7016000152 0.7965000272 2.1854999065
 2.5643999577 2.5150001049 2.5629000664  -999.250000 90.998901367 0.0000000000
  -999.250000 2.4375000000 0.0970000029 0.3646999896 63.029098511 2029.8155518
  -999.250000 8.5781002045 8.5000000000  -999.250000  -999.250000  -999.250000
 2029.9679350
 0.0000000000 0.0000000000 0.0000000000 0.7039999962 0.8163999915 2.1953001022
 2.3477001190 2.5355999470 2.6156001091  -999.250000 93.750000000 0.0000000000
  -999.250000 2.4414000511 0.0939000025 0.3628000021 58.375000000 2029.9680176
  -999.250000 8.5625000000 8.5000000000  -999.250000  -999.250000  -999.250000
 2030.1203350
 0.0000000000 0.0000000000 0.0000000000 0.7111999989 0.8159999847 2.2147998810
 2.5039000511 2.6171000004 2.7434999943  -999.250000 97.375000000 0.0000000000
  -999.250000 2.4491999149 0.0900999978 0.3750000000 55.094001770 2030.1203613
  -999.250000 8.3984003067 8.5000000000  -999.250000  -999.250000  -999.250000
 2030.2727350
 0.0000000000 0.0000000000 0.0000000000 0.6392999887 0.8553000093 2.2030999660
 2.9844999313 2.7130999565 2.9289999008  -999.250000 95.562599182 0.0000000000
  -999.250000 2.4628999233 0.0869000033 0.3574000001 51.595798492 2030.2728271
  -999.250000 8.3907003403 8.5000000000  -999.250000  -999.250000  -999.250000
 2030.4251350
 0.0000000000 0.0000000000 0.0000000000 0.6879000068 0.8571000099 2.1719000340
 3.1775999069 2.4340000153 2.6208000183  -999.250000 94.999801636 0.0000000000
  -999.250000 2.4804999828 0.0724000037 0.3334999979 54.599300385 2030.4251709
  -999.250000 8.5313997269 8.5000000000  -999.250000  -999.250000  -999.250000
 2030.5775350
 0.0000000000 0.0000000000 0.0000000000 0.6190999746 0.7053999901 2.1698999405
 3.1054999828 2.2639000416 2.4015998840  -999.250000 94.750000000 0.0000000000
  -999.250000 2.4707000256 0.0816000029 0.3091000021 59.969001770 2030.5776367
  -999.250000 8.5859003067 8.5000000000  -999.250000  -999.250000  -999.250000
