# LAS format log file from PETREL
# Project units are specified as depth units
#==================================================================
~Version information
VERS.   2.0:
WRAP.   YES:
#==================================================================
~Well
STRT .m      800.09997440 :
STOP .m      2299.7159264 :
STEP .m     0.15240000 :
NULL .        -999.250000 :
COMP.           : COMPANY
WELL.  34/10-11   : WELL
FLD.            : FIELD
LOC.            : LOCATION
SRVC.           : SERVICE COMPANY
DATE.  Wednesday, March 31 2010 12:33:12   : DATE
PROV.           : PROVINCE
UWI.      : UNIQUE WELL ID
API.            : API NUMBER
#==================================================================
~Curve
DEPT .m                   : DEPTH
NETS .                    : NETS
COAL .                    : COAL
CARB .                    : CARB
VSH .                     : VSH
SW .                      : SW
ILD .ohm.m                : ILD
MSFL .ohm.m               : MSFL
LLS .ohm.m                : LLS
LLD .ohm.m                : LLD
ILM .ohm.m                : ILM
DT .us/ft                 : DT
KLOG .mD                  : KLOG
DRHO .g/cm3               : DRHO
RHOB .g/cm3               : RHOB
PHIF .m3/m3               : PHIF
NPHI .m3/m3               : NPHI
GR .gAPI                  : GR
DEPT .m                   : DEPT
TIME .ms                  : TIME
CALI .in                  : CALI
BS .in                    : BS
QTOT .rm3/d               : QTOT
QWAT .sm3/d               : QWAT
GeneralTime1 .ms          : General Time 1
~Parameter
#==================================================================
~Ascii
# ...
 2129.7899318
 1.0000000000 0.0000000000 0.0000000000 0.1938000023 0.8191000223 1.1835999489
 1.6405999660 1.1303999424 1.2058999538  -999.250000 115.19000244 27.794500351
  -999.250000 2.2402000427 0.2424000055 0.3300999999 42.062999725 2129.7900391
  -999.250000 8.1484003067 8.5000000000  -999.250000  -999.250000  -999.250000
 2129.9423318
 1.0000000000 0.0000000000 0.0000000000 0.2019000053 0.8280000091 1.0986000299
 1.4257999659 1.0809999704 1.1559000015  -999.250000 116.75000000 36.851299286
  -999.250000 2.2362999916 0.2442000061 0.3262000084 42.937999725 2129.9423828
  -999.250000 8.1562995911 8.5000000000  -999.250000  -999.250000  -999.250000
 2130.0947318
 1.0000000000 0.0000000000 0.0000000000 0.2151000053 0.8161000013 1.0448999405
 1.5027999878 1.0140000582 1.1157000065  -999.250000 118.19090271 58.161598206
  -999.250000 2.2207000256 0.2527999878 0.3314999938 44.281600952 2130.0947266
  -999.250000 8.2031002045 8.5000000000  -999.250000  -999.250000  -999.250000
 2130.2471318
 1.0000000000 0.0000000000 0.0000000000 0.2266999930 0.8123999834 0.9936000109
 1.3504999876 0.9887999892 1.0808999538  -999.250000 120.00000000 87.442199707
  -999.250000 2.2109000683 0.2579999864 0.3300999999 45.561199188 2130.2473145
  -999.250000 8.2031002045 8.5000000000  -999.250000  -999.250000  -999.250000
 2130.3995318
 1.0000000000 0.0000000000 0.0000000000 0.2066999972 0.8044000268 0.9487000108
 1.2733999491 0.9207000136 1.0056999922  -999.250000 120.00170135 157.97779846
  -999.250000 2.1875000000 0.2736000121 0.3379000127 43.405498505 2130.3996582
  -999.250000 8.1796998978 8.5000000000  -999.250000  -999.250000  -999.250000
 2130.5519318
 1.0000000000 0.0000000000 0.0000000000 0.2028000057 0.8108999729 0.9144999981
 1.2615000010 0.8766999841 0.9645000100  -999.250000 121.37000275 168.14399719
  -999.250000 2.1816000938 0.2775000036 0.3427999914 42.994499207 2130.5520020
  -999.250000 8.1719999313 8.5000000000  -999.250000  -999.250000  -999.250000
 2130.7043318
 1.0000000000 0.0000000000 0.0000000000 0.1722999960 0.8149999976 0.8837000132
 1.1475000381 0.8558999896 0.9322000146  -999.250000 121.37120056 245.03869629
  -999.250000 2.1758000851 0.2831999958 0.3355000019 39.527500153 2130.7043457
  -999.250000 8.2110004425 8.5000000000  -999.250000  -999.250000  -999.250000
 2130.8567318
 1.0000000000 0.0000000000 0.0000000000 0.1571000069 0.8386999965 0.8452000022
 1.1239999533 0.8187000155 0.8992999792  -999.250000 121.99939728 153.42990112
  -999.250000 2.1835999489 0.2795000076 0.3436999917 37.720600128 2130.8566895
  -999.250000 8.2656002045 8.5000000000  -999.250000  -999.250000  -999.250000
 2131.0091318
 1.0000000000 0.0000000000 0.0000000000 0.1296000034 0.8154000044 0.8047000170
 1.1454999447 0.8195999861 0.8816999793  -999.250000 122.55970001 327.19421387
  -999.250000 2.1621000767 0.2944999933 0.3402999938 34.564601898 2131.0092773
  -999.250000 8.3281002045 8.5000000000  -999.250000  -999.250000  -999.250000
 2131.1615318
 1.0000000000 0.0000000000 0.0000000000 0.1096000001 0.7907000184 0.7705000043
 1.0820000172 0.8457000256 0.8974999785  -999.250000 122.55999756 389.93579102
  -999.250000 2.1484000683 0.3043000102 0.3490999937 32.312999725 2131.1616211
  -999.250000 8.3593997955 8.5000000000  -999.250000  -999.250000  -999.250000
 2131.3139318
 1.0000000000 0.0000000000 0.0000000000 0.1203000024 0.7735000253 0.7476000190
 1.2051000595 0.8413000107 0.8931999803  -999.250000 123.19000244 618.96661377
  -999.250000 2.1328001022 0.3129999936 0.3476999998 33.155998230 2131.3139648
  -999.250000 8.5234003067 8.5000000000  -999.250000  -999.250000  -999.250000
 2131.4663318
 1.0000000000 0.0000000000 0.0000000000 0.1020999998 0.7637000084 0.7329000235
 1.1591999531 0.8470000029 0.9121000171  -999.250000 123.75009918 870.13842773
  -999.250000 2.1308999062 0.3154999912 0.3355000019 31.125400543 2131.4663086
  -999.250000 8.5546998978 8.5000000000  -999.250000  -999.250000  -999.250000
 2131.6187318
 1.0000000000 0.0000000000 0.0000000000 0.1079000011 0.7781000137 0.7202000022
 1.0888999701 0.8414000273 0.8988999724  -999.250000 124.00050354 422.15631104
  -999.250000 2.1387000084 0.3102999926 0.3569000065 31.748899460 2131.6188965
  -999.250000 8.5622997284 8.5000000000  -999.250000  -999.250000  -999.250000
 2131.7711318
 1.0000000000 0.0000000000 0.0000000000 0.0948999971 0.7957999706 0.7128999829
 1.1064000130 0.8047000170 0.8640000224  -999.250000 124.55999756 284.45959473
  -999.250000 2.1426000595 0.3088000119 0.3686999977 30.643899918 2131.7712402
  -999.250000 8.3906002045 8.5000000000  -999.250000  -999.250000  -999.250000
 2131.9235318
 1.0000000000 0.0000000000 0.0000000000 0.1138999984 0.8075000048 0.7085000277
 1.0800000429 0.8019000292 0.8492000103  -999.250000 124.55970001 212.64729309
  -999.250000 2.1465001106 0.3052000105 0.3759999871 32.778499603 2131.9235840
  -999.250000 8.3593997955 8.5000000000  -999.250000  -999.250000  -999.250000
 2132.0759318
 1.0000000000 0.0000000000 0.0000000000 0.1004000008 0.7835999727 0.7066000104
 1.0117000341 0.7960000038 0.8590999842  -999.250000 124.37000275 449.28201294
  -999.250000 2.1308999062 0.3156000078 0.3632999957 31.309999466 2132.0759277
  -999.250000 8.3515996933 8.5000000000  -999.250000  -999.250000  -999.250000
 2132.2283318
 1.0000000000 0.0000000000 0.0000000000 0.0869000033 0.7663000226 0.7128999829
 1.0254000425 0.7918999791 0.8547999859  -999.250000 124.37000275 837.11590576
  -999.250000 2.1152000427 0.3260999918 0.3540000021 29.876100540 2132.2285156
  -999.250000 8.3281002045 8.5000000000  -999.250000  -999.250000  -999.250000
 2132.3807318
 1.0000000000 0.0000000000 0.0000000000 0.1018000022 0.7608000040 0.7387999892
 1.0702999830 0.8166000247 0.8536000252  -999.250000 123.75000000 1009.6422729
  -999.250000 2.1094000340 0.3285999894 0.3519999981 31.547000885 2132.3808594
  -999.250000 8.3125000000 8.5000000000  -999.250000  -999.250000  -999.250000
 2132.5331318
 1.0000000000 0.0000000000 0.0000000000 0.1145000011 0.7305999994 0.7875999808
 1.0829999447 0.9039999843 0.9700000286  -999.250000 124.19000244 879.96411133
  -999.250000 2.1191000938 0.3217999935 0.3476999998 32.875000000 2132.5332031
  -999.250000 8.3437995911 8.5000000000  -999.250000  -999.250000  -999.250000
 2132.6855318
 1.0000000000 0.0000000000 0.0000000000 0.1363999993 0.6858000159 0.8539999723
 1.1542999744 1.0489000082 1.1712000370  -999.250000 124.00000000 628.44311523
  -999.250000 2.1308999062 0.3131000102 0.3490999937 35.344001770 2132.6855469
  -999.250000 8.3125000000 8.5000000000  -999.250000  -999.250000  -999.250000
 2132.8379317
 1.0000000000 0.0000000000 0.0000000000 0.1289999932 0.6779999733 0.9071999788
 1.5548000336 1.1500999928 1.3126000166  -999.250000 123.18820190 315.64660645
  -999.250000 2.1465001106 0.2987000048 0.3598999977 34.624500275 2132.8378906
  -999.250000 8.2656002045 8.5000000000  -999.250000  -999.250000  -999.250000
 2132.9903317
 1.0000000000 0.0000000000 0.0000000000 0.1212999970 0.7312999964 0.9330999851
 1.7078000307 1.1282999516 1.2300000191  -999.250000 120.74759674 177.71780396
  -999.250000 2.1758000851 0.2818000019 0.3476000130 33.876598358 2132.9904785
  -999.250000 8.2187995911 8.5000000000  -999.250000  -999.250000  -999.250000
 2133.1427317
 1.0000000000 0.0000000000 0.0000000000 0.1340000033 0.8359000087 0.9394000173
 1.5099999905 0.9509000182 1.0061999559  -999.250000 118.55850220 81.505798340
  -999.250000 2.2090001106 0.2649999857 0.3348999918 35.342601776 2133.1428223
  -999.250000 8.1875000000 8.5000000000  -999.250000  -999.250000  -999.250000
 2133.2951317
 1.0000000000 0.0000000000 0.0000000000 0.1257999986 0.8830000162 0.9355999827
 1.0450999737 0.8881000280 0.9041000009  -999.250000 117.55999756 126.16120148
  -999.250000 2.2146999836 0.2626999915 0.3125000000 34.403499603 2133.2951660
  -999.250000 8.2033996582 8.5000000000  -999.250000  -999.250000  -999.250000
 2133.4475317
 1.0000000000 0.0000000000 0.0000000000 0.1165999994 0.8396000266 0.9423999786
 1.1761000156 0.8955000043 0.8932999969  -999.250000 117.55599976 239.36729431
  -999.250000 2.1835999489 0.2822999954 0.3271999955 33.031799316 2133.4475098
  -999.250000 8.3826999664 8.5000000000  -999.250000  -999.250000  -999.250000
