# LAS format log file from PETREL
# Project units are specified as depth units
#==================================================================
~Version information
VERS.   2.0:
WRAP.   YES:
#==================================================================
~Well
STRT .m      800.09997440 :
STOP .m      2299.7159264 :
STEP .m     0.15240000 :
NULL .        -999.250000 :
COMP.           : COMPANY
WELL.  34/10-19   : WELL
FLD.            : FIELD
LOC.            : LOCATION
SRVC.           : SERVICE COMPANY
DATE.  Wednesday, March 31 2010 12:33:14   : DATE
PROV.           : PROVINCE
UWI.      : UNIQUE WELL ID
API.            : API NUMBER
#==================================================================
~Curve
DEPT .m                   : DEPTH
NETS .                    : NETS
COAL .                    : COAL
CARB .                    : CARB
VSH .                     : VSH
SW .                      : SW
ILD .ohm.m                : ILD
ILM .ohm.m                : ILM
DT .us/ft                 : DT
KLOG .mD                  : KLOG
DRHO .g/cm3               : DRHO
RHOB .g/cm3               : RHOB
PHIF .m3/m3               : PHIF
NPHI .m3/m3               : NPHI
GR .gAPI                  : GR
DEPT .m                   : DEPT
TIME .ms                  : TIME
CALI .in                  : CALI
BS .in                    : BS
QTOT .rm3/d               : QTOT
QWAT .sm3/d               : QWAT
GeneralTime1 .ms          : General Time 1
~Parameter
#==================================================================
~Ascii
# ...
 2029.0535351
 1.0000000000 0.0000000000 0.0000000000 0.3127999902 1.0000000000 0.4595000148
  -999.250000 118.74980164 63.152599335  -999.250000 2.2304999828 0.2413000017
 0.3461999893 40.121898651 2029.0535889  -999.250000 8.2421998978  -999.250000
  -999.250000  -999.250000  -999.250000
 2029.2059351
 1.0000000000 0.0000000000 0.0000000000 0.2612999976 1.0000000000 0.4638999999
  -999.250000 118.50000000 58.897800446  -999.250000 2.2383000851 0.2401999980
 0.3519999981 36.562999725 2029.2060547  -999.250000 8.2031002045  -999.250000
  -999.250000  -999.250000  -999.250000
 2029.3583351
 1.0000000000 0.0000000000 0.0000000000 0.2784999907 1.0000000000 0.4702000022
  -999.250000 117.50000000 58.878700256  -999.250000 2.2362999916 0.2401999980
 0.3574000001 37.780998230 2029.3583984  -999.250000 8.2031002045  -999.250000
  -999.250000  -999.250000  -999.250000
 2029.5107351
 1.0000000000 0.0000000000 0.0000000000 0.3479000032 1.0000000000 0.4824000001
  -999.250000 118.50000000 58.141101837  -999.250000 2.2284998894 0.2399999946
 0.3506000042 42.625000000 2029.5107422  -999.250000 8.2343997955  -999.250000
  -999.250000  -999.250000  -999.250000
 2029.6631351
 1.0000000000 0.0000000000 0.0000000000 0.3538999856 1.0000000000 0.4916999936
  -999.250000 119.49890137 66.004997253  -999.250000 2.2246000767 0.2418999970
 0.3398000002 46.999698639 2029.6632080  -999.250000 8.3437995911  -999.250000
  -999.250000  -999.250000  -999.250000
 2029.8155350
 1.0000000000 0.0000000000 0.0000000000 0.3095000088 1.0000000000 0.4945999980
  -999.250000 118.00070190 149.70770264  -999.250000 2.2090001106 0.2544000149
 0.3305999935 46.594200134 2029.8155518  -999.250000 8.3515996933  -999.250000
  -999.250000  -999.250000  -999.250000
 2029.9679350
 1.0000000000 0.0000000000 0.0000000000 0.3294999897 1.0000000000 0.4898000062
  -999.250000 118.50000000 108.65950012  -999.250000 2.2147998810 0.2495000064
 0.3353999853 44.719001770 2029.9680176  -999.250000 8.4062995911  -999.250000
  -999.250000  -999.250000  -999.250000
 2030.1203350
 1.0000000000 0.0000000000 0.0000000000 0.3086999953 1.0000000000 0.4810000062
  -999.250000 122.25000000 139.44329834  -999.250000 2.2109000683 0.2533000112
 0.3291000128 42.437999725 2030.1203613  -999.250000 8.3906002045  -999.250000
  -999.250000  -999.250000  -999.250000
 2030.2727350
 1.0000000000 0.0000000000 0.0000000000 0.3061999977 1.0000000000 0.4779999852
  -999.250000 122.99909973 177.40490723  -999.250000 2.2051000595 0.2569999993
 0.3314999938 42.719398499 2030.2728271  -999.250000 8.2031002045  -999.250000
  -999.250000  -999.250000  -999.250000
 2030.4251350
 1.0000000000 0.0000000000 0.0000000000 0.2655999959 1.0000000000 0.4833999872
  -999.250000 121.49649811 367.14160156  -999.250000 2.1914000511 0.2680000067
 0.3228000104 43.373600006 2030.4251709  -999.250000 8.2501001358  -999.250000
  -999.250000  -999.250000  -999.250000
 2030.5775350
 1.0000000000 0.0000000000 0.0000000000 0.2721999884 1.0000000000 0.4950999916
  -999.250000 118.00000000 564.60211182  -999.250000 2.1796998978 0.2745000124
 0.3325000107 42.000000000 2030.5776367  -999.250000 8.3828001022  -999.250000
  -999.250000  -999.250000  -999.250000
 2030.7299350
 1.0000000000 0.0000000000 0.0000000000 0.2703999877 1.0000000000 0.5029000044
  -999.250000 115.75000000 774.40039063  -999.250000 2.1719000340 0.2793000042
 0.3364000022 40.844001770 2030.7299805  -999.250000 8.4375000000  -999.250000
  -999.250000  -999.250000  -999.250000
 2030.8823350
 1.0000000000 0.0000000000 0.0000000000 0.2734000087 1.0000000000 0.4966000021
  -999.250000 115.24960327 381.45800781  -999.250000 2.1895000935 0.2685999870
 0.3271000087 39.250598907 2030.8824463  -999.250000 8.4451999664  -999.250000
  -999.250000  -999.250000  -999.250000
 2031.0347350
 1.0000000000 0.0000000000 0.0000000000 0.2601999938 1.0000000000 0.4833999872
  -999.250000 114.49829865 237.07350159  -999.250000 2.2030999660 0.2614000142
 0.3134999871 40.531700134 2031.0347900  -999.250000 8.2500000000  -999.250000
  -999.250000  -999.250000  -999.250000
 2031.1871350
 1.0000000000 0.0000000000 0.0000000000 0.2500000000 1.0000000000 0.4751000106
  -999.250000 112.50000000 133.86090088  -999.250000 2.2188000679 0.2527000010
 0.2998000085 41.375000000 2031.1872559  -999.250000 8.2265996933  -999.250000
  -999.250000  -999.250000  -999.250000
 2031.3395350
 1.0000000000 0.0000000000 0.0000000000 0.2684000134 1.0000000000 0.4711999893
  -999.250000 112.50000000 228.41999817  -999.250000 2.2030999660 0.2608000040
 0.3169000149 39.094001770 2031.3395996  -999.250000 8.2578001022  -999.250000
  -999.250000  -999.250000  -999.250000
 2031.4919350
 1.0000000000 0.0000000000 0.0000000000 0.2750999928 1.0000000000 0.4726999998
  -999.250000 113.75000000 204.64979553  -999.250000 2.2051000595 0.2590999901
 0.3296000063 37.312999725 2031.4919434  -999.250000 8.3046998978  -999.250000
  -999.250000  -999.250000  -999.250000
 2031.6443350
 1.0000000000 0.0000000000 0.0000000000 0.2352000028 1.0000000000 0.4771000147
  -999.250000 112.75199890 455.19610596  -999.250000 2.1895000935 0.2712999880
 0.3564000130 34.468200684 2031.6444092  -999.250000 8.3204002380  -999.250000
  -999.250000  -999.250000  -999.250000
 2031.7967350
 1.0000000000 0.0000000000 0.0000000000 0.2222999930 1.0000000000 0.4790000021
  -999.250000 115.49859619 659.32702637  -999.250000 2.1816000938 0.2768999934
 0.3555000126 33.406501770 2031.7967529  -999.250000 8.3984003067  -999.250000
  -999.250000  -999.250000  -999.250000
 2031.9491350
 1.0000000000 0.0000000000 0.0000000000 0.2263000011 1.0000000000 0.4828999937
  -999.250000 116.75000000 1197.5737305  -999.250000 2.1659998894 0.2860000134
 0.3495999873 33.594001770 2031.9492188  -999.250000 8.4453001022  -999.250000
  -999.250000  -999.250000  -999.250000
 2032.1015350
 1.0000000000 0.0000000000 0.0000000000 0.2197999954 1.0000000000 0.4819000065
  -999.250000 119.00000000 2282.7304688  -999.250000 2.1503999233 0.2958000004
 0.3280999959 33.594001770 2032.1015625  -999.250000 8.4453001022  -999.250000
  -999.250000  -999.250000  -999.250000
 2032.2539350
 1.0000000000 0.0000000000 0.0000000000 0.2391999960 1.0000000000 0.4683000147
  -999.250000 119.00019836 2087.8564453  -999.250000 2.1503999233 0.2944000065
 0.3461999893 34.656299591 2032.2540283  -999.250000 8.3669996262  -999.250000
  -999.250000  -999.250000  -999.250000
 2032.4063350
 1.0000000000 0.0000000000 0.0000000000 0.2344000041 1.0000000000 0.4595000148
  -999.250000 119.24900055 2903.6455078  -999.250000 2.1426000595 0.2994000018
 0.3666999936 35.060699463 2032.4063721  -999.250000 8.0157003403  -999.250000
  -999.250000  -999.250000  -999.250000
 2032.5587350
 1.0000000000 0.0000000000 0.0000000000 0.2058999985 1.0000000000 0.4550999999
  -999.250000 118.25000000 3581.4194336  -999.250000 2.1405999660 0.3025999963
 0.3842999935 32.780998230 2032.5588379  -999.250000 8.1328001022  -999.250000
  -999.250000  -999.250000  -999.250000
 2032.7111350
 1.0000000000 0.0000000000 0.0000000000 0.1884000003 1.0000000000 0.4526000023
  -999.250000 117.62000275 5692.5742188  -999.250000 2.1308999062 0.3095999956
 0.3711000085 31.202999115 2032.7111816  -999.250000 8.3046998978  -999.250000
  -999.250000  -999.250000  -999.250000
 2032.8635349
 1.0000000000 0.0000000000 0.0000000000 0.1528999954 1.0000000000 0.4453000128
  -999.250000 122.75000000 9863.8154297  -999.250000 2.1210999489 0.3179999888
 0.3564000130 28.531600952 2032.8636475  -999.250000 8.4062995911  -999.250000
  -999.250000  -999.250000  -999.250000
 2033.0159349
 1.0000000000 0.0000000000 0.0000000000 0.1708000004 1.0000000000 0.4253000021
  -999.250000 122.74490356 5292.0786133  -999.250000 2.1347999573 0.3084999919
 0.3506000042 29.798799515 2033.0159912  -999.250000 8.3984003067  -999.250000
  -999.250000  -999.250000  -999.250000
 2033.1683349
 1.0000000000 0.0000000000 0.0000000000 0.2012999952 1.0000000000 0.4038000107
  -999.250000 116.75000000 3659.0859375  -999.250000 2.1405999660 0.3028999865
 0.3422999978 31.875000000 2033.1684570  -999.250000 8.4296998978  -999.250000
  -999.250000  -999.250000  -999.250000
