# LAS format log file from PETREL
# Project units are specified as depth units
#==================================================================
~Version information
VERS.   2.0:
WRAP.   YES:
#==================================================================
~Well
STRT .m      800.09997440 :
STOP .m      2449.8299216 :
STEP .m     0.15240000 :
NULL .        -999.250000 :
COMP.           : COMPANY
WELL.  34/10-15   : WELL
FLD.            : FIELD
LOC.            : LOCATION
SRVC.           : SERVICE COMPANY
DATE.  Wednesday, March 31 2010 12:33:14   : DATE
PROV.           : PROVINCE
UWI.      : UNIQUE WELL ID
API.            : API NUMBER
#==================================================================
~Curve
DEPT .m                   : DEPTH
NETS .                    : NETS
COAL .                    : COAL
CARB .                    : CARB
VSH .                     : VSH
SW .                      : SW
ILD .ohm.m                : ILD
MSFL .ohm.m               : MSFL
LLS .ohm.m                : LLS
LLD .ohm.m                : LLD
ILM .ohm.m                : ILM
DT .us/ft                 : DT
KLOG .mD                  : KLOG
DRHO .g/cm3               : DRHO
RHOB .g/cm3               : RHOB
PHIF .m3/m3               : PHIF
NPHI .m3/m3               : NPHI
GR .gAPI                  : GR
DEPT .m                   : DEPT
TIME .ms                  : TIME
CALI .in                  : CALI
BS .in                    : BS
QTOT .rm3/d               : QTOT
QWAT .sm3/d               : QWAT
GeneralTime1 .ms          : General Time 1
~Parameter
#==================================================================
~Ascii
# ...
 2324.0999256
 1.0000000000 0.0000000000 0.0000000000 0.3052000105 1.0000000000 0.8583999872
 1.4189000130  -999.250000  -999.250000  -999.250000 91.751403809 5.7150998116
  -999.250000 2.3125000000 0.1958000064 0.2734000087 45.125301361 2324.1000977
  -999.250000 8.1640996933 8.5000000000  -999.250000  -999.250000  -999.250000
 2324.2523256
 1.0000000000 0.0000000000 0.0000000000 0.3228000104 1.0000000000 0.8877000213
 1.5381000042  -999.250000  -999.250000  -999.250000 85.375000000 3.2994000912
  -999.250000 2.3203001022 0.1897000074 0.2759000063 45.280998230 2324.2524414
  -999.250000 8.1406002045 8.5000000000  -999.250000  -999.250000  -999.250000
 2324.4047256
 1.0000000000 0.0000000000 0.0000000000 0.2942000031 1.0000000000 0.9268000126
 1.5565999746  -999.250000  -999.250000  -999.250000 83.375000000 2.9375998974
  -999.250000 2.3340001106 0.1832000017 0.2578000128 48.219001770 2324.4047852
  -999.250000 8.1796998978 8.5000000000  -999.250000  -999.250000  -999.250000
 2324.5571256
 0.0000000000 0.0000000000 0.0000000000 0.2883999944 1.0000000000 0.9750999808
 2.0708000660  -999.250000  -999.250000  -999.250000 83.751403809 0.1629000008
  -999.250000 2.3926000595 0.1468999982 0.2246000022 50.783100128 2324.5571289
  -999.250000 8.1953001022 8.5000000000  -999.250000  -999.250000  -999.250000
 2324.7095256
 0.0000000000 0.0000000000 0.0000000000 0.3208999932 1.0000000000 1.0597000122
 11.476300240  -999.250000  -999.250000  -999.250000 86.754997253 0.0024999999
  -999.250000 2.4414000511 0.1063999981 0.2040999979 55.374198914 2324.7097168
  -999.250000 8.1875000000 8.5000000000  -999.250000  -999.250000  -999.250000
 2324.8619256
 0.0000000000 0.0000000000 0.0000000000 0.3434000015 1.0000000000 1.1787999868
 2.2999999523  -999.250000  -999.250000  -999.250000 92.752899170 0.0010000000
  -999.250000 2.4433000088 0.1114000008 0.2168000042 54.466701508 2324.8620605
  -999.250000 8.2343997955 8.5000000000  -999.250000  -999.250000  -999.250000
 2325.0143256
 1.0000000000 0.0000000000 0.0000000000 0.3325000107 1.0000000000 1.2609000206
 1.6182999611  -999.250000  -999.250000  -999.250000 95.183601379 0.1773999929
  -999.250000 2.3787999153 0.1525000036 0.2470999956 52.558700562 2325.0144043
  -999.250000 8.2187004089 8.5000000000  -999.250000  -999.250000  -999.250000
 2325.1667256
 1.0000000000 0.0000000000 0.0000000000 0.3664999902 0.9997000098 1.3969000578
 1.6934000254  -999.250000  -999.250000  -999.250000 92.373100281 0.8661999702
  -999.250000 2.3378999233 0.1756999940 0.2811999917 49.810100555 2325.1667480
  -999.250000 8.1796998978 8.5000000000  -999.250000  -999.250000  -999.250000
 2325.3191256
 1.0000000000 0.0000000000 0.0000000000 0.3242999911 0.8492000103 1.6102000475
 1.7187999487  -999.250000  -999.250000  -999.250000 91.375900269 3.2971999645
  -999.250000 2.3203001022 0.1896000057 0.2759000063 48.314300537 2325.3190918
  -999.250000 8.1796998978 8.5000000000  -999.250000  -999.250000  -999.250000
 2325.4715256
 1.0000000000 0.0000000000 0.0000000000 0.3179999888 0.8745999932 1.7489000559
 1.8241000175  -999.250000  -999.250000  -999.250000 90.750297546 1.4724999666
  -999.250000 2.3417999744 0.1765999943 0.2621999979 46.407001495 2325.4716797
  -999.250000 8.1718997955 8.5000000000  -999.250000  -999.250000  -999.250000
 2325.6239256
 1.0000000000 0.0000000000 0.0000000000 0.2987000048 0.8470000029 1.9004000425
 2.1191000938  -999.250000  -999.250000  -999.250000 87.188003540 0.9570999742
  -999.250000 2.3573999405 0.1682000011 0.2470999956 43.530998230 2325.6240234
  -999.250000 8.1718997955 8.5000000000  -999.250000  -999.250000  -999.250000
 2325.7763256
 1.0000000000 0.0000000000 0.0000000000 0.3061000109 0.8604999781 2.0957000256
 2.3046998978  -999.250000  -999.250000  -999.250000 79.750000000 0.1079000011
  -999.250000 2.3847999573 0.1506000012 0.2466000021 42.594001770 2325.7763672
  -999.250000 8.1640996933 8.5000000000  -999.250000  -999.250000  -999.250000
 2325.9287256
 0.0000000000 0.0000000000 0.0000000000 0.3194999993 0.8165000081 2.1835999489
 2.3489999771  -999.250000  -999.250000  -999.250000 76.376602173 0.0093999999
  -999.250000 2.4140999317 0.1313000023 0.2372999936 43.564800262 2325.9287109
  -999.250000 8.2265996933 8.5000000000  -999.250000  -999.250000  -999.250000
 2326.0811256
 0.0000000000 0.0000000000 0.0002000000 0.3355999887 1.0000000000 2.1854000092
 8.0778999329  -999.250000  -999.250000  -999.250000 79.195602417 0.0003000000
  -999.250000 2.4667999744 0.0935999975 0.1986999959 46.629299164 2326.0812988
  -999.250000 8.2421998978 8.5000000000  -999.250000  -999.250000  -999.250000
 2326.2335256
 0.0000000000 0.0000000000 0.1996999979 0.3192000091 1.0000000000 2.0915000439
 24.209199905  -999.250000  -999.250000  -999.250000 87.199302673 0.0003000000
  -999.250000 2.5000000000 0.0718000010 0.1733999997 51.099700928 2326.2336426
  -999.250000 8.2894001007 8.5000000000  -999.250000  -999.250000  -999.250000
 2326.3859256
 0.0000000000 0.0000000000 0.0000000000 0.3987999856 1.0000000000 1.8601000309
 5.4935998917  -999.250000  -999.250000  -999.250000 95.758903503 0.0003000000
  -999.250000 2.4921000004 0.0769999996 0.2075999975 55.409198761 2326.3859863
  -999.250000 8.5076999664 8.5000000000  -999.250000  -999.250000  -999.250000
 2326.5383256
 0.0000000000 0.0000000000 0.0000000000 0.4912000000 1.0000000000 1.6705000401
 1.7440999746  -999.250000  -999.250000  -999.250000 100.99949646 0.0003000000
  -999.250000 2.4511001110 0.0961999968 0.2642000020 57.321998596 2326.5383301
  -999.250000 8.4532003403 8.5000000000  -999.250000  -999.250000  -999.250000
 2326.6907255
 0.0000000000 0.0000000000 0.0000000000 0.5454000235 1.0000000000 1.4699000120
 2.1677000523  -999.250000  -999.250000  -999.250000 100.75019836 0.0003000000
  -999.250000 2.4258000851 0.1081999987 0.3027000129 61.715599060 2326.6909180
  -999.250000 8.4921998978 8.5000000000  -999.250000  -999.250000  -999.250000
 2326.8431255
 0.0000000000 0.0000000000 0.0000000000 0.5289999843 1.0000000000 1.4013999701
 2.3671000004  -999.250000  -999.250000  -999.250000 101.74960327 0.0003000000
  -999.250000 2.4296998978 0.1068999991 0.2982999980 63.218399048 2326.8432617
  -999.250000 8.5390996933 8.5000000000  -999.250000  -999.250000  -999.250000
 2326.9955255
 0.0000000000 0.0000000000 0.0000000000 0.5633000135 1.0000000000 1.3466999531
 2.3594000340  -999.250000  -999.250000  -999.250000 106.19000244 0.0003000000
  -999.250000 2.4335999489 0.1020999998 0.3095999956 68.000000000 2326.9956055
  -999.250000 8.5781002045 8.5000000000  -999.250000  -999.250000  -999.250000
 2327.1479255
 0.0000000000 0.0000000000 0.0000000000 0.6362000108 1.0000000000 1.3329999447
 2.2832000256  -999.250000  -999.250000  -999.250000 108.00000000 0.0003000000
  -999.250000 2.4375000000 0.0944999978 0.3393999934 68.938003540 2327.1479492
  -999.250000 8.5781002045 8.5000000000  -999.250000  -999.250000  -999.250000
 2327.3003255
 0.0000000000 0.0000000000 0.0000000000 0.6542000175 1.0000000000 1.3398000002
 2.0680999756  -999.250000  -999.250000  -999.250000 108.37729645 0.0003000000
  -999.250000 2.4335999489 0.0957000032 0.3955000043 70.435096741 2327.3002930
  -999.250000 8.5781002045 8.5000000000  -999.250000  -999.250000  -999.250000
 2327.4527255
 0.0000000000 0.0000000000 0.0000000000 0.6065999866 1.0000000000 1.3476999998
 1.6711000204  -999.250000  -999.250000  -999.250000 104.55439758 0.0003000000
  -999.250000 2.4395000935 0.0952999964 0.3973999918 66.310096741 2327.4528809
  -999.250000 8.6251001358 8.5000000000  -999.250000  -999.250000  -999.250000
 2327.6051255
 0.0000000000 0.0000000000 0.0000000000 0.5798000097 1.0000000000 1.3554999828
 1.9017000198  -999.250000  -999.250000  -999.250000 99.373298645 0.0003000000
  -999.250000 2.4491999149 0.0912000015 0.3862000108 63.660099030 2327.6052246
  -999.250000 8.7497997284 8.5000000000  -999.250000  -999.250000  -999.250000
 2327.7575255
 0.0000000000 0.0000000000 0.0000000000 0.6072000265 1.0000000000 1.3789999485
 4.1849999428  -999.250000  -999.250000  -999.250000 98.187599182 0.0003000000
  -999.250000 2.4590001106 0.0825999975 0.3407999873 66.507102966 2327.7575684
  -999.250000 8.5860004425 8.5000000000  -999.250000  -999.250000  -999.250000
