# LAS format log file from PETREL
# Project units are specified as depth units
#==================================================================
~Version information
VERS.   2.0:
WRAP.   YES:
#==================================================================
~Well
STRT .m      800.09997440 :
STOP .m      2449.8299216 :
STEP .m     0.15240000 :
NULL .        -999.250000 :
COMP.           : COMPANY
WELL.  34/10-15   : WELL
FLD.            : FIELD
LOC.            : LOCATION
SRVC.           : SERVICE COMPANY
DATE.  Wednesday, March 31 2010 12:33:14   : DATE
PROV.           : PROVINCE
UWI.      : UNIQUE WELL ID
API.            : API NUMBER
#==================================================================
~Curve
DEPT .m                   : DEPTH
NETS .                    : NETS
COAL .                    : COAL
CARB .                    : CARB
VSH .                     : VSH
SW .                      : SW
ILD .ohm.m                : ILD
MSFL .ohm.m               : MSFL
LLS .ohm.m                : LLS
LLD .ohm.m                : LLD
ILM .ohm.m                : ILM
DT .us/ft                 : DT
KLOG .mD                  : KLOG
DRHO .g/cm3               : DRHO
RHOB .g/cm3               : RHOB
PHIF .m3/m3               : PHIF
NPHI .m3/m3               : NPHI
GR .gAPI                  : GR
DEPT .m                   : DEPT
TIME .ms                  : TIME
CALI .in                  : CALI
BS .in                    : BS
QTOT .rm3/d               : QTOT
QWAT .sm3/d               : QWAT
GeneralTime1 .ms          : General Time 1
~Parameter
#==================================================================
~Ascii
# ...
 2213.6099292
 0.0000000000 0.0000000000 0.0000000000 0.5692999959 0.8924000263 1.4773999453
 1.5410000086  -999.250000  -999.250000  -999.250000 117.74839783 0.1845999956
  -999.250000 2.3104999065 0.1785999984 0.3666999936 68.122200012 2213.6101074
  -999.250000 9.7807998657 8.5000000000  -999.250000  -999.250000  -999.250000
 2213.7623292
 0.0000000000 0.0000000000 0.0000000000 0.6144000292 0.8768000007 1.4187999964
 1.4939999580  -999.250000  -999.250000  -999.250000 116.00050354 0.0886999965
  -999.250000 2.3008000851 0.1810999960 0.4038000107 64.995597839 2213.7624512
  -999.250000 9.1871995926 8.5000000000  -999.250000  -999.250000  -999.250000
 2213.9147292
 0.0000000000 0.0000000000 0.0000000000 0.5611000061 0.9082999825 1.3779000044
 1.4537999630  -999.250000  -999.250000  -999.250000 116.37159729 0.0526000001
  -999.250000 2.3046998978 0.1827999949 0.4106000066 61.527301788 2213.9147949
  -999.250000 8.9295997620 8.5000000000  -999.250000  -999.250000  -999.250000
 2214.0671291
 0.0000000000 0.0000000000 0.0000000000 0.5306000113 0.9998000264 1.3643000126
 1.8572000265  -999.250000  -999.250000  -999.250000 117.36669922 0.0052000000
  -999.250000 2.3340001106 0.1662999988 0.4120999873 59.288501740 2214.0671387
  -999.250000 8.8517999649 8.5000000000  -999.250000  -999.250000  -999.250000
 2214.2195291
 0.0000000000 0.0000000000 0.0000000000 0.5799000263 0.8876000047 1.3643000126
 1.7734999657  -999.250000  -999.250000  -999.250000 115.75129700 0.0063999998
  -999.250000 2.3378999233 0.1606999934 0.3989000022 63.027900696 2214.2194824
  -999.250000 8.9373998642 8.5000000000  -999.250000  -999.250000  -999.250000
 2214.3719291
 0.0000000000 0.0000000000 0.0000000000 0.6467000246 0.8583999872 1.3739999533
 1.7704999447  -999.250000  -999.250000  -999.250000 116.74949646 0.0126999998
  -999.250000 2.3301000595 0.1598999947 0.3980000019 67.560897827 2214.3720703
  -999.250000 9.1951999664 8.5000000000  -999.250000  -999.250000  -999.250000
 2214.5243291
 0.0000000000 0.0000000000 0.0000000000 0.6141999960 0.8808000088 1.4082000256
 1.6475000381  -999.250000  -999.250000  -999.250000 117.37000275 0.0140000004
  -999.250000 2.3222999573 0.1677999943 0.4111000001 64.625000000 2214.5244141
  -999.250000 9.2968997955 8.5000000000  -999.250000  -999.250000  -999.250000
 2214.6767291
 0.0000000000 0.0000000000 0.0000000000 0.6090000272 0.9732999802 1.4160000086
 2.1679999828  -999.250000  -999.250000  -999.250000 114.00000000 0.0156999994
  -999.250000 2.3164000511 0.1677999943 0.4199000001 64.063003540 2214.6767578
  -999.250000 9.3437995911 8.5000000000  -999.250000  -999.250000  -999.250000
 2214.8291291
 0.0000000000 0.0000000000 0.0000000000 0.5881999731 0.8501999974 1.4219000340
 1.7733999491  -999.250000  -999.250000  -999.250000 110.19149780 0.0052000000
  -999.250000 2.3183999062 0.1710000038 0.4442999959 63.471401215 2214.8291016
  -999.250000 9.0078001022 8.5000000000  -999.250000  -999.250000  -999.250000
 2214.9815291
 0.0000000000 0.0000000000 0.0000000000 0.6365000010 0.8741999865 1.4306999445
 1.7993999720  -999.250000  -999.250000  -999.250000 112.55799866 0.0012000001
  -999.250000 2.3397998810 0.1551000029 0.4350000024 67.244102478 2214.9816895
  -999.250000 9.0471000671 8.5000000000  -999.250000  -999.250000  -999.250000
 2215.1339291
 0.0000000000 0.0000000000 0.0000000000 0.5723000169 0.9998999834 1.4160000086
 2.4347000122  -999.250000  -999.250000  -999.250000 110.55719757 0.0006000000
  -999.250000 2.3554999828 0.1476999968 0.4163999856 61.402198792 2215.1340332
  -999.250000 9.2573995590 8.5000000000  -999.250000  -999.250000  -999.250000
 2215.2863291
 0.0000000000 0.0000000000 0.0000000000 0.5277000070 0.9158999920 1.4021999836
 1.8327000141  -999.250000  -999.250000  -999.250000 108.56490326 0.0049999999
  -999.250000 2.3594000340 0.1509000063 0.3603000045 58.689899445 2215.2863770
  -999.250000 8.9687995911 8.5000000000  -999.250000  -999.250000  -999.250000
 2215.4387291
 0.0000000000 0.0000000000 0.0000000000 0.5415999889 1.0000000000 1.3475999832
 2.2153999805  -999.250000  -999.250000  -999.250000 111.37619781 0.0135000004
  -999.250000 2.3534998894 0.1523000002 0.3501000106 59.754798889 2215.4387207
  -999.250000 8.9921998978 8.5000000000  -999.250000  -999.250000  -999.250000
 2215.5911291
 0.0000000000 0.0000000000 0.0000000000 0.5235000253 1.0000000000 1.3085999489
 2.4920001030  -999.250000  -999.250000  -999.250000 109.56130219 0.0421000011
  -999.250000 2.3457000256 0.1565999985 0.3388999999 61.998401642 2215.5913086
  -999.250000 9.0000000000 8.5000000000  -999.250000  -999.250000  -999.250000
 2215.7435291
 0.0000000000 0.0000000000 0.0000000000 0.5802999735 1.0000000000 1.3056999445
 2.0762000084  -999.250000  -999.250000  -999.250000 110.00000000 0.0018000000
  -999.250000 2.3710999489 0.1398999989 0.3578999937 62.750000000 2215.7436523
  -999.250000 9.0312995911 8.5000000000  -999.250000  -999.250000  -999.250000
 2215.8959291
 0.0000000000 0.0000000000 0.0000000000 0.5666000247 1.0000000000 1.3506000042
 2.0546998978  -999.250000  -999.250000  -999.250000 111.19000244 0.0003000000
  -999.250000 2.3808999062 0.1348000020 0.3711000085 61.719001770 2215.8959961
  -999.250000 9.0078001022 8.5000000000  -999.250000  -999.250000  -999.250000
 2216.0483291
 0.0000000000 0.0000000000 0.0000000000 0.5996000171 1.0000000000 1.4326000214
 1.9210000038  -999.250000  -999.250000  -999.250000 112.18750000 0.0003000000
  -999.250000 2.3945000172 0.1239999980 0.3851999938 64.312500000 2216.0483398
  -999.250000 9.0312995911 8.5000000000  -999.250000  -999.250000  -999.250000
 2216.2007291
 0.0000000000 0.0000000000 0.0000000000 0.5853999853 1.0000000000 1.4960999489
 2.1384000778  -999.250000  -999.250000  -999.250000 105.99369812 0.0003000000
  -999.250000 2.3945000172 0.1250000000 0.3808999956 63.063201904 2216.2006836
  -999.250000 9.0626001358 8.5000000000  -999.250000  -999.250000  -999.250000
 2216.3531291
 0.0000000000 0.0000000000 0.0000000000 0.5970000029 1.0000000000 1.5303000212
 1.7660000324  -999.250000  -999.250000  -999.250000 97.745300293 0.0003000000
  -999.250000 2.3945000172 0.1240999997 0.3682000041 63.369800568 2216.3532715
  -999.250000 9.2575998306 8.5000000000  -999.250000  -999.250000  -999.250000
 2216.5055291
 0.0000000000 0.0000000000 0.0000000000 0.5324000120 1.0000000000 1.5105999708
 2.9809999466  -999.250000  -999.250000  -999.250000 93.553703308 0.0003000000
  -999.250000 2.4219000340 0.1115000024 0.3768999875 58.805301666 2216.5056152
  -999.250000 9.0549001694 8.5000000000  -999.250000  -999.250000  -999.250000
 2216.6579291
 0.0000000000 0.0000000000 0.0004000000 0.4744000137 1.0000000000 1.4726999998
 3.3113000393  -999.250000  -999.250000  -999.250000 87.386901855 0.0003000000
  -999.250000 2.4551999569 0.0948000029 0.3635999858 53.670799255 2216.6579590
  -999.250000 9.2186002731 8.5000000000  -999.250000  -999.250000  -999.250000
 2216.8103291
 0.0000000000 0.0000000000 0.1997999996 0.3565999866 1.0000000000 1.4530999660
 10.984600067  -999.250000  -999.250000  -999.250000 93.743896484 0.0003000000
  -999.250000 2.5000000000 0.0725999996 0.2944999933 44.477798462 2216.8103027
  -999.250000 9.1094999313 8.5000000000  -999.250000  -999.250000  -999.250000
 2216.9627291
 0.0000000000 0.0000000000 0.2000000030 0.3183999956 1.0000000000 1.4608999491
 3.2799999714  -999.250000  -999.250000  -999.250000 105.74289703 0.0003000000
  -999.250000 2.5137000084 0.0692000017 0.2085999995 41.158000946 2216.9628906
  -999.250000 9.2264995575 8.5000000000  -999.250000  -999.250000  -999.250000
 2217.1151291
 0.0000000000 0.0000000000 0.0000000000 0.3208999932 1.0000000000 1.4541000128
 1.9608999491  -999.250000  -999.250000  -999.250000 111.55999756 0.0003000000
  -999.250000 2.4765999317 0.0922000036 0.1782000065 48.530998230 2217.1152344
  -999.250000 9.1953001022 8.5000000000  -999.250000  -999.250000  -999.250000
 2217.2675290
 0.0000000000 0.0000000000 0.0000000000 0.3592999876 1.0000000000 1.4033000469
 1.5204999447  -999.250000  -999.250000  -999.250000 114.37000275 0.0094999997
  -999.250000 2.4159998894 0.1272999942 0.2334000021 57.937999725 2217.2675781
  -999.250000 8.9375000000 8.5000000000  -999.250000  -999.250000  -999.250000
