# LAS format log file from PETREL
# Project units are specified as depth units
#==================================================================
~Version information
VERS.   2.0:
WRAP.   YES:
#==================================================================
~Well
STRT .m      800.09997440 :
STOP .m      2299.7159264 :
STEP .m     0.15240000 :
NULL .        -999.250000 :
COMP.           : COMPANY
WELL.  34/10-11   : WELL
FLD.            : FIELD
LOC.            : LOCATION
SRVC.           : SERVICE COMPANY
DATE.  Wednesday, March 31 2010 12:33:12   : DATE
PROV.           : PROVINCE
UWI.      : UNIQUE WELL ID
API.            : API NUMBER
#==================================================================
~Curve
DEPT .m                   : DEPTH
NETS .                    : NETS
COAL .                    : COAL
CARB .                    : CARB
VSH .                     : VSH
SW .                      : SW
ILD .ohm.m                : ILD
MSFL .ohm.m               : MSFL
LLS .ohm.m                : LLS
LLD .ohm.m                : LLD
ILM .ohm.m                : ILM
DT .us/ft                 : DT
KLOG .mD                  : KLOG
DRHO .g/cm3               : DRHO
RHOB .g/cm3               : RHOB
PHIF .m3/m3               : PHIF
NPHI .m3/m3               : NPHI
GR .gAPI                  : GR
DEPT .m                   : DEPT
TIME .ms                  : TIME
CALI .in                  : CALI
BS .in                    : BS
QTOT .rm3/d               : QTOT
QWAT .sm3/d               : QWAT
GeneralTime1 .ms          : General Time 1
~Parameter
#==================================================================
~Ascii
# ...
 2045.9699345
 1.0000000000 0.0000000000 0.0000000000 0.2497999966 0.3179000020 9.1640996933
 3.7890999317 6.1059999466 6.1897001266  -999.250000 106.75000000 38.731601715
  -999.250000 2.2323999405 0.2243999988 0.2714999914 37.625000000 2045.9699707
  -999.250000 8.5937995911 8.5000000000  -999.250000  -999.250000  -999.250000
 2046.1223345
 1.0000000000 0.0000000000 0.0000000000 0.2462999970 0.3648999929 7.5461001396
 2.6989998817 4.4379000664 4.3706998825  -999.250000 109.38130188 55.681999207
  -999.250000 2.2147998810 0.2373999953 0.2827000022 33.843299866 2046.1224365
  -999.250000 8.6718997955 8.5000000000  -999.250000  -999.250000  -999.250000
 2046.2747345
 1.0000000000 0.0000000000 0.0000000000 0.2642999887 0.4268999994 6.0963997841
 2.3259999752 3.4184000492 3.2971000671  -999.250000 111.75279999 35.434799194
  -999.250000 2.2128999233 0.2419999987 0.2969000041 32.687801361 2046.2747803
  -999.250000 8.6718997955 8.5000000000  -999.250000  -999.250000  -999.250000
 2046.4271345
 1.0000000000 0.0000000000 0.0000000000 0.2610999942 0.5037999749 4.7147998810
 2.1445000172 2.8884999752 2.7216000557  -999.250000 114.75000000 7.0033001900
  -999.250000 2.2344000340 0.2336000055 0.3120000064 32.530998230 2046.4272461
  -999.250000 8.6718997955 8.5000000000  -999.250000  -999.250000  -999.250000
 2046.5795345
 1.0000000000 0.0000000000 0.0000000000 0.2655999959 0.5784000158 3.7284998894
 2.3652000427 2.6270000935 2.4486000538  -999.250000 116.75000000 1.6512000561
  -999.250000 2.2597999573 0.2208999991 0.3129999936 33.344001770 2046.5795898
  -999.250000 8.3593997955 8.5000000000  -999.250000  -999.250000  -999.250000
 2046.7319345
 0.0000000000 0.0000000000 0.0000000000 0.3743999898 0.6197000146 3.0759999752
 2.3341000080 2.2481000423 2.0606000423  -999.250000 115.18820190 0.7897999883
  -999.250000 2.2715001106 0.2055999935 0.3134999871 39.471900940 2046.7320557
  -999.250000 8.3593997955 8.5000000000  -999.250000  -999.250000  -999.250000
 2046.8843345
 0.0000000000 0.0000000000 0.0000000000 0.3506999910 0.6942999959 2.5973999500
 2.5422000885 2.0459001064 1.8503999710  -999.250000 111.00160217 0.6876000166
  -999.250000 2.2852001190 0.2005999982 0.2969000041 46.285400391 2046.8843994
  -999.250000 8.3985996246 8.5000000000  -999.250000  -999.250000  -999.250000
 2047.0367345
 0.0000000000 0.0000000000 0.0000000000 0.4246999919 0.7649999857 2.2149999142
 1.6108000278 1.9368000031 1.7422000170  -999.250000 112.99909973 0.0434000008
  -999.250000 2.3125000000 0.1805000007 0.3129999936 51.778701782 2047.0367432
  -999.250000 8.6248998642 8.5000000000  -999.250000  -999.250000  -999.250000
 2047.1891345
 0.0000000000 0.0000000000 0.0000000000 0.4487000108 0.8234000206 1.9286999702
 1.9170000553 1.8473999500 1.6456999779  -999.250000 111.37999725 0.0012000001
  -999.250000 2.3534998894 0.1653999984 0.3095999956 55.375000000 2047.1892090
  -999.250000 9.2578001022 8.5000000000  -999.250000  -999.250000  -999.250000
 2047.3415345
 0.0000000000 0.0000000000 0.0000000000 0.5260000229 0.9193000197 1.7470999956
 2.4433999062 1.8801000118 1.6964999437  -999.250000 109.75000000 0.0000000000
  -999.250000 2.3905999660 0.1374000013 0.3192999959 55.030998230 2047.3415527
  -999.250000 9.2734003067 8.5000000000  -999.250000  -999.250000  -999.250000
 2047.4939345
 0.0000000000 0.0000000000 0.0000000000 0.5289999843 0.9602000117 1.6513999701
 2.1310000420 2.0120000839 1.8356000185  -999.250000 108.74770355 0.0000000000
  -999.250000 2.4063000679 0.1251000017 0.3086000085 56.997798920 2047.4940186
  -999.250000 9.2812995911 8.5000000000  -999.250000  -999.250000  -999.250000
 2047.6463345
 0.0000000000 0.0000000000 0.0000000000 0.4968999922 0.9072999954 1.5937999487
 2.3357999325 2.0729000568 1.8792999983  -999.250000 105.38189697 0.0000000000
  -999.250000 2.4003999233 0.1325999945 0.3003000021 53.720798492 2047.6463623
  -999.250000 9.3437995911 8.5000000000  -999.250000  -999.250000  -999.250000
 2047.7987345
 0.0000000000 0.0000000000 0.0000000000 0.4812000096 0.8938000202 1.5702999830
 2.4003999233 2.0906999111 1.9107999802  -999.250000 101.19000244 0.0000000000
  -999.250000 2.3945000172 0.1352999955 0.2953999937 51.469001770 2047.7988281
  -999.250000 9.2734003067 8.5000000000  -999.250000  -999.250000  -999.250000
 2047.9511345
 0.0000000000 0.0000000000 0.0000000000 0.4699999988 0.8604999781 1.5801000595
 2.4433999062 2.0576000214 1.8954000473  -999.250000 102.00000000 0.0001000000
  -999.250000 2.3808999062 0.1428000033 0.2973999977 47.405998230 2047.9511719
  -999.250000 9.2812995911 8.5000000000  -999.250000  -999.250000  -999.250000
 2048.1035345
 0.0000000000 0.0000000000 0.0000000000 0.4600999951 0.8165000081 1.6230000257
 2.4688000679 1.9780000448 1.7983000278  -999.250000 100.55999756 0.0012000001
  -999.250000 2.3554999828 0.1563999951 0.3061999977 45.748699188 2048.1035156
  -999.250000 9.1950998306 8.5000000000  -999.250000  -999.250000  -999.250000
 2048.2559345
 0.0000000000 0.0000000000 0.0000000000 0.4616000056 0.7893000245 1.6964000463
 2.4196999073 2.0264000893 1.8474999666  -999.250000 100.56569672 0.0085000005
  -999.250000 2.3262000084 0.1712999940 0.3217999935 43.467700958 2048.2561035
  -999.250000 8.7811002731 8.5000000000  -999.250000  -999.250000  -999.250000
 2048.4083345
 0.0000000000 0.0000000000 0.0000000000 0.4539999962 0.7651000023 1.8450000286
 2.1700000763 2.3357999325 2.1605999470  -999.250000 106.73509979 0.0157999992
  -999.250000 2.3164000511 0.1772000045 0.3265999854 42.094001770 2048.4084473
  -999.250000 8.5625000000 8.5000000000  -999.250000  -999.250000  -999.250000
 2048.5607344
 0.0000000000 0.0000000000 0.0000000000 0.4108000100 0.6789000034 2.0727999210
 2.2829999924 2.9751999378 2.8171000481  -999.250000 95.181999207 0.1257999986
  -999.250000 2.2948999405 0.1931000054 0.3188000023 42.100700378 2048.5607910
  -999.250000 8.5785999298 8.5000000000  -999.250000  -999.250000  -999.250000
 2048.7131344
 0.0000000000 0.0000000000 0.0000000000 0.3499999940 0.6047999859 2.3443999290
 2.1860001087 4.0480999947 4.0072999001  -999.250000 91.555297852 0.3666999936
  -999.250000 2.2987999916 0.1944999993 0.2904999852 46.161499023 2048.7131348
  -999.250000 8.8899002075 8.5000000000  -999.250000  -999.250000  -999.250000
 2048.8655344
 0.0000000000 0.0000000000 0.0000000000 0.2994999886 0.5160999894 2.6268000603
 2.4138998985 4.4149999619 4.3597998619  -999.250000 87.753097534 0.8945000172
  -999.250000 2.3008000851 0.1977999955 0.2691000104 48.872798920 2048.8654785
  -999.250000 8.5394001007 8.5000000000  -999.250000  -999.250000  -999.250000
 2049.0179344
 1.0000000000 0.0000000000 0.1999000013 0.2892999947 0.4869999886 2.9335000515
 2.6189999580 4.0293002129 4.0001997948  -999.250000 81.752601624 2.1501998901
  -999.250000 2.2871000767 0.2031999975 0.2694999874 50.218399048 2049.0180664
  -999.250000 8.3673000336 8.5000000000  -999.250000  -999.250000  -999.250000
 2049.1703344
 1.0000000000 0.0000000000 0.0000000000 0.2799000144 0.4629000127 3.2948999405
 2.8301000595 3.9953999519 3.9539000988  -999.250000 91.188003540 15.866299629
  -999.250000 2.2344000340 0.2296999991 0.2915000021 46.469001770 2049.1704102
  -999.250000 8.3828001022 8.5000000000  -999.250000  -999.250000  -999.250000
 2049.3227344
 1.0000000000 0.0000000000 0.0000000000 0.2716000080 0.4320000112 3.7969000340
 2.8320000172 3.9746000767 3.9765999317  -999.250000 96.375000000 62.760799408
  -999.250000 2.1875000000 0.2533999979 0.3109999895 41.187999725 2049.3227539
  -999.250000 8.4218997955 8.5000000000  -999.250000  -999.250000  -999.250000
 2049.4751344
 1.0000000000 0.0000000000 0.0000000000 0.2971999943 0.4273000062 4.3206000328
 2.9063999653 4.1044001579 4.1784000397  -999.250000 104.38320160 47.060699463
  -999.250000 2.1835999489 0.2536000013 0.3237000108 36.248600006 2049.4750977
  -999.250000 8.4218997955 8.5000000000  -999.250000  -999.250000  -999.250000
 2049.6275344
 1.0000000000 0.0000000000 0.0000000000 0.2843999863 0.4332000017 4.7504000664
 2.9960000515 4.3811001778 4.5144000053  -999.250000 109.19159698 20.411899567
  -999.250000 2.2109000683 0.2399999946 0.3140000105 34.188201904 2049.6276855
  -999.250000 8.3984003067 8.5000000000  -999.250000  -999.250000  -999.250000
